"Datum";"UurgroepOmschrijving (van aankomst)";"AankomstHalteCode";"AankomstHalteNaam";"AankomstLat";"AankomstLon";"AantalReizen"
"1/4/2021 12:00:00 AM";"00:00 - 00:59";"";"Overig";"";"";"3"
"1/4/2021 12:00:00 AM";"01:00 - 01:59";"";"Overig";"";"";"12"
"1/4/2021 12:00:00 AM";"02:00 - 02:59";"";"Overig";"";"";"19"
"1/4/2021 12:00:00 AM";"03:00 - 03:59";"";"Overig";"";"";"16"
"1/4/2021 12:00:00 AM";"04:00 - 04:59";"";"Overig";"";"";"36"
"1/4/2021 12:00:00 AM";"05:00 - 05:59";"";"Overig";"";"";"198"
"1/4/2021 12:00:00 AM";"05:00 - 05:59";"[[ Onb";"[[ Onbekend ]]";"0.00000000";"0.00000000";"21"
"1/4/2021 12:00:00 AM";"05:00 - 05:59";"04267";"Schiphol Airport/Plaza";"4.76139455";"52.30887344";"44"
"1/4/2021 12:00:00 AM";"05:00 - 05:59";"04300";"Knooppunt Schiphol Nrd";"4.79292928";"52.32250892";"10"
"1/4/2021 12:00:00 AM";"05:00 - 05:59";"04379";"Knooppunt Schiphol Nrd";"4.79320459";"52.32276196";"18"
"1/4/2021 12:00:00 AM";"05:00 - 05:59";"05022";"Centraal Station";"4.90104337";"52.37771998";"10"
"1/4/2021 12:00:00 AM";"05:00 - 05:59";"05100";"Centraal Station";"4.90068332";"52.37974972";"10"
"1/4/2021 12:00:00 AM";"05:00 - 05:59";"BMR";"Station Bijlmer ArenA";"4.94713474";"52.31193030";"17"
"1/4/2021 12:00:00 AM";"05:00 - 05:59";"CS";"Centraal Station";"4.90078150";"52.37749421";"36"
"1/4/2021 12:00:00 AM";"05:00 - 05:59";"WTC";"Station Zuid";"4.87509853";"52.33908015";"10"
"1/4/2021 12:00:00 AM";"06:00 - 06:59";"";"Overig";"";"";"1328"
"1/4/2021 12:00:00 AM";"06:00 - 06:59";"[[ Onb";"[[ Onbekend ]]";"0.00000000";"0.00000000";"84"
"1/4/2021 12:00:00 AM";"06:00 - 06:59";"00205";"Station Holendrecht";"4.95865657";"52.29716971";"10"
"1/4/2021 12:00:00 AM";"06:00 - 06:59";"00434";"Bijlmerplein";"4.95032022";"52.31457553";"22"
"1/4/2021 12:00:00 AM";"06:00 - 06:59";"00453";"Diemen Sniep";"4.96964866";"52.33644962";"34"
"1/4/2021 12:00:00 AM";"06:00 - 06:59";"00561";"Station Bijlmer ArenA";"4.94741931";"52.31132918";"20"
"1/4/2021 12:00:00 AM";"06:00 - 06:59";"00568";"Station Bijlmer ArenA";"4.94762664";"52.31112323";"10"
"1/4/2021 12:00:00 AM";"06:00 - 06:59";"00902";"Stammerkamp";"4.98344083";"52.33320797";"12"
"1/4/2021 12:00:00 AM";"06:00 - 06:59";"01365";"Atat?rk";"4.89794256";"52.40319625";"12"
"1/4/2021 12:00:00 AM";"06:00 - 06:59";"01402";"Floraweg";"4.90614362";"52.39899665";"10"
"1/4/2021 12:00:00 AM";"06:00 - 06:59";"02018";"Koivistokade";"4.87577082";"52.39789874";"13"
"1/4/2021 12:00:00 AM";"06:00 - 06:59";"02273";"La Guardiaweg";"4.84036631";"52.39152109";"12"
"1/4/2021 12:00:00 AM";"06:00 - 06:59";"02311";"Seineweg";"4.81857317";"52.38632242";"37"
"1/4/2021 12:00:00 AM";"06:00 - 06:59";"02361";"Station Sloterdijk";"4.83931858";"52.38833460";"32"
"1/4/2021 12:00:00 AM";"06:00 - 06:59";"02378";"Station Sloterdijk";"4.83809796";"52.38844579";"15"
"1/4/2021 12:00:00 AM";"06:00 - 06:59";"04088";"Louwesweg";"4.82436420";"52.34669608";"11"
"1/4/2021 12:00:00 AM";"06:00 - 06:59";"04112";"Johan Huizingalaan";"4.82742878";"52.34923618";"10"
"1/4/2021 12:00:00 AM";"06:00 - 06:59";"04195";"Station Lelylaan";"4.83460082";"52.35788018";"22"
"1/4/2021 12:00:00 AM";"06:00 - 06:59";"04267";"Schiphol Airport/Plaza";"4.76139455";"52.30887344";"27"
"1/4/2021 12:00:00 AM";"06:00 - 06:59";"05011";"Centraal Station";"4.89921803";"52.37810793";"48"
"1/4/2021 12:00:00 AM";"06:00 - 06:59";"05022";"Centraal Station";"4.90104337";"52.37771998";"32"
"1/4/2021 12:00:00 AM";"06:00 - 06:59";"05065";"Dam";"4.89079364";"52.37367792";"12"
"1/4/2021 12:00:00 AM";"06:00 - 06:59";"05066";"Dam";"4.89027056";"52.37318140";"14"
"1/4/2021 12:00:00 AM";"06:00 - 06:59";"05069";"Nieuwezijds Kolk";"4.89373093";"52.37628765";"10"
"1/4/2021 12:00:00 AM";"06:00 - 06:59";"05097";"Centraal Station";"4.90087651";"52.37954379";"22"
"1/4/2021 12:00:00 AM";"06:00 - 06:59";"05103";"Centraal Station";"4.90127481";"52.37938365";"19"
"1/4/2021 12:00:00 AM";"06:00 - 06:59";"06028";"Elandsgracht";"4.87741694";"52.36974738";"11"
"1/4/2021 12:00:00 AM";"06:00 - 06:59";"06029";"Elandsgracht";"4.87684368";"52.36852258";"11"
"1/4/2021 12:00:00 AM";"06:00 - 06:59";"06061";"Leidseplein";"4.88339576";"52.36305015";"12"
"1/4/2021 12:00:00 AM";"06:00 - 06:59";"06089";"Leidseplein";"4.88085541";"52.36309324";"14"
"1/4/2021 12:00:00 AM";"06:00 - 06:59";"07269";"Station Zuid";"4.87374306";"52.34082689";"12"
"1/4/2021 12:00:00 AM";"06:00 - 06:59";"07303";"VU medisch centrum";"4.86097062";"52.33515342";"19"
"1/4/2021 12:00:00 AM";"06:00 - 06:59";"08057";"Frederiksplein";"4.90024241";"52.35971430";"10"
"1/4/2021 12:00:00 AM";"06:00 - 06:59";"ASA";"Amstelstation";"4.91751426";"52.34647326";"93"
"1/4/2021 12:00:00 AM";"06:00 - 06:59";"ASW";"Amstelveenseweg";"4.85798324";"52.33836671";"140"
"1/4/2021 12:00:00 AM";"06:00 - 06:59";"BLW";"Bullewijk";"4.95233581";"52.30642205";"21"
"1/4/2021 12:00:00 AM";"06:00 - 06:59";"BMR";"Station Bijlmer ArenA";"4.94713474";"52.31193030";"140"
"1/4/2021 12:00:00 AM";"06:00 - 06:59";"CLL";"Station Lelylaan";"4.83426589";"52.35766291";"22"
"1/4/2021 12:00:00 AM";"06:00 - 06:59";"CS";"Centraal Station";"4.90078150";"52.37749421";"239"
"1/4/2021 12:00:00 AM";"06:00 - 06:59";"DPP";"De Pijp";"4.89101069";"52.35296212";"31"
"1/4/2021 12:00:00 AM";"06:00 - 06:59";"DVD";"Station Duivendrecht";"4.93678429";"52.32325190";"35"
"1/4/2021 12:00:00 AM";"06:00 - 06:59";"EPP";"Europaplein";"4.89138430";"52.34185482";"19"
"1/4/2021 12:00:00 AM";"06:00 - 06:59";"GZH";"Station Ganzenhoef";"4.97323379";"52.32331315";"11"
"1/4/2021 12:00:00 AM";"06:00 - 06:59";"HDS";"Heemstedestraat";"4.83421208";"52.35255760";"24"
"1/4/2021 12:00:00 AM";"06:00 - 06:59";"HLD";"Station Holendrecht";"4.96021904";"52.29780451";"122"
"1/4/2021 12:00:00 AM";"06:00 - 06:59";"HVW";"Henk Sneevlietweg";"4.83439318";"52.34626699";"60"
"1/4/2021 12:00:00 AM";"06:00 - 06:59";"ITW";"Isolatorweg";"4.85013475";"52.39523277";"21"
"1/4/2021 12:00:00 AM";"06:00 - 06:59";"JLS";"Jan v.Galenstraat";"4.83492461";"52.37196551";"54"
"1/4/2021 12:00:00 AM";"06:00 - 06:59";"MDW";"Van der Madeweg";"4.93048657";"52.32945629";"33"
"1/4/2021 12:00:00 AM";"06:00 - 06:59";"ND";"Noord";"4.93123182";"52.40117202";"43"
"1/4/2021 12:00:00 AM";"06:00 - 06:59";"NDP";"Noorderpark";"4.91789115";"52.38855518";"35"
"1/4/2021 12:00:00 AM";"06:00 - 06:59";"NMT";"Nieuwmarkt";"4.90123885";"52.37194169";"26"
"1/4/2021 12:00:00 AM";"06:00 - 06:59";"OAS";"Overamstel";"4.91815361";"52.33179879";"31"
"1/4/2021 12:00:00 AM";"06:00 - 06:59";"RAI";"Station RAI";"4.88982004";"52.33739931";"55"
"1/4/2021 12:00:00 AM";"06:00 - 06:59";"RKN";"Rokin";"4.89229651";"52.36928023";"56"
"1/4/2021 12:00:00 AM";"06:00 - 06:59";"SLW";"Spaklerweg";"4.92085640";"52.33986250";"27"
"1/4/2021 12:00:00 AM";"06:00 - 06:59";"STD";"Station Sloterdijk";"4.83878389";"52.38880848";"140"
"1/4/2021 12:00:00 AM";"06:00 - 06:59";"SVT";"Strandvliet";"4.94152820";"52.31825469";"16"
"1/4/2021 12:00:00 AM";"06:00 - 06:59";"VSW";"Verrijn Stuartweg";"4.96693669";"52.32844093";"31"
"1/4/2021 12:00:00 AM";"06:00 - 06:59";"VZG";"Vijzelgracht";"4.89072870";"52.35980061";"30"
"1/4/2021 12:00:00 AM";"06:00 - 06:59";"WBS";"Wibautstraat";"4.91202993";"52.35428867";"51"
"1/4/2021 12:00:00 AM";"06:00 - 06:59";"WLP";"Waterlooplein";"4.90298171";"52.36697862";"82"
"1/4/2021 12:00:00 AM";"06:00 - 06:59";"WPP";"Weesperplein";"4.90787469";"52.36120146";"66"
"1/4/2021 12:00:00 AM";"06:00 - 06:59";"WTC";"Station Zuid";"4.87509853";"52.33908015";"242"
"1/4/2021 12:00:00 AM";"07:00 - 07:59";"";"Overig";"";"";"2002"
"1/4/2021 12:00:00 AM";"07:00 - 07:59";"[[ Onb";"[[ Onbekend ]]";"0.00000000";"0.00000000";"183"
"1/4/2021 12:00:00 AM";"07:00 - 07:59";"00018";"Diemerknoop";"5.00286153";"52.33537576";"11"
"1/4/2021 12:00:00 AM";"07:00 - 07:59";"00020";"Beukenweg";"4.91674979";"52.35906203";"36"
"1/4/2021 12:00:00 AM";"07:00 - 07:59";"00021";"Beukenweg";"4.91721293";"52.35829991";"34"
"1/4/2021 12:00:00 AM";"07:00 - 07:59";"00030";"Oostpoort";"4.92694026";"52.35739442";"11"
"1/4/2021 12:00:00 AM";"07:00 - 07:59";"00046";"Fizeaustraat";"4.92463808";"52.34589015";"10"
"1/4/2021 12:00:00 AM";"07:00 - 07:59";"00158";"Dolingadreef";"4.94901581";"52.31895674";"12"
"1/4/2021 12:00:00 AM";"07:00 - 07:59";"00205";"Station Holendrecht";"4.95865657";"52.29716971";"21"
"1/4/2021 12:00:00 AM";"07:00 - 07:59";"00434";"Bijlmerplein";"4.95032022";"52.31457553";"30"
"1/4/2021 12:00:00 AM";"07:00 - 07:59";"00444";"Linnaeusstraat";"4.92490296";"52.35991203";"10"
"1/4/2021 12:00:00 AM";"07:00 - 07:59";"00453";"Diemen Sniep";"4.96964866";"52.33644962";"41"
"1/4/2021 12:00:00 AM";"07:00 - 07:59";"00560";"Station Bijlmer ArenA";"4.94747867";"52.31125750";"13"
"1/4/2021 12:00:00 AM";"07:00 - 07:59";"00561";"Station Bijlmer ArenA";"4.94741931";"52.31132918";"52"
"1/4/2021 12:00:00 AM";"07:00 - 07:59";"00999";"Vinkenbrug";"4.97831599";"52.33370267";"16"
"1/4/2021 12:00:00 AM";"07:00 - 07:59";"01316";"Station Noord";"4.93336820";"52.40204304";"10"
"1/4/2021 12:00:00 AM";"07:00 - 07:59";"01352";"Oosterlengte";"4.92206974";"52.40611555";"15"
"1/4/2021 12:00:00 AM";"07:00 - 07:59";"01365";"Atat?rk";"4.89794256";"52.40319625";"12"
"1/4/2021 12:00:00 AM";"07:00 - 07:59";"01402";"Floraweg";"4.90614362";"52.39899665";"11"
"1/4/2021 12:00:00 AM";"07:00 - 07:59";"02018";"Koivistokade";"4.87577082";"52.39789874";"11"
"1/4/2021 12:00:00 AM";"07:00 - 07:59";"02103";"Spaarndammerstraat";"4.87765867";"52.39216375";"15"
"1/4/2021 12:00:00 AM";"07:00 - 07:59";"02106";"Assendelftstraat";"4.87943840";"52.38941217";"12"
"1/4/2021 12:00:00 AM";"07:00 - 07:59";"02114";"Haarlemmerplein";"4.88341252";"52.38484542";"22"
"1/4/2021 12:00:00 AM";"07:00 - 07:59";"02156";"Willem de Zwijgerlaan";"4.86425293";"52.37039101";"10"
"1/4/2021 12:00:00 AM";"07:00 - 07:59";"02160";"Haparandaweg";"4.87389760";"52.39471799";"12"
"1/4/2021 12:00:00 AM";"07:00 - 07:59";"02273";"La Guardiaweg";"4.84036631";"52.39152109";"10"
"1/4/2021 12:00:00 AM";"07:00 - 07:59";"02311";"Seineweg";"4.81857317";"52.38632242";"17"
"1/4/2021 12:00:00 AM";"07:00 - 07:59";"02333";"Herwijk";"4.78729047";"52.39572206";"10"
"1/4/2021 12:00:00 AM";"07:00 - 07:59";"02360";"Station Sloterdijk";"4.83827278";"52.38856344";"11"
"1/4/2021 12:00:00 AM";"07:00 - 07:59";"02361";"Station Sloterdijk";"4.83931858";"52.38833460";"44"
"1/4/2021 12:00:00 AM";"07:00 - 07:59";"02366";"Station Sloterdijk";"4.83873347";"52.38813416";"12"
"1/4/2021 12:00:00 AM";"07:00 - 07:59";"02367";"Station Sloterdijk";"4.83876429";"52.38801747";"14"
"1/4/2021 12:00:00 AM";"07:00 - 07:59";"02378";"Station Sloterdijk";"4.83809796";"52.38844579";"30"
"1/4/2021 12:00:00 AM";"07:00 - 07:59";"03010";"Witte de Withstraat";"4.85928290";"52.36480554";"11"
"1/4/2021 12:00:00 AM";"07:00 - 07:59";"03061";"Bos en Lommerplein";"4.84523530";"52.37778328";"15"
"1/4/2021 12:00:00 AM";"07:00 - 07:59";"03076";"Jan Tooropstraat";"4.83810313";"52.37142305";"14"
"1/4/2021 12:00:00 AM";"07:00 - 07:59";"03099";"Dr. H. Colijnstraat";"4.80672448";"52.37693566";"12"
"1/4/2021 12:00:00 AM";"07:00 - 07:59";"04012";"Baden Powellweg";"4.79137362";"52.35646612";"11"
"1/4/2021 12:00:00 AM";"07:00 - 07:59";"04050";"Meer en Vaart";"4.80994403";"52.35636940";"12"
"1/4/2021 12:00:00 AM";"07:00 - 07:59";"04061";"Derkinderenstraat";"4.84014895";"52.35794190";"11"
"1/4/2021 12:00:00 AM";"07:00 - 07:59";"04065";"Osdorpplein Oost";"4.80773259";"52.35935153";"12"
"1/4/2021 12:00:00 AM";"07:00 - 07:59";"04088";"Louwesweg";"4.82436420";"52.34669608";"16"
"1/4/2021 12:00:00 AM";"07:00 - 07:59";"04112";"Johan Huizingalaan";"4.82742878";"52.34923618";"31"
"1/4/2021 12:00:00 AM";"07:00 - 07:59";"04195";"Station Lelylaan";"4.83460082";"52.35788018";"30"
"1/4/2021 12:00:00 AM";"07:00 - 07:59";"04196";"Station Lelylaan";"4.83382251";"52.35790351";"36"
"1/4/2021 12:00:00 AM";"07:00 - 07:59";"04267";"Schiphol Airport/Plaza";"4.76139455";"52.30887344";"17"
"1/4/2021 12:00:00 AM";"07:00 - 07:59";"04379";"Knooppunt Schiphol Nrd";"4.79320459";"52.32276196";"17"
"1/4/2021 12:00:00 AM";"07:00 - 07:59";"04402";"Matterhorn";"4.77477998";"52.35372103";"10"
"1/4/2021 12:00:00 AM";"07:00 - 07:59";"04409";"Baden Powellweg";"4.79441281";"52.35092691";"10"
"1/4/2021 12:00:00 AM";"07:00 - 07:59";"05011";"Centraal Station";"4.89921803";"52.37810793";"72"
"1/4/2021 12:00:00 AM";"07:00 - 07:59";"05022";"Centraal Station";"4.90104337";"52.37771998";"65"
"1/4/2021 12:00:00 AM";"07:00 - 07:59";"05047";"Rembrandtplein";"4.89702882";"52.36623511";"10"
"1/4/2021 12:00:00 AM";"07:00 - 07:59";"05065";"Dam";"4.89079364";"52.37367792";"18"
"1/4/2021 12:00:00 AM";"07:00 - 07:59";"05066";"Dam";"4.89027056";"52.37318140";"22"
"1/4/2021 12:00:00 AM";"07:00 - 07:59";"05069";"Nieuwezijds Kolk";"4.89373093";"52.37628765";"13"
"1/4/2021 12:00:00 AM";"07:00 - 07:59";"05074";"Westermarkt";"4.88354950";"52.37407874";"13"
"1/4/2021 12:00:00 AM";"07:00 - 07:59";"05077";"Marnixstraat";"4.87615428";"52.37228546";"11"
"1/4/2021 12:00:00 AM";"07:00 - 07:59";"05097";"Centraal Station";"4.90087651";"52.37954379";"13"
"1/4/2021 12:00:00 AM";"07:00 - 07:59";"05103";"Centraal Station";"4.90127481";"52.37938365";"17"
"1/4/2021 12:00:00 AM";"07:00 - 07:59";"06002";"Surinameplein";"4.85090753";"52.35807202";"10"
"1/4/2021 12:00:00 AM";"07:00 - 07:59";"06019";"Ten Katestraat";"4.86737423";"52.36591988";"18"
"1/4/2021 12:00:00 AM";"07:00 - 07:59";"06020";"Ten Katestraat";"4.86773990";"52.36603832";"14"
"1/4/2021 12:00:00 AM";"07:00 - 07:59";"06021";"Bilderdijkstraat";"4.87176488";"52.36712545";"10"
"1/4/2021 12:00:00 AM";"07:00 - 07:59";"06027";"Elandsgracht";"4.87855189";"52.36808953";"10"
"1/4/2021 12:00:00 AM";"07:00 - 07:59";"06028";"Elandsgracht";"4.87741694";"52.36974738";"16"
"1/4/2021 12:00:00 AM";"07:00 - 07:59";"06029";"Elandsgracht";"4.87684368";"52.36852258";"14"
"1/4/2021 12:00:00 AM";"07:00 - 07:59";"06030";"Rozengracht";"4.87590932";"52.37187996";"10"
"1/4/2021 12:00:00 AM";"07:00 - 07:59";"06034";"Bilderdijkstraat";"4.87082347";"52.37105798";"13"
"1/4/2021 12:00:00 AM";"07:00 - 07:59";"06037";"Bilderdijkstraat";"4.86985701";"52.37082906";"16"
"1/4/2021 12:00:00 AM";"07:00 - 07:59";"06045";"1e Con. Huygensstraat";"4.87399228";"52.36242556";"10"
"1/4/2021 12:00:00 AM";"07:00 - 07:59";"06046";"1e Con. Huygensstraat";"4.87487082";"52.36262709";"10"
"1/4/2021 12:00:00 AM";"07:00 - 07:59";"06048";"J.P. Heijestraat";"4.86585368";"52.36037674";"17"
"1/4/2021 12:00:00 AM";"07:00 - 07:59";"06061";"Leidseplein";"4.88339576";"52.36305015";"16"
"1/4/2021 12:00:00 AM";"07:00 - 07:59";"06076";"Koningsplein";"4.88857910";"52.36689188";"13"
"1/4/2021 12:00:00 AM";"07:00 - 07:59";"06089";"Leidseplein";"4.88085541";"52.36309324";"26"
"1/4/2021 12:00:00 AM";"07:00 - 07:59";"07006";"Museumplein";"4.87980116";"52.35642881";"13"
"1/4/2021 12:00:00 AM";"07:00 - 07:59";"07007";"Museumplein";"4.87950215";"52.35690388";"24"
"1/4/2021 12:00:00 AM";"07:00 - 07:59";"07016";"Roelof Hartplein";"4.88286688";"52.35274795";"14"
"1/4/2021 12:00:00 AM";"07:00 - 07:59";"07031";"Valeriusplein";"4.86374943";"52.35333004";"15"
"1/4/2021 12:00:00 AM";"07:00 - 07:59";"07120";"Olympiaweg";"4.85834130";"52.34526195";"10"
"1/4/2021 12:00:00 AM";"07:00 - 07:59";"07193";"Station Zuid";"4.87334616";"52.34088808";"16"
"1/4/2021 12:00:00 AM";"07:00 - 07:59";"07268";"Station Zuid";"4.87428608";"52.34082026";"11"
"1/4/2021 12:00:00 AM";"07:00 - 07:59";"07269";"Station Zuid";"4.87374306";"52.34082689";"15"
"1/4/2021 12:00:00 AM";"07:00 - 07:59";"07303";"VU medisch centrum";"4.86097062";"52.33515342";"47"
"1/4/2021 12:00:00 AM";"07:00 - 07:59";"07323";"Rijksmuseum";"4.88355043";"52.35977029";"14"
"1/4/2021 12:00:00 AM";"07:00 - 07:59";"07339";"Nieuw Herlaer";"4.88985946";"52.32602094";"14"
"1/4/2021 12:00:00 AM";"07:00 - 07:59";"07391";"Kronenburg";"4.87070592";"52.31556694";"12"
"1/4/2021 12:00:00 AM";"07:00 - 07:59";"07419";"Van Boshuizenstraat";"4.86896941";"52.32487971";"24"
"1/4/2021 12:00:00 AM";"07:00 - 07:59";"07423";"Uilenstede";"4.86910951";"52.32167168";"10"
"1/4/2021 12:00:00 AM";"07:00 - 07:59";"08054";"Weesperplein";"4.90941338";"52.36145933";"21"
"1/4/2021 12:00:00 AM";"07:00 - 07:59";"08057";"Frederiksplein";"4.90024241";"52.35971430";"12"
"1/4/2021 12:00:00 AM";"07:00 - 07:59";"08098";"1e v.Swindenstraat";"4.92386708";"52.36210997";"10"
"1/4/2021 12:00:00 AM";"07:00 - 07:59";"08120";"Insulindeweg";"4.94763926";"52.36469021";"15"
"1/4/2021 12:00:00 AM";"07:00 - 07:59";"08238";"Rietlandpark";"4.93350159";"52.37322013";"12"
"1/4/2021 12:00:00 AM";"07:00 - 07:59";"08239";"Rietlandpark";"4.93413567";"52.37296191";"17"
"1/4/2021 12:00:00 AM";"07:00 - 07:59";"08241";"Zuiderzeeweg";"4.96185517";"52.37193228";"10"
"1/4/2021 12:00:00 AM";"07:00 - 07:59";"08247";"Vennepluimstraat";"4.99057242";"52.35769662";"10"
"1/4/2021 12:00:00 AM";"07:00 - 07:59";"08249";"Diemerparklaan";"4.99499716";"52.35532962";"12"
"1/4/2021 12:00:00 AM";"07:00 - 07:59";"08262";"IJburg";"5.00486802";"52.35112872";"16"
"1/4/2021 12:00:00 AM";"07:00 - 07:59";"09013";"Amstelstation";"4.91790223";"52.34725673";"11"
"1/4/2021 12:00:00 AM";"07:00 - 07:59";"09023";"Camperstraat";"4.91383551";"52.35840330";"18"
"1/4/2021 12:00:00 AM";"07:00 - 07:59";"09049";"Victorieplein";"4.90570139";"52.34637186";"11"
"1/4/2021 12:00:00 AM";"07:00 - 07:59";"09111";"De Pijp";"4.89073444";"52.35272728";"14"
"1/4/2021 12:00:00 AM";"07:00 - 07:59";"ASA";"Amstelstation";"4.91751426";"52.34647326";"145"
"1/4/2021 12:00:00 AM";"07:00 - 07:59";"ASW";"Amstelveenseweg";"4.85798324";"52.33836671";"215"
"1/4/2021 12:00:00 AM";"07:00 - 07:59";"BLW";"Bullewijk";"4.95233581";"52.30642205";"82"
"1/4/2021 12:00:00 AM";"07:00 - 07:59";"BMR";"Station Bijlmer ArenA";"4.94713474";"52.31193030";"201"
"1/4/2021 12:00:00 AM";"07:00 - 07:59";"CLL";"Station Lelylaan";"4.83426589";"52.35766291";"58"
"1/4/2021 12:00:00 AM";"07:00 - 07:59";"CS";"Centraal Station";"4.90078150";"52.37749421";"331"
"1/4/2021 12:00:00 AM";"07:00 - 07:59";"DMZ";"Station Diemen-Zuid";"4.95713273";"52.33042795";"24"
"1/4/2021 12:00:00 AM";"07:00 - 07:59";"DPP";"De Pijp";"4.89101069";"52.35296212";"70"
"1/4/2021 12:00:00 AM";"07:00 - 07:59";"DVD";"Station Duivendrecht";"4.93678429";"52.32325190";"63"
"1/4/2021 12:00:00 AM";"07:00 - 07:59";"EPP";"Europaplein";"4.89138430";"52.34185482";"70"
"1/4/2021 12:00:00 AM";"07:00 - 07:59";"GN";"Gein";"4.98952268";"52.29627089";"41"
"1/4/2021 12:00:00 AM";"07:00 - 07:59";"GPP";"Gaasperplas";"4.98468551";"52.31080575";"16"
"1/4/2021 12:00:00 AM";"07:00 - 07:59";"GZH";"Station Ganzenhoef";"4.97323379";"52.32331315";"21"
"1/4/2021 12:00:00 AM";"07:00 - 07:59";"HDS";"Heemstedestraat";"4.83421208";"52.35255760";"45"
"1/4/2021 12:00:00 AM";"07:00 - 07:59";"HLD";"Station Holendrecht";"4.96021904";"52.29780451";"315"
"1/4/2021 12:00:00 AM";"07:00 - 07:59";"HVW";"Henk Sneevlietweg";"4.83439318";"52.34626699";"99"
"1/4/2021 12:00:00 AM";"07:00 - 07:59";"ITW";"Isolatorweg";"4.85013475";"52.39523277";"42"
"1/4/2021 12:00:00 AM";"07:00 - 07:59";"JLS";"Jan v.Galenstraat";"4.83492461";"52.37196551";"142"
"1/4/2021 12:00:00 AM";"07:00 - 07:59";"KEN";"Kraaienneststation";"4.97963450";"52.31632492";"21"
"1/4/2021 12:00:00 AM";"07:00 - 07:59";"MDW";"Van der Madeweg";"4.93048657";"52.32945629";"36"
"1/4/2021 12:00:00 AM";"07:00 - 07:59";"ND";"Noord";"4.93123182";"52.40117202";"126"
"1/4/2021 12:00:00 AM";"07:00 - 07:59";"NDP";"Noorderpark";"4.91789115";"52.38855518";"48"
"1/4/2021 12:00:00 AM";"07:00 - 07:59";"NMT";"Nieuwmarkt";"4.90123885";"52.37194169";"40"
"1/4/2021 12:00:00 AM";"07:00 - 07:59";"OAS";"Overamstel";"4.91815361";"52.33179879";"47"
"1/4/2021 12:00:00 AM";"07:00 - 07:59";"PJW";"Postjesweg";"4.83385543";"52.36468044";"19"
"1/4/2021 12:00:00 AM";"07:00 - 07:59";"RAI";"Station RAI";"4.88982004";"52.33739931";"91"
"1/4/2021 12:00:00 AM";"07:00 - 07:59";"RGB";"Reigersbos";"4.97473728";"52.29566301";"40"
"1/4/2021 12:00:00 AM";"07:00 - 07:59";"RKN";"Rokin";"4.89229651";"52.36928023";"124"
"1/4/2021 12:00:00 AM";"07:00 - 07:59";"SLW";"Spaklerweg";"4.92085640";"52.33986250";"57"
"1/4/2021 12:00:00 AM";"07:00 - 07:59";"STD";"Station Sloterdijk";"4.83878389";"52.38880848";"178"
"1/4/2021 12:00:00 AM";"07:00 - 07:59";"SVT";"Strandvliet";"4.94152820";"52.31825469";"37"
"1/4/2021 12:00:00 AM";"07:00 - 07:59";"VLN";"Burg.de Vlugtlaan";"4.83809109";"52.37951196";"31"
"1/4/2021 12:00:00 AM";"07:00 - 07:59";"VPD";"Venserpolder";"4.94665009";"52.32679428";"26"
"1/4/2021 12:00:00 AM";"07:00 - 07:59";"VSW";"Verrijn Stuartweg";"4.96693669";"52.32844093";"29"
"1/4/2021 12:00:00 AM";"07:00 - 07:59";"VZG";"Vijzelgracht";"4.89072870";"52.35980061";"51"
"1/4/2021 12:00:00 AM";"07:00 - 07:59";"WBS";"Wibautstraat";"4.91202993";"52.35428867";"164"
"1/4/2021 12:00:00 AM";"07:00 - 07:59";"WLP";"Waterlooplein";"4.90298171";"52.36697862";"65"
"1/4/2021 12:00:00 AM";"07:00 - 07:59";"WPP";"Weesperplein";"4.90787469";"52.36120146";"97"
"1/4/2021 12:00:00 AM";"07:00 - 07:59";"WTC";"Station Zuid";"4.87509853";"52.33908015";"399"
"1/4/2021 12:00:00 AM";"08:00 - 08:59";"";"Overig";"";"";"2331"
"1/4/2021 12:00:00 AM";"08:00 - 08:59";"[[ Onb";"[[ Onbekend ]]";"0.00000000";"0.00000000";"298"
"1/4/2021 12:00:00 AM";"08:00 - 08:59";"00007";"Muiderpoortstation";"4.93356602";"52.36117686";"24"
"1/4/2021 12:00:00 AM";"08:00 - 08:59";"00014";"Wijttenbachstraat";"4.92507537";"52.36027221";"10"
"1/4/2021 12:00:00 AM";"08:00 - 08:59";"00018";"Diemerknoop";"5.00286153";"52.33537576";"13"
"1/4/2021 12:00:00 AM";"08:00 - 08:59";"00020";"Beukenweg";"4.91674979";"52.35906203";"43"
"1/4/2021 12:00:00 AM";"08:00 - 08:59";"00021";"Beukenweg";"4.91721293";"52.35829991";"41"
"1/4/2021 12:00:00 AM";"08:00 - 08:59";"00029";"Oostpoort";"4.92719316";"52.35707185";"14"
"1/4/2021 12:00:00 AM";"08:00 - 08:59";"00030";"Oostpoort";"4.92694026";"52.35739442";"20"
"1/4/2021 12:00:00 AM";"08:00 - 08:59";"00039";"Hogeweg";"4.93084015";"52.35358075";"10"
"1/4/2021 12:00:00 AM";"08:00 - 08:59";"00040";"Hogeweg";"4.93135765";"52.35321425";"11"
"1/4/2021 12:00:00 AM";"08:00 - 08:59";"00070";"Kruislaan";"4.93993910";"52.34789929";"10"
"1/4/2021 12:00:00 AM";"08:00 - 08:59";"00116";"Station Ganzenhoef";"4.97272915";"52.32237665";"11"
"1/4/2021 12:00:00 AM";"08:00 - 08:59";"00134";"Koornhorst";"4.98400929";"52.31907218";"13"
"1/4/2021 12:00:00 AM";"08:00 - 08:59";"00141";"Kraaienneststation";"4.97868390";"52.31603403";"13"
"1/4/2021 12:00:00 AM";"08:00 - 08:59";"00150";"Tulastraat";"4.96535973";"52.31994189";"12"
"1/4/2021 12:00:00 AM";"08:00 - 08:59";"00151";"Tulastraat";"4.96584458";"52.31985374";"17"
"1/4/2021 12:00:00 AM";"08:00 - 08:59";"00197";"Annie Romeinplein";"4.97162041";"52.32173463";"10"
"1/4/2021 12:00:00 AM";"08:00 - 08:59";"00205";"Station Holendrecht";"4.95865657";"52.29716971";"12"
"1/4/2021 12:00:00 AM";"08:00 - 08:59";"00432";"Diemerbrug";"4.96142958";"52.33824484";"11"
"1/4/2021 12:00:00 AM";"08:00 - 08:59";"00434";"Bijlmerplein";"4.95032022";"52.31457553";"26"
"1/4/2021 12:00:00 AM";"08:00 - 08:59";"00441";"Muiderpoortstation";"4.93254137";"52.36088532";"25"
"1/4/2021 12:00:00 AM";"08:00 - 08:59";"00453";"Diemen Sniep";"4.96964866";"52.33644962";"14"
"1/4/2021 12:00:00 AM";"08:00 - 08:59";"00505";"Arent Krijtsstraat";"4.95469645";"52.33956859";"11"
"1/4/2021 12:00:00 AM";"08:00 - 08:59";"00560";"Station Bijlmer ArenA";"4.94747867";"52.31125750";"13"
"1/4/2021 12:00:00 AM";"08:00 - 08:59";"00561";"Station Bijlmer ArenA";"4.94741931";"52.31132918";"29"
"1/4/2021 12:00:00 AM";"08:00 - 08:59";"01110";"Rode Kruisstraat";"4.92847908";"52.39455548";"13"
"1/4/2021 12:00:00 AM";"08:00 - 08:59";"01111";"Rode Kruisstraat";"4.92881363";"52.39488033";"25"
"1/4/2021 12:00:00 AM";"08:00 - 08:59";"01212";"Oostzanerdijk";"4.88149588";"52.42023965";"10"
"1/4/2021 12:00:00 AM";"08:00 - 08:59";"01305";"Station Noord";"4.93215715";"52.40264056";"10"
"1/4/2021 12:00:00 AM";"08:00 - 08:59";"01316";"Station Noord";"4.93336820";"52.40204304";"12"
"1/4/2021 12:00:00 AM";"08:00 - 08:59";"01365";"Atat?rk";"4.89794256";"52.40319625";"17"
"1/4/2021 12:00:00 AM";"08:00 - 08:59";"01402";"Floraweg";"4.90614362";"52.39899665";"27"
"1/4/2021 12:00:00 AM";"08:00 - 08:59";"02018";"Koivistokade";"4.87577082";"52.39789874";"25"
"1/4/2021 12:00:00 AM";"08:00 - 08:59";"02064";"Kabelweg";"4.84827817";"52.39205168";"12"
"1/4/2021 12:00:00 AM";"08:00 - 08:59";"02103";"Spaarndammerstraat";"4.87765867";"52.39216375";"15"
"1/4/2021 12:00:00 AM";"08:00 - 08:59";"02113";"Haarlemmerplein";"4.88371739";"52.38516129";"13"
"1/4/2021 12:00:00 AM";"08:00 - 08:59";"02114";"Haarlemmerplein";"4.88341252";"52.38484542";"33"
"1/4/2021 12:00:00 AM";"08:00 - 08:59";"02130";"Hugo de Grootplein";"4.87259092";"52.37439113";"10"
"1/4/2021 12:00:00 AM";"08:00 - 08:59";"02151";"De Wittenkade";"4.87695310";"52.38326290";"12"
"1/4/2021 12:00:00 AM";"08:00 - 08:59";"02155";"Willem de Zwijgerlaan";"4.86360306";"52.37071170";"11"
"1/4/2021 12:00:00 AM";"08:00 - 08:59";"02156";"Willem de Zwijgerlaan";"4.86425293";"52.37039101";"11"
"1/4/2021 12:00:00 AM";"08:00 - 08:59";"02157";"Adm. de Ruijterweg";"4.86009910";"52.37148707";"15"
"1/4/2021 12:00:00 AM";"08:00 - 08:59";"02158";"Adm. de Ruijterweg";"4.86096776";"52.37129320";"21"
"1/4/2021 12:00:00 AM";"08:00 - 08:59";"02160";"Haparandaweg";"4.87389760";"52.39471799";"23"
"1/4/2021 12:00:00 AM";"08:00 - 08:59";"02170";"Spaarndammerstraat";"4.87723089";"52.39231470";"13"
"1/4/2021 12:00:00 AM";"08:00 - 08:59";"02222";"Jan van Galenstraat";"4.85874763";"52.37399761";"14"
"1/4/2021 12:00:00 AM";"08:00 - 08:59";"02320";"Van Hallstraat";"4.86782303";"52.38527240";"11"
"1/4/2021 12:00:00 AM";"08:00 - 08:59";"02361";"Station Sloterdijk";"4.83931858";"52.38833460";"45"
"1/4/2021 12:00:00 AM";"08:00 - 08:59";"02367";"Station Sloterdijk";"4.83876429";"52.38801747";"12"
"1/4/2021 12:00:00 AM";"08:00 - 08:59";"02370";"Station Sloterdijk";"4.83879745";"52.38771204";"11"
"1/4/2021 12:00:00 AM";"08:00 - 08:59";"02378";"Station Sloterdijk";"4.83809796";"52.38844579";"30"
"1/4/2021 12:00:00 AM";"08:00 - 08:59";"03010";"Witte de Withstraat";"4.85928290";"52.36480554";"13"
"1/4/2021 12:00:00 AM";"08:00 - 08:59";"03023";"Marco Polostraat";"4.85520189";"52.37088096";"13"
"1/4/2021 12:00:00 AM";"08:00 - 08:59";"03052";"Burg. Eliasstraat";"4.82565009";"52.38077481";"15"
"1/4/2021 12:00:00 AM";"08:00 - 08:59";"03060";"Bos en Lommerplein";"4.84718407";"52.37815169";"11"
"1/4/2021 12:00:00 AM";"08:00 - 08:59";"03061";"Bos en Lommerplein";"4.84523530";"52.37778328";"21"
"1/4/2021 12:00:00 AM";"08:00 - 08:59";"03076";"Jan Tooropstraat";"4.83810313";"52.37142305";"20"
"1/4/2021 12:00:00 AM";"08:00 - 08:59";"03077";"Jan Tooropstraat";"4.83817288";"52.37171997";"10"
"1/4/2021 12:00:00 AM";"08:00 - 08:59";"03087";"Plein '40 - '45";"4.82063128";"52.38159575";"14"
"1/4/2021 12:00:00 AM";"08:00 - 08:59";"03097";"Burg. v. Leeuwenlaan";"4.81182601";"52.37651117";"14"
"1/4/2021 12:00:00 AM";"08:00 - 08:59";"03121";"Aalbersestraat";"4.79774249";"52.38202329";"10"
"1/4/2021 12:00:00 AM";"08:00 - 08:59";"03129";"Plein '40 - '45";"4.82112672";"52.38075328";"15"
"1/4/2021 12:00:00 AM";"08:00 - 08:59";"03167";"Bos en Lommerplein";"4.84650668";"52.37709704";"18"
"1/4/2021 12:00:00 AM";"08:00 - 08:59";"03168";"Mercatorplein";"4.85152392";"52.37024423";"11"
"1/4/2021 12:00:00 AM";"08:00 - 08:59";"03181";"Jan Voermanstraat";"4.83788946";"52.36970540";"13"
"1/4/2021 12:00:00 AM";"08:00 - 08:59";"03197";"W. Schoutenstraat";"4.85238084";"52.36737202";"11"
"1/4/2021 12:00:00 AM";"08:00 - 08:59";"04012";"Baden Powellweg";"4.79137362";"52.35646612";"16"
"1/4/2021 12:00:00 AM";"08:00 - 08:59";"04021";"Osdorpplein West";"4.80322869";"52.35913166";"22"
"1/4/2021 12:00:00 AM";"08:00 - 08:59";"04050";"Meer en Vaart";"4.80994403";"52.35636940";"27"
"1/4/2021 12:00:00 AM";"08:00 - 08:59";"04060";"Derkinderenstraat";"4.83972293";"52.35796689";"17"
"1/4/2021 12:00:00 AM";"08:00 - 08:59";"04061";"Derkinderenstraat";"4.84014895";"52.35794190";"14"
"1/4/2021 12:00:00 AM";"08:00 - 08:59";"04062";"Johan Huizingalaan";"4.82582327";"52.35781191";"12"
"1/4/2021 12:00:00 AM";"08:00 - 08:59";"04063";"Johan Huizingalaan";"4.82626398";"52.35778704";"13"
"1/4/2021 12:00:00 AM";"08:00 - 08:59";"04065";"Osdorpplein Oost";"4.80773259";"52.35935153";"12"
"1/4/2021 12:00:00 AM";"08:00 - 08:59";"04088";"Louwesweg";"4.82436420";"52.34669608";"12"
"1/4/2021 12:00:00 AM";"08:00 - 08:59";"04112";"Johan Huizingalaan";"4.82742878";"52.34923618";"32"
"1/4/2021 12:00:00 AM";"08:00 - 08:59";"04140";"Sierplein";"4.82732630";"52.35503282";"12"
"1/4/2021 12:00:00 AM";"08:00 - 08:59";"04195";"Station Lelylaan";"4.83460082";"52.35788018";"45"
"1/4/2021 12:00:00 AM";"08:00 - 08:59";"04196";"Station Lelylaan";"4.83382251";"52.35790351";"49"
"1/4/2021 12:00:00 AM";"08:00 - 08:59";"04267";"Schiphol Airport/Plaza";"4.76139455";"52.30887344";"14"
"1/4/2021 12:00:00 AM";"08:00 - 08:59";"04277";"Laan v.Vlaanderen";"4.81642720";"52.34648730";"10"
"1/4/2021 12:00:00 AM";"08:00 - 08:59";"04279";"Centrum Nieuw Sloten";"4.81104244";"52.34638930";"12"
"1/4/2021 12:00:00 AM";"08:00 - 08:59";"04379";"Knooppunt Schiphol Nrd";"4.79320459";"52.32276196";"13"
"1/4/2021 12:00:00 AM";"08:00 - 08:59";"04402";"Matterhorn";"4.77477998";"52.35372103";"19"
"1/4/2021 12:00:00 AM";"08:00 - 08:59";"04411";"Hoekenes";"4.80183430";"52.35243785";"13"
"1/4/2021 12:00:00 AM";"08:00 - 08:59";"04413";"Louis Davidsstraat";"4.80850916";"52.35383682";"13"
"1/4/2021 12:00:00 AM";"08:00 - 08:59";"05011";"Centraal Station";"4.89921803";"52.37810793";"88"
"1/4/2021 12:00:00 AM";"08:00 - 08:59";"05022";"Centraal Station";"4.90104337";"52.37771998";"73"
"1/4/2021 12:00:00 AM";"08:00 - 08:59";"05031";"Dam";"4.89348394";"52.37341055";"11"
"1/4/2021 12:00:00 AM";"08:00 - 08:59";"05036";"Rokin";"4.89230478";"52.36985548";"15"
"1/4/2021 12:00:00 AM";"08:00 - 08:59";"05047";"Rembrandtplein";"4.89702882";"52.36623511";"21"
"1/4/2021 12:00:00 AM";"08:00 - 08:59";"05062";"Spui";"4.88925912";"52.36909673";"14"
"1/4/2021 12:00:00 AM";"08:00 - 08:59";"05063";"Dam";"4.89064590";"52.37244599";"12"
"1/4/2021 12:00:00 AM";"08:00 - 08:59";"05065";"Dam";"4.89079364";"52.37367792";"30"
"1/4/2021 12:00:00 AM";"08:00 - 08:59";"05066";"Dam";"4.89027056";"52.37318140";"30"
"1/4/2021 12:00:00 AM";"08:00 - 08:59";"05069";"Nieuwezijds Kolk";"4.89373093";"52.37628765";"17"
"1/4/2021 12:00:00 AM";"08:00 - 08:59";"05070";"Nieuwezijds Kolk";"4.89284106";"52.37575366";"10"
"1/4/2021 12:00:00 AM";"08:00 - 08:59";"05073";"Westermarkt";"4.88453426";"52.37400204";"34"
"1/4/2021 12:00:00 AM";"08:00 - 08:59";"05074";"Westermarkt";"4.88354950";"52.37407874";"57"
"1/4/2021 12:00:00 AM";"08:00 - 08:59";"05077";"Marnixstraat";"4.87615428";"52.37228546";"15"
"1/4/2021 12:00:00 AM";"08:00 - 08:59";"05080";"Buiten Oranjestraat";"4.88782167";"52.38330923";"14"
"1/4/2021 12:00:00 AM";"08:00 - 08:59";"05097";"Centraal Station";"4.90087651";"52.37954379";"21"
"1/4/2021 12:00:00 AM";"08:00 - 08:59";"05103";"Centraal Station";"4.90127481";"52.37938365";"22"
"1/4/2021 12:00:00 AM";"08:00 - 08:59";"05104";"Centraal Station";"4.90164343";"52.37925034";"12"
"1/4/2021 12:00:00 AM";"08:00 - 08:59";"06001";"Surinameplein";"4.85252231";"52.35807034";"25"
"1/4/2021 12:00:00 AM";"08:00 - 08:59";"06016";"J.P. Heijestraat";"4.86239635";"52.36472951";"12"
"1/4/2021 12:00:00 AM";"08:00 - 08:59";"06017";"J.P. Heijestraat";"4.86292316";"52.36487565";"10"
"1/4/2021 12:00:00 AM";"08:00 - 08:59";"06019";"Ten Katestraat";"4.86737423";"52.36591988";"15"
"1/4/2021 12:00:00 AM";"08:00 - 08:59";"06020";"Ten Katestraat";"4.86773990";"52.36603832";"25"
"1/4/2021 12:00:00 AM";"08:00 - 08:59";"06021";"Bilderdijkstraat";"4.87176488";"52.36712545";"32"
"1/4/2021 12:00:00 AM";"08:00 - 08:59";"06023";"Bilderdijkstraat";"4.87254032";"52.36736251";"10"
"1/4/2021 12:00:00 AM";"08:00 - 08:59";"06024";"Kinkerstraat";"4.87230885";"52.36706491";"12"
"1/4/2021 12:00:00 AM";"08:00 - 08:59";"06028";"Elandsgracht";"4.87741694";"52.36974738";"31"
"1/4/2021 12:00:00 AM";"08:00 - 08:59";"06029";"Elandsgracht";"4.87684368";"52.36852258";"21"
"1/4/2021 12:00:00 AM";"08:00 - 08:59";"06030";"Rozengracht";"4.87590932";"52.37187996";"12"
"1/4/2021 12:00:00 AM";"08:00 - 08:59";"06034";"Bilderdijkstraat";"4.87082347";"52.37105798";"15"
"1/4/2021 12:00:00 AM";"08:00 - 08:59";"06037";"Bilderdijkstraat";"4.86985701";"52.37082906";"19"
"1/4/2021 12:00:00 AM";"08:00 - 08:59";"06045";"1e Con. Huygensstraat";"4.87399228";"52.36242556";"16"
"1/4/2021 12:00:00 AM";"08:00 - 08:59";"06046";"1e Con. Huygensstraat";"4.87487082";"52.36262709";"35"
"1/4/2021 12:00:00 AM";"08:00 - 08:59";"06048";"J.P. Heijestraat";"4.86585368";"52.36037674";"25"
"1/4/2021 12:00:00 AM";"08:00 - 08:59";"06059";"Spiegelgracht";"4.88762090";"52.36071327";"12"
"1/4/2021 12:00:00 AM";"08:00 - 08:59";"06061";"Leidseplein";"4.88339576";"52.36305015";"32"
"1/4/2021 12:00:00 AM";"08:00 - 08:59";"06063";"Leidseplein";"4.88064547";"52.36476406";"19"
"1/4/2021 12:00:00 AM";"08:00 - 08:59";"06072";"Prinsengracht";"4.88428435";"52.36495933";"23"
"1/4/2021 12:00:00 AM";"08:00 - 08:59";"06076";"Koningsplein";"4.88857910";"52.36689188";"30"
"1/4/2021 12:00:00 AM";"08:00 - 08:59";"06081";"Rhijnvis Feithstraat";"4.86039355";"52.35905833";"14"
"1/4/2021 12:00:00 AM";"08:00 - 08:59";"06082";"Rhijnvis Feithstraat";"4.85967683";"52.35883943";"11"
"1/4/2021 12:00:00 AM";"08:00 - 08:59";"06089";"Leidseplein";"4.88085541";"52.36309324";"51"
"1/4/2021 12:00:00 AM";"08:00 - 08:59";"06114";"Hoofdweg";"4.85444451";"52.36425359";"21"
"1/4/2021 12:00:00 AM";"08:00 - 08:59";"07002";"Van Baerlestraat";"4.87836936";"52.35839997";"14"
"1/4/2021 12:00:00 AM";"08:00 - 08:59";"07006";"Museumplein";"4.87980116";"52.35642881";"17"
"1/4/2021 12:00:00 AM";"08:00 - 08:59";"07007";"Museumplein";"4.87950215";"52.35690388";"53"
"1/4/2021 12:00:00 AM";"08:00 - 08:59";"07015";"Roelof Hartplein";"4.88206971";"52.35314900";"19"
"1/4/2021 12:00:00 AM";"08:00 - 08:59";"07016";"Roelof Hartplein";"4.88286688";"52.35274795";"34"
"1/4/2021 12:00:00 AM";"08:00 - 08:59";"07021";"Kastelenstraat";"4.87955984";"52.32619291";"18"
"1/4/2021 12:00:00 AM";"08:00 - 08:59";"07027";"Corn. Schuytstraat";"4.87051458";"52.35597520";"15"
"1/4/2021 12:00:00 AM";"08:00 - 08:59";"07028";"Corn. Schuytstraat";"4.87088070";"52.35604870";"16"
"1/4/2021 12:00:00 AM";"08:00 - 08:59";"07031";"Valeriusplein";"4.86374943";"52.35333004";"23"
"1/4/2021 12:00:00 AM";"08:00 - 08:59";"07032";"Valeriusplein";"4.86326678";"52.35318410";"19"
"1/4/2021 12:00:00 AM";"08:00 - 08:59";"07033";"Amstelveenseweg";"4.85695925";"52.35161911";"13"
"1/4/2021 12:00:00 AM";"08:00 - 08:59";"07034";"Amstelveenseweg";"4.85596467";"52.35132704";"10"
"1/4/2021 12:00:00 AM";"08:00 - 08:59";"07035";"Zeilstraat";"4.85672894";"52.35124059";"10"
"1/4/2021 12:00:00 AM";"08:00 - 08:59";"07049";"Hoofddorpplein";"4.84958188";"52.35117239";"16"
"1/4/2021 12:00:00 AM";"08:00 - 08:59";"07050";"Haarlemmermeerstation";"4.85744749";"52.34883508";"11"
"1/4/2021 12:00:00 AM";"08:00 - 08:59";"07083";"Gerrit v.d. Veenstraat";"4.87735929";"52.34921014";"11"
"1/4/2021 12:00:00 AM";"08:00 - 08:59";"07084";"Gerrit v.d. Veenstraat";"4.87720177";"52.34886793";"12"
"1/4/2021 12:00:00 AM";"08:00 - 08:59";"07087";"Stadionweg";"4.87688397";"52.34714989";"12"
"1/4/2021 12:00:00 AM";"08:00 - 08:59";"07088";"Stadionweg";"4.87687497";"52.34665553";"15"
"1/4/2021 12:00:00 AM";"08:00 - 08:59";"07097";"Olympiaplein";"4.86582821";"52.34630180";"10"
"1/4/2021 12:00:00 AM";"08:00 - 08:59";"07098";"Olympiaplein";"4.86659057";"52.34636807";"11"
"1/4/2021 12:00:00 AM";"08:00 - 08:59";"07116";"Haarl'meerstation";"4.85760410";"52.34924023";"13"
"1/4/2021 12:00:00 AM";"08:00 - 08:59";"07157";"Van Heenvlietlaan";"4.88302129";"52.32494043";"12"
"1/4/2021 12:00:00 AM";"08:00 - 08:59";"07187";"Pr. Irenestraat";"4.87678341";"52.34313193";"20"
"1/4/2021 12:00:00 AM";"08:00 - 08:59";"07190";"Station Zuid";"4.87352214";"52.34089784";"11"
"1/4/2021 12:00:00 AM";"08:00 - 08:59";"07193";"Station Zuid";"4.87334616";"52.34088808";"18"
"1/4/2021 12:00:00 AM";"08:00 - 08:59";"07268";"Station Zuid";"4.87428608";"52.34082026";"17"
"1/4/2021 12:00:00 AM";"08:00 - 08:59";"07269";"Station Zuid";"4.87374306";"52.34082689";"24"
"1/4/2021 12:00:00 AM";"08:00 - 08:59";"07303";"VU medisch centrum";"4.86097062";"52.33515342";"12"
"1/4/2021 12:00:00 AM";"08:00 - 08:59";"07321";"Van Baerlestraat";"4.87895796";"52.35827667";"21"
"1/4/2021 12:00:00 AM";"08:00 - 08:59";"07322";"Van Baerlestraat";"4.87971942";"52.35844171";"21"
"1/4/2021 12:00:00 AM";"08:00 - 08:59";"07323";"Rijksmuseum";"4.88355043";"52.35977029";"17"
"1/4/2021 12:00:00 AM";"08:00 - 08:59";"07339";"Nieuw Herlaer";"4.88985946";"52.32602094";"10"
"1/4/2021 12:00:00 AM";"08:00 - 08:59";"07419";"Van Boshuizenstraat";"4.86896941";"52.32487971";"34"
"1/4/2021 12:00:00 AM";"08:00 - 08:59";"07423";"Uilenstede";"4.86910951";"52.32167168";"12"
"1/4/2021 12:00:00 AM";"08:00 - 08:59";"07439";"Oranjebaan";"4.87179001";"52.30302465";"12"
"1/4/2021 12:00:00 AM";"08:00 - 08:59";"07442";"Zonnestein";"4.87236664";"52.31146674";"13"
"1/4/2021 12:00:00 AM";"08:00 - 08:59";"07445";"Amstelveen Stadshart";"4.86751502";"52.30124433";"18"
"1/4/2021 12:00:00 AM";"08:00 - 08:59";"07449";"A.J. Ernststraat";"4.86879476";"52.33230287";"17"
"1/4/2021 12:00:00 AM";"08:00 - 08:59";"08007";"Bob Haarmslaan";"4.96921237";"52.36876786";"10"
"1/4/2021 12:00:00 AM";"08:00 - 08:59";"08043";"Artis";"4.91141423";"52.36653646";"10"
"1/4/2021 12:00:00 AM";"08:00 - 08:59";"08050";"Alexanderplein";"4.91867098";"52.36341072";"13"
"1/4/2021 12:00:00 AM";"08:00 - 08:59";"08053";"Weesperplein";"4.90655690";"52.36088154";"15"
"1/4/2021 12:00:00 AM";"08:00 - 08:59";"08054";"Weesperplein";"4.90941338";"52.36145933";"42"
"1/4/2021 12:00:00 AM";"08:00 - 08:59";"08057";"Frederiksplein";"4.90024241";"52.35971430";"28"
"1/4/2021 12:00:00 AM";"08:00 - 08:59";"08066";"Frederiksplein";"4.89751569";"52.35937050";"15"
"1/4/2021 12:00:00 AM";"08:00 - 08:59";"08072";"Vijzelgracht";"4.89159781";"52.35953462";"14"
"1/4/2021 12:00:00 AM";"08:00 - 08:59";"08073";"Vijzelgracht";"4.89227386";"52.35946554";"14"
"1/4/2021 12:00:00 AM";"08:00 - 08:59";"08080";"Spiegelgracht";"4.88691222";"52.36106979";"14"
"1/4/2021 12:00:00 AM";"08:00 - 08:59";"08094";"Wijttenbachstraat";"4.92547668";"52.35979743";"13"
"1/4/2021 12:00:00 AM";"08:00 - 08:59";"08098";"1e v.Swindenstraat";"4.92386708";"52.36210997";"11"
"1/4/2021 12:00:00 AM";"08:00 - 08:59";"08113";"Javaplein";"4.93949828";"52.36395867";"10"
"1/4/2021 12:00:00 AM";"08:00 - 08:59";"08114";"Javaplein";"4.93955537";"52.36412066";"13"
"1/4/2021 12:00:00 AM";"08:00 - 08:59";"08120";"Insulindeweg";"4.94763926";"52.36469021";"24"
"1/4/2021 12:00:00 AM";"08:00 - 08:59";"08129";"Molukkenstraat";"4.93861286";"52.36150167";"10"
"1/4/2021 12:00:00 AM";"08:00 - 08:59";"08235";"Muziekgeb. Bimhuis";"4.91290020";"52.37723779";"18"
"1/4/2021 12:00:00 AM";"08:00 - 08:59";"08237";"Kattenburgerstraat";"4.92126795";"52.37614755";"17"
"1/4/2021 12:00:00 AM";"08:00 - 08:59";"08238";"Rietlandpark";"4.93350159";"52.37322013";"22"
"1/4/2021 12:00:00 AM";"08:00 - 08:59";"08239";"Rietlandpark";"4.93413567";"52.37296191";"27"
"1/4/2021 12:00:00 AM";"08:00 - 08:59";"08244";"Steigereiland";"4.98083725";"52.36280456";"10"
"1/4/2021 12:00:00 AM";"08:00 - 08:59";"08245";"Steigereiland";"4.98012952";"52.36313467";"35"
"1/4/2021 12:00:00 AM";"08:00 - 08:59";"08247";"Vennepluimstraat";"4.99057242";"52.35769662";"21"
"1/4/2021 12:00:00 AM";"08:00 - 08:59";"08249";"Diemerparklaan";"4.99499716";"52.35532962";"34"
"1/4/2021 12:00:00 AM";"08:00 - 08:59";"08262";"IJburg";"5.00486802";"52.35112872";"54"
"1/4/2021 12:00:00 AM";"08:00 - 08:59";"08290";"Molukkenstraat";"4.94016678";"52.36172326";"15"
"1/4/2021 12:00:00 AM";"08:00 - 08:59";"08300";"P.Oosterhuisstraat";"5.00693059";"52.35193526";"26"
"1/4/2021 12:00:00 AM";"08:00 - 08:59";"09013";"Amstelstation";"4.91790223";"52.34725673";"11"
"1/4/2021 12:00:00 AM";"08:00 - 08:59";"09049";"Victorieplein";"4.90570139";"52.34637186";"13"
"1/4/2021 12:00:00 AM";"08:00 - 08:59";"09050";"Victorieplein";"4.90499015";"52.34699811";"10"
"1/4/2021 12:00:00 AM";"08:00 - 08:59";"09051";"Victorieplein";"4.90653699";"52.34645615";"19"
"1/4/2021 12:00:00 AM";"08:00 - 08:59";"09061";"Waalstraat";"4.90060087";"52.34442762";"11"
"1/4/2021 12:00:00 AM";"08:00 - 08:59";"09082";"Waalstraat";"4.89974094";"52.34656317";"12"
"1/4/2021 12:00:00 AM";"08:00 - 08:59";"09083";"Waalstraat";"4.90032528";"52.34680824";"20"
"1/4/2021 12:00:00 AM";"08:00 - 08:59";"09096";"Van Woustraat";"4.90163035";"52.35495650";"10"
"1/4/2021 12:00:00 AM";"08:00 - 08:59";"09114";"De Pijp";"4.88948829";"52.35259622";"18"
"1/4/2021 12:00:00 AM";"08:00 - 08:59";"ASA";"Amstelstation";"4.91751426";"52.34647326";"211"
"1/4/2021 12:00:00 AM";"08:00 - 08:59";"ASW";"Amstelveenseweg";"4.85798324";"52.33836671";"281"
"1/4/2021 12:00:00 AM";"08:00 - 08:59";"BLW";"Bullewijk";"4.95233581";"52.30642205";"102"
"1/4/2021 12:00:00 AM";"08:00 - 08:59";"BMR";"Station Bijlmer ArenA";"4.94713474";"52.31193030";"302"
"1/4/2021 12:00:00 AM";"08:00 - 08:59";"CLL";"Station Lelylaan";"4.83426589";"52.35766291";"115"
"1/4/2021 12:00:00 AM";"08:00 - 08:59";"CS";"Centraal Station";"4.90078150";"52.37749421";"427"
"1/4/2021 12:00:00 AM";"08:00 - 08:59";"DMZ";"Station Diemen-Zuid";"4.95713273";"52.33042795";"44"
"1/4/2021 12:00:00 AM";"08:00 - 08:59";"DPP";"De Pijp";"4.89101069";"52.35296212";"145"
"1/4/2021 12:00:00 AM";"08:00 - 08:59";"DVD";"Station Duivendrecht";"4.93678429";"52.32325190";"55"
"1/4/2021 12:00:00 AM";"08:00 - 08:59";"EPP";"Europaplein";"4.89138430";"52.34185482";"164"
"1/4/2021 12:00:00 AM";"08:00 - 08:59";"GN";"Gein";"4.98952268";"52.29627089";"58"
"1/4/2021 12:00:00 AM";"08:00 - 08:59";"GPP";"Gaasperplas";"4.98468551";"52.31080575";"19"
"1/4/2021 12:00:00 AM";"08:00 - 08:59";"GZH";"Station Ganzenhoef";"4.97323379";"52.32331315";"45"
"1/4/2021 12:00:00 AM";"08:00 - 08:59";"HDS";"Heemstedestraat";"4.83421208";"52.35255760";"93"
"1/4/2021 12:00:00 AM";"08:00 - 08:59";"HLD";"Station Holendrecht";"4.96021904";"52.29780451";"343"
"1/4/2021 12:00:00 AM";"08:00 - 08:59";"HVW";"Henk Sneevlietweg";"4.83439318";"52.34626699";"267"
"1/4/2021 12:00:00 AM";"08:00 - 08:59";"ITW";"Isolatorweg";"4.85013475";"52.39523277";"136"
"1/4/2021 12:00:00 AM";"08:00 - 08:59";"JLS";"Jan v.Galenstraat";"4.83492461";"52.37196551";"104"
"1/4/2021 12:00:00 AM";"08:00 - 08:59";"KEN";"Kraaienneststation";"4.97963450";"52.31632492";"33"
"1/4/2021 12:00:00 AM";"08:00 - 08:59";"MDW";"Van der Madeweg";"4.93048657";"52.32945629";"97"
"1/4/2021 12:00:00 AM";"08:00 - 08:59";"ND";"Noord";"4.93123182";"52.40117202";"146"
"1/4/2021 12:00:00 AM";"08:00 - 08:59";"NDP";"Noorderpark";"4.91789115";"52.38855518";"102"
"1/4/2021 12:00:00 AM";"08:00 - 08:59";"NMT";"Nieuwmarkt";"4.90123885";"52.37194169";"65"
"1/4/2021 12:00:00 AM";"08:00 - 08:59";"OAS";"Overamstel";"4.91815361";"52.33179879";"71"
"1/4/2021 12:00:00 AM";"08:00 - 08:59";"PJW";"Postjesweg";"4.83385543";"52.36468044";"85"
"1/4/2021 12:00:00 AM";"08:00 - 08:59";"RAI";"Station RAI";"4.88982004";"52.33739931";"143"
"1/4/2021 12:00:00 AM";"08:00 - 08:59";"RGB";"Reigersbos";"4.97473728";"52.29566301";"94"
"1/4/2021 12:00:00 AM";"08:00 - 08:59";"RKN";"Rokin";"4.89229651";"52.36928023";"242"
"1/4/2021 12:00:00 AM";"08:00 - 08:59";"SLW";"Spaklerweg";"4.92085640";"52.33986250";"102"
"1/4/2021 12:00:00 AM";"08:00 - 08:59";"STD";"Station Sloterdijk";"4.83878389";"52.38880848";"185"
"1/4/2021 12:00:00 AM";"08:00 - 08:59";"SVT";"Strandvliet";"4.94152820";"52.31825469";"41"
"1/4/2021 12:00:00 AM";"08:00 - 08:59";"VLN";"Burg.de Vlugtlaan";"4.83809109";"52.37951196";"42"
"1/4/2021 12:00:00 AM";"08:00 - 08:59";"VPD";"Venserpolder";"4.94665009";"52.32679428";"53"
"1/4/2021 12:00:00 AM";"08:00 - 08:59";"VSW";"Verrijn Stuartweg";"4.96693669";"52.32844093";"33"
"1/4/2021 12:00:00 AM";"08:00 - 08:59";"VZG";"Vijzelgracht";"4.89072870";"52.35980061";"148"
"1/4/2021 12:00:00 AM";"08:00 - 08:59";"WBS";"Wibautstraat";"4.91202993";"52.35428867";"155"
"1/4/2021 12:00:00 AM";"08:00 - 08:59";"WLP";"Waterlooplein";"4.90298171";"52.36697862";"174"
"1/4/2021 12:00:00 AM";"08:00 - 08:59";"WPP";"Weesperplein";"4.90787469";"52.36120146";"280"
"1/4/2021 12:00:00 AM";"08:00 - 08:59";"WTC";"Station Zuid";"4.87509853";"52.33908015";"561"
"1/4/2021 12:00:00 AM";"09:00 - 09:59";"";"Overig";"";"";"2332"
"1/4/2021 12:00:00 AM";"09:00 - 09:59";"[[ Onb";"[[ Onbekend ]]";"0.00000000";"0.00000000";"236"
"1/4/2021 12:00:00 AM";"09:00 - 09:59";"00014";"Wijttenbachstraat";"4.92507537";"52.36027221";"14"
"1/4/2021 12:00:00 AM";"09:00 - 09:59";"00020";"Beukenweg";"4.91674979";"52.35906203";"26"
"1/4/2021 12:00:00 AM";"09:00 - 09:59";"00021";"Beukenweg";"4.91721293";"52.35829991";"36"
"1/4/2021 12:00:00 AM";"09:00 - 09:59";"00029";"Oostpoort";"4.92719316";"52.35707185";"12"
"1/4/2021 12:00:00 AM";"09:00 - 09:59";"00030";"Oostpoort";"4.92694026";"52.35739442";"12"
"1/4/2021 12:00:00 AM";"09:00 - 09:59";"00039";"Hogeweg";"4.93084015";"52.35358075";"10"
"1/4/2021 12:00:00 AM";"09:00 - 09:59";"00238";"Anton de Komplein";"4.95413359";"52.31603659";"18"
"1/4/2021 12:00:00 AM";"09:00 - 09:59";"00239";"Anton de Komplein";"4.95597669";"52.31652866";"11"
"1/4/2021 12:00:00 AM";"09:00 - 09:59";"00432";"Diemerbrug";"4.96142958";"52.33824484";"10"
"1/4/2021 12:00:00 AM";"09:00 - 09:59";"00434";"Bijlmerplein";"4.95032022";"52.31457553";"10"
"1/4/2021 12:00:00 AM";"09:00 - 09:59";"00441";"Muiderpoortstation";"4.93254137";"52.36088532";"10"
"1/4/2021 12:00:00 AM";"09:00 - 09:59";"00444";"Linnaeusstraat";"4.92490296";"52.35991203";"20"
"1/4/2021 12:00:00 AM";"09:00 - 09:59";"00453";"Diemen Sniep";"4.96964866";"52.33644962";"12"
"1/4/2021 12:00:00 AM";"09:00 - 09:59";"00505";"Arent Krijtsstraat";"4.95469645";"52.33956859";"12"
"1/4/2021 12:00:00 AM";"09:00 - 09:59";"00553";"Kraaienneststation";"4.98073727";"52.31601414";"10"
"1/4/2021 12:00:00 AM";"09:00 - 09:59";"00561";"Station Bijlmer ArenA";"4.94741931";"52.31132918";"16"
"1/4/2021 12:00:00 AM";"09:00 - 09:59";"01076";"Waterlandplein";"4.95247364";"52.39274059";"10"
"1/4/2021 12:00:00 AM";"09:00 - 09:59";"01110";"Rode Kruisstraat";"4.92847908";"52.39455548";"13"
"1/4/2021 12:00:00 AM";"09:00 - 09:59";"01111";"Rode Kruisstraat";"4.92881363";"52.39488033";"18"
"1/4/2021 12:00:00 AM";"09:00 - 09:59";"01212";"Oostzanerdijk";"4.88149588";"52.42023965";"10"
"1/4/2021 12:00:00 AM";"09:00 - 09:59";"01352";"Oosterlengte";"4.92206974";"52.40611555";"12"
"1/4/2021 12:00:00 AM";"09:00 - 09:59";"01363";"Buikslotermeerplein";"4.93968364";"52.39943369";"11"
"1/4/2021 12:00:00 AM";"09:00 - 09:59";"01402";"Floraweg";"4.90614362";"52.39899665";"25"
"1/4/2021 12:00:00 AM";"09:00 - 09:59";"01422";"Noorderpark";"4.91956087";"52.38902016";"16"
"1/4/2021 12:00:00 AM";"09:00 - 09:59";"02018";"Koivistokade";"4.87577082";"52.39789874";"18"
"1/4/2021 12:00:00 AM";"09:00 - 09:59";"02019";"Koivistokade";"4.87537403";"52.39790601";"17"
"1/4/2021 12:00:00 AM";"09:00 - 09:59";"02113";"Haarlemmerplein";"4.88371739";"52.38516129";"14"
"1/4/2021 12:00:00 AM";"09:00 - 09:59";"02114";"Haarlemmerplein";"4.88341252";"52.38484542";"16"
"1/4/2021 12:00:00 AM";"09:00 - 09:59";"02153";"Nassaukade";"4.87920791";"52.38132226";"10"
"1/4/2021 12:00:00 AM";"09:00 - 09:59";"02156";"Willem de Zwijgerlaan";"4.86425293";"52.37039101";"11"
"1/4/2021 12:00:00 AM";"09:00 - 09:59";"02157";"Adm. de Ruijterweg";"4.86009910";"52.37148707";"11"
"1/4/2021 12:00:00 AM";"09:00 - 09:59";"02158";"Adm. de Ruijterweg";"4.86096776";"52.37129320";"10"
"1/4/2021 12:00:00 AM";"09:00 - 09:59";"02193";"Marnixplein";"4.87844490";"52.37741832";"10"
"1/4/2021 12:00:00 AM";"09:00 - 09:59";"02222";"Jan van Galenstraat";"4.85874763";"52.37399761";"17"
"1/4/2021 12:00:00 AM";"09:00 - 09:59";"02301";"Fred. Hendrikplants.";"4.87521585";"52.37852787";"16"
"1/4/2021 12:00:00 AM";"09:00 - 09:59";"02321";"Van Hallstraat";"4.86864429";"52.38538386";"11"
"1/4/2021 12:00:00 AM";"09:00 - 09:59";"02361";"Station Sloterdijk";"4.83931858";"52.38833460";"26"
"1/4/2021 12:00:00 AM";"09:00 - 09:59";"02378";"Station Sloterdijk";"4.83809796";"52.38844579";"17"
"1/4/2021 12:00:00 AM";"09:00 - 09:59";"03009";"Witte de Withstraat";"4.85851970";"52.36478416";"14"
"1/4/2021 12:00:00 AM";"09:00 - 09:59";"03010";"Witte de Withstraat";"4.85928290";"52.36480554";"17"
"1/4/2021 12:00:00 AM";"09:00 - 09:59";"03022";"Mercatorplein";"4.85070310";"52.37012367";"14"
"1/4/2021 12:00:00 AM";"09:00 - 09:59";"03024";"Marco Polostraat";"4.85546532";"52.37095405";"10"
"1/4/2021 12:00:00 AM";"09:00 - 09:59";"03052";"Burg. Eliasstraat";"4.82565009";"52.38077481";"12"
"1/4/2021 12:00:00 AM";"09:00 - 09:59";"03060";"Bos en Lommerplein";"4.84718407";"52.37815169";"19"
"1/4/2021 12:00:00 AM";"09:00 - 09:59";"03061";"Bos en Lommerplein";"4.84523530";"52.37778328";"14"
"1/4/2021 12:00:00 AM";"09:00 - 09:59";"03076";"Jan Tooropstraat";"4.83810313";"52.37142305";"12"
"1/4/2021 12:00:00 AM";"09:00 - 09:59";"03129";"Plein '40 - '45";"4.82112672";"52.38075328";"13"
"1/4/2021 12:00:00 AM";"09:00 - 09:59";"03168";"Mercatorplein";"4.85152392";"52.37024423";"11"
"1/4/2021 12:00:00 AM";"09:00 - 09:59";"03171";"Burg. Rendorpstraat";"4.82768433";"52.37436719";"12"
"1/4/2021 12:00:00 AM";"09:00 - 09:59";"04016";"Hoekenes";"4.79854723";"52.35791310";"11"
"1/4/2021 12:00:00 AM";"09:00 - 09:59";"04021";"Osdorpplein West";"4.80322869";"52.35913166";"24"
"1/4/2021 12:00:00 AM";"09:00 - 09:59";"04050";"Meer en Vaart";"4.80994403";"52.35636940";"19"
"1/4/2021 12:00:00 AM";"09:00 - 09:59";"04060";"Derkinderenstraat";"4.83972293";"52.35796689";"10"
"1/4/2021 12:00:00 AM";"09:00 - 09:59";"04065";"Osdorpplein Oost";"4.80773259";"52.35935153";"10"
"1/4/2021 12:00:00 AM";"09:00 - 09:59";"04088";"Louwesweg";"4.82436420";"52.34669608";"10"
"1/4/2021 12:00:00 AM";"09:00 - 09:59";"04112";"Johan Huizingalaan";"4.82742878";"52.34923618";"22"
"1/4/2021 12:00:00 AM";"09:00 - 09:59";"04195";"Station Lelylaan";"4.83460082";"52.35788018";"26"
"1/4/2021 12:00:00 AM";"09:00 - 09:59";"04196";"Station Lelylaan";"4.83382251";"52.35790351";"35"
"1/4/2021 12:00:00 AM";"09:00 - 09:59";"04279";"Centrum Nieuw Sloten";"4.81104244";"52.34638930";"10"
"1/4/2021 12:00:00 AM";"09:00 - 09:59";"04409";"Baden Powellweg";"4.79441281";"52.35092691";"18"
"1/4/2021 12:00:00 AM";"09:00 - 09:59";"05011";"Centraal Station";"4.89921803";"52.37810793";"84"
"1/4/2021 12:00:00 AM";"09:00 - 09:59";"05022";"Centraal Station";"4.90104337";"52.37771998";"59"
"1/4/2021 12:00:00 AM";"09:00 - 09:59";"05031";"Dam";"4.89348394";"52.37341055";"11"
"1/4/2021 12:00:00 AM";"09:00 - 09:59";"05032";"Dam";"4.89549360";"52.37492885";"11"
"1/4/2021 12:00:00 AM";"09:00 - 09:59";"05036";"Rokin";"4.89230478";"52.36985548";"16"
"1/4/2021 12:00:00 AM";"09:00 - 09:59";"05047";"Rembrandtplein";"4.89702882";"52.36623511";"16"
"1/4/2021 12:00:00 AM";"09:00 - 09:59";"05062";"Spui";"4.88925912";"52.36909673";"15"
"1/4/2021 12:00:00 AM";"09:00 - 09:59";"05063";"Dam";"4.89064590";"52.37244599";"22"
"1/4/2021 12:00:00 AM";"09:00 - 09:59";"05065";"Dam";"4.89079364";"52.37367792";"34"
"1/4/2021 12:00:00 AM";"09:00 - 09:59";"05066";"Dam";"4.89027056";"52.37318140";"41"
"1/4/2021 12:00:00 AM";"09:00 - 09:59";"05069";"Nieuwezijds Kolk";"4.89373093";"52.37628765";"16"
"1/4/2021 12:00:00 AM";"09:00 - 09:59";"05070";"Nieuwezijds Kolk";"4.89284106";"52.37575366";"11"
"1/4/2021 12:00:00 AM";"09:00 - 09:59";"05073";"Westermarkt";"4.88453426";"52.37400204";"29"
"1/4/2021 12:00:00 AM";"09:00 - 09:59";"05074";"Westermarkt";"4.88354950";"52.37407874";"34"
"1/4/2021 12:00:00 AM";"09:00 - 09:59";"05077";"Marnixstraat";"4.87615428";"52.37228546";"19"
"1/4/2021 12:00:00 AM";"09:00 - 09:59";"05080";"Buiten Oranjestraat";"4.88782167";"52.38330923";"19"
"1/4/2021 12:00:00 AM";"09:00 - 09:59";"05097";"Centraal Station";"4.90087651";"52.37954379";"26"
"1/4/2021 12:00:00 AM";"09:00 - 09:59";"05101";"Centraal Station";"4.90105195";"52.37961641";"11"
"1/4/2021 12:00:00 AM";"09:00 - 09:59";"05103";"Centraal Station";"4.90127481";"52.37938365";"21"
"1/4/2021 12:00:00 AM";"09:00 - 09:59";"06001";"Surinameplein";"4.85252231";"52.35807034";"19"
"1/4/2021 12:00:00 AM";"09:00 - 09:59";"06002";"Surinameplein";"4.85090753";"52.35807202";"10"
"1/4/2021 12:00:00 AM";"09:00 - 09:59";"06016";"J.P. Heijestraat";"4.86239635";"52.36472951";"16"
"1/4/2021 12:00:00 AM";"09:00 - 09:59";"06019";"Ten Katestraat";"4.86737423";"52.36591988";"21"
"1/4/2021 12:00:00 AM";"09:00 - 09:59";"06020";"Ten Katestraat";"4.86773990";"52.36603832";"31"
"1/4/2021 12:00:00 AM";"09:00 - 09:59";"06021";"Bilderdijkstraat";"4.87176488";"52.36712545";"11"
"1/4/2021 12:00:00 AM";"09:00 - 09:59";"06023";"Bilderdijkstraat";"4.87254032";"52.36736251";"13"
"1/4/2021 12:00:00 AM";"09:00 - 09:59";"06024";"Kinkerstraat";"4.87230885";"52.36706491";"11"
"1/4/2021 12:00:00 AM";"09:00 - 09:59";"06027";"Elandsgracht";"4.87855189";"52.36808953";"14"
"1/4/2021 12:00:00 AM";"09:00 - 09:59";"06028";"Elandsgracht";"4.87741694";"52.36974738";"21"
"1/4/2021 12:00:00 AM";"09:00 - 09:59";"06029";"Elandsgracht";"4.87684368";"52.36852258";"22"
"1/4/2021 12:00:00 AM";"09:00 - 09:59";"06030";"Rozengracht";"4.87590932";"52.37187996";"10"
"1/4/2021 12:00:00 AM";"09:00 - 09:59";"06034";"Bilderdijkstraat";"4.87082347";"52.37105798";"15"
"1/4/2021 12:00:00 AM";"09:00 - 09:59";"06037";"Bilderdijkstraat";"4.86985701";"52.37082906";"22"
"1/4/2021 12:00:00 AM";"09:00 - 09:59";"06043";"Overtoom";"4.87510145";"52.36299659";"10"
"1/4/2021 12:00:00 AM";"09:00 - 09:59";"06045";"1e Con. Huygensstraat";"4.87399228";"52.36242556";"24"
"1/4/2021 12:00:00 AM";"09:00 - 09:59";"06046";"1e Con. Huygensstraat";"4.87487082";"52.36262709";"26"
"1/4/2021 12:00:00 AM";"09:00 - 09:59";"06048";"J.P. Heijestraat";"4.86585368";"52.36037674";"17"
"1/4/2021 12:00:00 AM";"09:00 - 09:59";"06049";"J.P. Heijestraat";"4.86671778";"52.36055131";"11"
"1/4/2021 12:00:00 AM";"09:00 - 09:59";"06061";"Leidseplein";"4.88339576";"52.36305015";"24"
"1/4/2021 12:00:00 AM";"09:00 - 09:59";"06063";"Leidseplein";"4.88064547";"52.36476406";"23"
"1/4/2021 12:00:00 AM";"09:00 - 09:59";"06072";"Prinsengracht";"4.88428435";"52.36495933";"10"
"1/4/2021 12:00:00 AM";"09:00 - 09:59";"06074";"Keizersgracht";"4.88624128";"52.36588437";"12"
"1/4/2021 12:00:00 AM";"09:00 - 09:59";"06075";"Koningsplein";"4.88942793";"52.36713812";"11"
"1/4/2021 12:00:00 AM";"09:00 - 09:59";"06076";"Koningsplein";"4.88857910";"52.36689188";"24"
"1/4/2021 12:00:00 AM";"09:00 - 09:59";"06081";"Rhijnvis Feithstraat";"4.86039355";"52.35905833";"17"
"1/4/2021 12:00:00 AM";"09:00 - 09:59";"06082";"Rhijnvis Feithstraat";"4.85967683";"52.35883943";"10"
"1/4/2021 12:00:00 AM";"09:00 - 09:59";"06089";"Leidseplein";"4.88085541";"52.36309324";"37"
"1/4/2021 12:00:00 AM";"09:00 - 09:59";"06114";"Hoofdweg";"4.85444451";"52.36425359";"10"
"1/4/2021 12:00:00 AM";"09:00 - 09:59";"06115";"Postjesweg";"4.85319014";"52.36478720";"10"
"1/4/2021 12:00:00 AM";"09:00 - 09:59";"07002";"Van Baerlestraat";"4.87836936";"52.35839997";"14"
"1/4/2021 12:00:00 AM";"09:00 - 09:59";"07006";"Museumplein";"4.87980116";"52.35642881";"17"
"1/4/2021 12:00:00 AM";"09:00 - 09:59";"07007";"Museumplein";"4.87950215";"52.35690388";"59"
"1/4/2021 12:00:00 AM";"09:00 - 09:59";"07015";"Roelof Hartplein";"4.88206971";"52.35314900";"10"
"1/4/2021 12:00:00 AM";"09:00 - 09:59";"07016";"Roelof Hartplein";"4.88286688";"52.35274795";"29"
"1/4/2021 12:00:00 AM";"09:00 - 09:59";"07027";"Corn. Schuytstraat";"4.87051458";"52.35597520";"16"
"1/4/2021 12:00:00 AM";"09:00 - 09:59";"07028";"Corn. Schuytstraat";"4.87088070";"52.35604870";"14"
"1/4/2021 12:00:00 AM";"09:00 - 09:59";"07031";"Valeriusplein";"4.86374943";"52.35333004";"13"
"1/4/2021 12:00:00 AM";"09:00 - 09:59";"07032";"Valeriusplein";"4.86326678";"52.35318410";"11"
"1/4/2021 12:00:00 AM";"09:00 - 09:59";"07033";"Amstelveenseweg";"4.85695925";"52.35161911";"13"
"1/4/2021 12:00:00 AM";"09:00 - 09:59";"07049";"Hoofddorpplein";"4.84958188";"52.35117239";"15"
"1/4/2021 12:00:00 AM";"09:00 - 09:59";"07083";"Gerrit v.d. Veenstraat";"4.87735929";"52.34921014";"13"
"1/4/2021 12:00:00 AM";"09:00 - 09:59";"07084";"Gerrit v.d. Veenstraat";"4.87720177";"52.34886793";"14"
"1/4/2021 12:00:00 AM";"09:00 - 09:59";"07088";"Stadionweg";"4.87687497";"52.34665553";"14"
"1/4/2021 12:00:00 AM";"09:00 - 09:59";"07098";"Olympiaplein";"4.86659057";"52.34636807";"12"
"1/4/2021 12:00:00 AM";"09:00 - 09:59";"07108";"Olympiaweg";"4.85873730";"52.34528169";"14"
"1/4/2021 12:00:00 AM";"09:00 - 09:59";"07193";"Station Zuid";"4.87334616";"52.34088808";"26"
"1/4/2021 12:00:00 AM";"09:00 - 09:59";"07268";"Station Zuid";"4.87428608";"52.34082026";"16"
"1/4/2021 12:00:00 AM";"09:00 - 09:59";"07269";"Station Zuid";"4.87374306";"52.34082689";"12"
"1/4/2021 12:00:00 AM";"09:00 - 09:59";"07303";"VU medisch centrum";"4.86097062";"52.33515342";"17"
"1/4/2021 12:00:00 AM";"09:00 - 09:59";"07321";"Van Baerlestraat";"4.87895796";"52.35827667";"19"
"1/4/2021 12:00:00 AM";"09:00 - 09:59";"07322";"Van Baerlestraat";"4.87971942";"52.35844171";"26"
"1/4/2021 12:00:00 AM";"09:00 - 09:59";"07323";"Rijksmuseum";"4.88355043";"52.35977029";"21"
"1/4/2021 12:00:00 AM";"09:00 - 09:59";"07324";"Rijksmuseum";"4.88332565";"52.36017378";"10"
"1/4/2021 12:00:00 AM";"09:00 - 09:59";"07391";"Kronenburg";"4.87070592";"52.31556694";"12"
"1/4/2021 12:00:00 AM";"09:00 - 09:59";"07419";"Van Boshuizenstraat";"4.86896941";"52.32487971";"42"
"1/4/2021 12:00:00 AM";"09:00 - 09:59";"07439";"Oranjebaan";"4.87179001";"52.30302465";"13"
"1/4/2021 12:00:00 AM";"09:00 - 09:59";"07442";"Zonnestein";"4.87236664";"52.31146674";"15"
"1/4/2021 12:00:00 AM";"09:00 - 09:59";"07448";"A.J. Ernststraat";"4.86887597";"52.33288743";"10"
"1/4/2021 12:00:00 AM";"09:00 - 09:59";"07449";"A.J. Ernststraat";"4.86879476";"52.33230287";"10"
"1/4/2021 12:00:00 AM";"09:00 - 09:59";"08014";"Azartplein";"4.93735640";"52.37682991";"11"
"1/4/2021 12:00:00 AM";"09:00 - 09:59";"08027";"Kadijksplein";"4.91357159";"52.37075136";"12"
"1/4/2021 12:00:00 AM";"09:00 - 09:59";"08050";"Alexanderplein";"4.91867098";"52.36341072";"10"
"1/4/2021 12:00:00 AM";"09:00 - 09:59";"08054";"Weesperplein";"4.90941338";"52.36145933";"20"
"1/4/2021 12:00:00 AM";"09:00 - 09:59";"08057";"Frederiksplein";"4.90024241";"52.35971430";"28"
"1/4/2021 12:00:00 AM";"09:00 - 09:59";"08058";"Veelaan";"4.93961588";"52.36830916";"16"
"1/4/2021 12:00:00 AM";"09:00 - 09:59";"08066";"Frederiksplein";"4.89751569";"52.35937050";"19"
"1/4/2021 12:00:00 AM";"09:00 - 09:59";"08072";"Vijzelgracht";"4.89159781";"52.35953462";"14"
"1/4/2021 12:00:00 AM";"09:00 - 09:59";"08073";"Vijzelgracht";"4.89227386";"52.35946554";"17"
"1/4/2021 12:00:00 AM";"09:00 - 09:59";"08080";"Spiegelgracht";"4.88691222";"52.36106979";"17"
"1/4/2021 12:00:00 AM";"09:00 - 09:59";"08098";"1e v.Swindenstraat";"4.92386708";"52.36210997";"15"
"1/4/2021 12:00:00 AM";"09:00 - 09:59";"08120";"Insulindeweg";"4.94763926";"52.36469021";"16"
"1/4/2021 12:00:00 AM";"09:00 - 09:59";"08237";"Kattenburgerstraat";"4.92126795";"52.37614755";"18"
"1/4/2021 12:00:00 AM";"09:00 - 09:59";"08238";"Rietlandpark";"4.93350159";"52.37322013";"14"
"1/4/2021 12:00:00 AM";"09:00 - 09:59";"08239";"Rietlandpark";"4.93413567";"52.37296191";"22"
"1/4/2021 12:00:00 AM";"09:00 - 09:59";"08241";"Zuiderzeeweg";"4.96185517";"52.37193228";"17"
"1/4/2021 12:00:00 AM";"09:00 - 09:59";"08244";"Steigereiland";"4.98083725";"52.36280456";"10"
"1/4/2021 12:00:00 AM";"09:00 - 09:59";"08245";"Steigereiland";"4.98012952";"52.36313467";"33"
"1/4/2021 12:00:00 AM";"09:00 - 09:59";"08247";"Vennepluimstraat";"4.99057242";"52.35769662";"17"
"1/4/2021 12:00:00 AM";"09:00 - 09:59";"08249";"Diemerparklaan";"4.99499716";"52.35532962";"10"
"1/4/2021 12:00:00 AM";"09:00 - 09:59";"08251";"Lumi?restraat";"4.99942127";"52.35298044";"16"
"1/4/2021 12:00:00 AM";"09:00 - 09:59";"08262";"IJburg";"5.00486802";"52.35112872";"51"
"1/4/2021 12:00:00 AM";"09:00 - 09:59";"08290";"Molukkenstraat";"4.94016678";"52.36172326";"12"
"1/4/2021 12:00:00 AM";"09:00 - 09:59";"08300";"P.Oosterhuisstraat";"5.00693059";"52.35193526";"15"
"1/4/2021 12:00:00 AM";"09:00 - 09:59";"09049";"Victorieplein";"4.90570139";"52.34637186";"15"
"1/4/2021 12:00:00 AM";"09:00 - 09:59";"09051";"Victorieplein";"4.90653699";"52.34645615";"12"
"1/4/2021 12:00:00 AM";"09:00 - 09:59";"09083";"Waalstraat";"4.90032528";"52.34680824";"17"
"1/4/2021 12:00:00 AM";"09:00 - 09:59";"09097";"Van Woustraat";"4.90084070";"52.35468363";"12"
"1/4/2021 12:00:00 AM";"09:00 - 09:59";"09111";"De Pijp";"4.89073444";"52.35272728";"42"
"1/4/2021 12:00:00 AM";"09:00 - 09:59";"09114";"De Pijp";"4.88948829";"52.35259622";"20"
"1/4/2021 12:00:00 AM";"09:00 - 09:59";"09120";"Cornelis Troostplein";"4.89161100";"52.35046604";"14"
"1/4/2021 12:00:00 AM";"09:00 - 09:59";"ASA";"Amstelstation";"4.91751426";"52.34647326";"146"
"1/4/2021 12:00:00 AM";"09:00 - 09:59";"ASW";"Amstelveenseweg";"4.85798324";"52.33836671";"161"
"1/4/2021 12:00:00 AM";"09:00 - 09:59";"BLW";"Bullewijk";"4.95233581";"52.30642205";"88"
"1/4/2021 12:00:00 AM";"09:00 - 09:59";"BMR";"Station Bijlmer ArenA";"4.94713474";"52.31193030";"247"
"1/4/2021 12:00:00 AM";"09:00 - 09:59";"CLL";"Station Lelylaan";"4.83426589";"52.35766291";"70"
"1/4/2021 12:00:00 AM";"09:00 - 09:59";"CS";"Centraal Station";"4.90078150";"52.37749421";"301"
"1/4/2021 12:00:00 AM";"09:00 - 09:59";"DMZ";"Station Diemen-Zuid";"4.95713273";"52.33042795";"42"
"1/4/2021 12:00:00 AM";"09:00 - 09:59";"DPP";"De Pijp";"4.89101069";"52.35296212";"136"
"1/4/2021 12:00:00 AM";"09:00 - 09:59";"DVD";"Station Duivendrecht";"4.93678429";"52.32325190";"32"
"1/4/2021 12:00:00 AM";"09:00 - 09:59";"EPP";"Europaplein";"4.89138430";"52.34185482";"110"
"1/4/2021 12:00:00 AM";"09:00 - 09:59";"GN";"Gein";"4.98952268";"52.29627089";"51"
"1/4/2021 12:00:00 AM";"09:00 - 09:59";"GPP";"Gaasperplas";"4.98468551";"52.31080575";"18"
"1/4/2021 12:00:00 AM";"09:00 - 09:59";"GZH";"Station Ganzenhoef";"4.97323379";"52.32331315";"36"
"1/4/2021 12:00:00 AM";"09:00 - 09:59";"HDS";"Heemstedestraat";"4.83421208";"52.35255760";"44"
"1/4/2021 12:00:00 AM";"09:00 - 09:59";"HLD";"Station Holendrecht";"4.96021904";"52.29780451";"158"
"1/4/2021 12:00:00 AM";"09:00 - 09:59";"HVW";"Henk Sneevlietweg";"4.83439318";"52.34626699";"108"
"1/4/2021 12:00:00 AM";"09:00 - 09:59";"ITW";"Isolatorweg";"4.85013475";"52.39523277";"64"
"1/4/2021 12:00:00 AM";"09:00 - 09:59";"JLS";"Jan v.Galenstraat";"4.83492461";"52.37196551";"101"
"1/4/2021 12:00:00 AM";"09:00 - 09:59";"KEN";"Kraaienneststation";"4.97963450";"52.31632492";"44"
"1/4/2021 12:00:00 AM";"09:00 - 09:59";"MDW";"Van der Madeweg";"4.93048657";"52.32945629";"54"
"1/4/2021 12:00:00 AM";"09:00 - 09:59";"ND";"Noord";"4.93123182";"52.40117202";"118"
"1/4/2021 12:00:00 AM";"09:00 - 09:59";"NDP";"Noorderpark";"4.91789115";"52.38855518";"127"
"1/4/2021 12:00:00 AM";"09:00 - 09:59";"NMT";"Nieuwmarkt";"4.90123885";"52.37194169";"82"
"1/4/2021 12:00:00 AM";"09:00 - 09:59";"OAS";"Overamstel";"4.91815361";"52.33179879";"37"
"1/4/2021 12:00:00 AM";"09:00 - 09:59";"PJW";"Postjesweg";"4.83385543";"52.36468044";"47"
"1/4/2021 12:00:00 AM";"09:00 - 09:59";"RAI";"Station RAI";"4.88982004";"52.33739931";"95"
"1/4/2021 12:00:00 AM";"09:00 - 09:59";"RGB";"Reigersbos";"4.97473728";"52.29566301";"73"
"1/4/2021 12:00:00 AM";"09:00 - 09:59";"RKN";"Rokin";"4.89229651";"52.36928023";"243"
"1/4/2021 12:00:00 AM";"09:00 - 09:59";"SLW";"Spaklerweg";"4.92085640";"52.33986250";"61"
"1/4/2021 12:00:00 AM";"09:00 - 09:59";"STD";"Station Sloterdijk";"4.83878389";"52.38880848";"118"
"1/4/2021 12:00:00 AM";"09:00 - 09:59";"SVT";"Strandvliet";"4.94152820";"52.31825469";"35"
"1/4/2021 12:00:00 AM";"09:00 - 09:59";"VLN";"Burg.de Vlugtlaan";"4.83809109";"52.37951196";"43"
"1/4/2021 12:00:00 AM";"09:00 - 09:59";"VPD";"Venserpolder";"4.94665009";"52.32679428";"32"
"1/4/2021 12:00:00 AM";"09:00 - 09:59";"VSW";"Verrijn Stuartweg";"4.96693669";"52.32844093";"26"
"1/4/2021 12:00:00 AM";"09:00 - 09:59";"VZG";"Vijzelgracht";"4.89072870";"52.35980061";"125"
"1/4/2021 12:00:00 AM";"09:00 - 09:59";"WBS";"Wibautstraat";"4.91202993";"52.35428867";"111"
"1/4/2021 12:00:00 AM";"09:00 - 09:59";"WLP";"Waterlooplein";"4.90298171";"52.36697862";"166"
"1/4/2021 12:00:00 AM";"09:00 - 09:59";"WPP";"Weesperplein";"4.90787469";"52.36120146";"117"
"1/4/2021 12:00:00 AM";"09:00 - 09:59";"WTC";"Station Zuid";"4.87509853";"52.33908015";"311"
"1/4/2021 12:00:00 AM";"10:00 - 10:59";"";"Overig";"";"";"2251"
"1/4/2021 12:00:00 AM";"10:00 - 10:59";"[[ Onb";"[[ Onbekend ]]";"0.00000000";"0.00000000";"207"
"1/4/2021 12:00:00 AM";"10:00 - 10:59";"00001";"Muiderpoortstation";"4.93287450";"52.36132700";"11"
"1/4/2021 12:00:00 AM";"10:00 - 10:59";"00007";"Muiderpoortstation";"4.93356602";"52.36117686";"18"
"1/4/2021 12:00:00 AM";"10:00 - 10:59";"00020";"Beukenweg";"4.91674979";"52.35906203";"19"
"1/4/2021 12:00:00 AM";"10:00 - 10:59";"00021";"Beukenweg";"4.91721293";"52.35829991";"37"
"1/4/2021 12:00:00 AM";"10:00 - 10:59";"00029";"Oostpoort";"4.92719316";"52.35707185";"10"
"1/4/2021 12:00:00 AM";"10:00 - 10:59";"00030";"Oostpoort";"4.92694026";"52.35739442";"12"
"1/4/2021 12:00:00 AM";"10:00 - 10:59";"00040";"Hogeweg";"4.93135765";"52.35321425";"18"
"1/4/2021 12:00:00 AM";"10:00 - 10:59";"00059";"Radioweg";"4.93945830";"52.35337100";"11"
"1/4/2021 12:00:00 AM";"10:00 - 10:59";"00074";"Brinkstraat";"4.94797289";"52.34285131";"15"
"1/4/2021 12:00:00 AM";"10:00 - 10:59";"00141";"Kraaienneststation";"4.97868390";"52.31603403";"10"
"1/4/2021 12:00:00 AM";"10:00 - 10:59";"00151";"Tulastraat";"4.96584458";"52.31985374";"12"
"1/4/2021 12:00:00 AM";"10:00 - 10:59";"00152";"Florijn";"4.95859163";"52.31758973";"10"
"1/4/2021 12:00:00 AM";"10:00 - 10:59";"00197";"Annie Romeinplein";"4.97162041";"52.32173463";"11"
"1/4/2021 12:00:00 AM";"10:00 - 10:59";"00238";"Anton de Komplein";"4.95413359";"52.31603659";"21"
"1/4/2021 12:00:00 AM";"10:00 - 10:59";"00239";"Anton de Komplein";"4.95597669";"52.31652866";"11"
"1/4/2021 12:00:00 AM";"10:00 - 10:59";"00434";"Bijlmerplein";"4.95032022";"52.31457553";"18"
"1/4/2021 12:00:00 AM";"10:00 - 10:59";"00441";"Muiderpoortstation";"4.93254137";"52.36088532";"20"
"1/4/2021 12:00:00 AM";"10:00 - 10:59";"00553";"Kraaienneststation";"4.98073727";"52.31601414";"12"
"1/4/2021 12:00:00 AM";"10:00 - 10:59";"00561";"Station Bijlmer ArenA";"4.94741931";"52.31132918";"16"
"1/4/2021 12:00:00 AM";"10:00 - 10:59";"01076";"Waterlandplein";"4.95247364";"52.39274059";"10"
"1/4/2021 12:00:00 AM";"10:00 - 10:59";"01277";"Statenjachtstraat";"4.91364478";"52.40790666";"12"
"1/4/2021 12:00:00 AM";"10:00 - 10:59";"01352";"Oosterlengte";"4.92206974";"52.40611555";"10"
"1/4/2021 12:00:00 AM";"10:00 - 10:59";"02103";"Spaarndammerstraat";"4.87765867";"52.39216375";"17"
"1/4/2021 12:00:00 AM";"10:00 - 10:59";"02106";"Assendelftstraat";"4.87943840";"52.38941217";"10"
"1/4/2021 12:00:00 AM";"10:00 - 10:59";"02130";"Hugo de Grootplein";"4.87259092";"52.37439113";"12"
"1/4/2021 12:00:00 AM";"10:00 - 10:59";"02132";"Fred. Hendrikplants.";"4.87543499";"52.37862768";"11"
"1/4/2021 12:00:00 AM";"10:00 - 10:59";"02151";"De Wittenkade";"4.87695310";"52.38326290";"11"
"1/4/2021 12:00:00 AM";"10:00 - 10:59";"02155";"Willem de Zwijgerlaan";"4.86360306";"52.37071170";"10"
"1/4/2021 12:00:00 AM";"10:00 - 10:59";"02157";"Adm. de Ruijterweg";"4.86009910";"52.37148707";"12"
"1/4/2021 12:00:00 AM";"10:00 - 10:59";"02193";"Marnixplein";"4.87844490";"52.37741832";"11"
"1/4/2021 12:00:00 AM";"10:00 - 10:59";"02321";"Van Hallstraat";"4.86864429";"52.38538386";"12"
"1/4/2021 12:00:00 AM";"10:00 - 10:59";"02361";"Station Sloterdijk";"4.83931858";"52.38833460";"22"
"1/4/2021 12:00:00 AM";"10:00 - 10:59";"02366";"Station Sloterdijk";"4.83873347";"52.38813416";"12"
"1/4/2021 12:00:00 AM";"10:00 - 10:59";"02367";"Station Sloterdijk";"4.83876429";"52.38801747";"11"
"1/4/2021 12:00:00 AM";"10:00 - 10:59";"02378";"Station Sloterdijk";"4.83809796";"52.38844579";"15"
"1/4/2021 12:00:00 AM";"10:00 - 10:59";"03009";"Witte de Withstraat";"4.85851970";"52.36478416";"19"
"1/4/2021 12:00:00 AM";"10:00 - 10:59";"03010";"Witte de Withstraat";"4.85928290";"52.36480554";"22"
"1/4/2021 12:00:00 AM";"10:00 - 10:59";"03022";"Mercatorplein";"4.85070310";"52.37012367";"10"
"1/4/2021 12:00:00 AM";"10:00 - 10:59";"03024";"Marco Polostraat";"4.85546532";"52.37095405";"11"
"1/4/2021 12:00:00 AM";"10:00 - 10:59";"03061";"Bos en Lommerplein";"4.84523530";"52.37778328";"10"
"1/4/2021 12:00:00 AM";"10:00 - 10:59";"03076";"Jan Tooropstraat";"4.83810313";"52.37142305";"10"
"1/4/2021 12:00:00 AM";"10:00 - 10:59";"03090";"Slotermeerlaan";"4.81728149";"52.37596234";"13"
"1/4/2021 12:00:00 AM";"10:00 - 10:59";"03121";"Aalbersestraat";"4.79774249";"52.38202329";"15"
"1/4/2021 12:00:00 AM";"10:00 - 10:59";"03129";"Plein '40 - '45";"4.82112672";"52.38075328";"10"
"1/4/2021 12:00:00 AM";"10:00 - 10:59";"03157";"Lambertus Zijlplein";"4.80338637";"52.37726977";"15"
"1/4/2021 12:00:00 AM";"10:00 - 10:59";"03168";"Mercatorplein";"4.85152392";"52.37024423";"13"
"1/4/2021 12:00:00 AM";"10:00 - 10:59";"03181";"Jan Voermanstraat";"4.83788946";"52.36970540";"11"
"1/4/2021 12:00:00 AM";"10:00 - 10:59";"04012";"Baden Powellweg";"4.79137362";"52.35646612";"16"
"1/4/2021 12:00:00 AM";"10:00 - 10:59";"04016";"Hoekenes";"4.79854723";"52.35791310";"12"
"1/4/2021 12:00:00 AM";"10:00 - 10:59";"04021";"Osdorpplein West";"4.80322869";"52.35913166";"20"
"1/4/2021 12:00:00 AM";"10:00 - 10:59";"04050";"Meer en Vaart";"4.80994403";"52.35636940";"17"
"1/4/2021 12:00:00 AM";"10:00 - 10:59";"04062";"Johan Huizingalaan";"4.82582327";"52.35781191";"11"
"1/4/2021 12:00:00 AM";"10:00 - 10:59";"04065";"Osdorpplein Oost";"4.80773259";"52.35935153";"13"
"1/4/2021 12:00:00 AM";"10:00 - 10:59";"04088";"Louwesweg";"4.82436420";"52.34669608";"13"
"1/4/2021 12:00:00 AM";"10:00 - 10:59";"04112";"Johan Huizingalaan";"4.82742878";"52.34923618";"18"
"1/4/2021 12:00:00 AM";"10:00 - 10:59";"04195";"Station Lelylaan";"4.83460082";"52.35788018";"29"
"1/4/2021 12:00:00 AM";"10:00 - 10:59";"04196";"Station Lelylaan";"4.83382251";"52.35790351";"23"
"1/4/2021 12:00:00 AM";"10:00 - 10:59";"04279";"Centrum Nieuw Sloten";"4.81104244";"52.34638930";"10"
"1/4/2021 12:00:00 AM";"10:00 - 10:59";"04411";"Hoekenes";"4.80183430";"52.35243785";"18"
"1/4/2021 12:00:00 AM";"10:00 - 10:59";"05011";"Centraal Station";"4.89921803";"52.37810793";"79"
"1/4/2021 12:00:00 AM";"10:00 - 10:59";"05022";"Centraal Station";"4.90104337";"52.37771998";"59"
"1/4/2021 12:00:00 AM";"10:00 - 10:59";"05047";"Rembrandtplein";"4.89702882";"52.36623511";"10"
"1/4/2021 12:00:00 AM";"10:00 - 10:59";"05065";"Dam";"4.89079364";"52.37367792";"15"
"1/4/2021 12:00:00 AM";"10:00 - 10:59";"05066";"Dam";"4.89027056";"52.37318140";"16"
"1/4/2021 12:00:00 AM";"10:00 - 10:59";"05069";"Nieuwezijds Kolk";"4.89373093";"52.37628765";"14"
"1/4/2021 12:00:00 AM";"10:00 - 10:59";"05073";"Westermarkt";"4.88453426";"52.37400204";"19"
"1/4/2021 12:00:00 AM";"10:00 - 10:59";"05074";"Westermarkt";"4.88354950";"52.37407874";"20"
"1/4/2021 12:00:00 AM";"10:00 - 10:59";"05080";"Buiten Oranjestraat";"4.88782167";"52.38330923";"11"
"1/4/2021 12:00:00 AM";"10:00 - 10:59";"05097";"Centraal Station";"4.90087651";"52.37954379";"27"
"1/4/2021 12:00:00 AM";"10:00 - 10:59";"05103";"Centraal Station";"4.90127481";"52.37938365";"12"
"1/4/2021 12:00:00 AM";"10:00 - 10:59";"05104";"Centraal Station";"4.90164343";"52.37925034";"11"
"1/4/2021 12:00:00 AM";"10:00 - 10:59";"06001";"Surinameplein";"4.85252231";"52.35807034";"21"
"1/4/2021 12:00:00 AM";"10:00 - 10:59";"06002";"Surinameplein";"4.85090753";"52.35807202";"14"
"1/4/2021 12:00:00 AM";"10:00 - 10:59";"06015";"Postjesweg";"4.85316124";"52.36352879";"10"
"1/4/2021 12:00:00 AM";"10:00 - 10:59";"06017";"J.P. Heijestraat";"4.86292316";"52.36487565";"13"
"1/4/2021 12:00:00 AM";"10:00 - 10:59";"06019";"Ten Katestraat";"4.86737423";"52.36591988";"12"
"1/4/2021 12:00:00 AM";"10:00 - 10:59";"06020";"Ten Katestraat";"4.86773990";"52.36603832";"26"
"1/4/2021 12:00:00 AM";"10:00 - 10:59";"06021";"Bilderdijkstraat";"4.87176488";"52.36712545";"12"
"1/4/2021 12:00:00 AM";"10:00 - 10:59";"06023";"Bilderdijkstraat";"4.87254032";"52.36736251";"11"
"1/4/2021 12:00:00 AM";"10:00 - 10:59";"06027";"Elandsgracht";"4.87855189";"52.36808953";"14"
"1/4/2021 12:00:00 AM";"10:00 - 10:59";"06028";"Elandsgracht";"4.87741694";"52.36974738";"16"
"1/4/2021 12:00:00 AM";"10:00 - 10:59";"06029";"Elandsgracht";"4.87684368";"52.36852258";"13"
"1/4/2021 12:00:00 AM";"10:00 - 10:59";"06030";"Rozengracht";"4.87590932";"52.37187996";"12"
"1/4/2021 12:00:00 AM";"10:00 - 10:59";"06037";"Bilderdijkstraat";"4.86985701";"52.37082906";"13"
"1/4/2021 12:00:00 AM";"10:00 - 10:59";"06044";"Overtoom";"4.87483191";"52.36345380";"14"
"1/4/2021 12:00:00 AM";"10:00 - 10:59";"06049";"J.P. Heijestraat";"4.86671778";"52.36055131";"11"
"1/4/2021 12:00:00 AM";"10:00 - 10:59";"06061";"Leidseplein";"4.88339576";"52.36305015";"15"
"1/4/2021 12:00:00 AM";"10:00 - 10:59";"06063";"Leidseplein";"4.88064547";"52.36476406";"22"
"1/4/2021 12:00:00 AM";"10:00 - 10:59";"06075";"Koningsplein";"4.88942793";"52.36713812";"16"
"1/4/2021 12:00:00 AM";"10:00 - 10:59";"06081";"Rhijnvis Feithstraat";"4.86039355";"52.35905833";"11"
"1/4/2021 12:00:00 AM";"10:00 - 10:59";"06082";"Rhijnvis Feithstraat";"4.85967683";"52.35883943";"12"
"1/4/2021 12:00:00 AM";"10:00 - 10:59";"06089";"Leidseplein";"4.88085541";"52.36309324";"19"
"1/4/2021 12:00:00 AM";"10:00 - 10:59";"06114";"Hoofdweg";"4.85444451";"52.36425359";"13"
"1/4/2021 12:00:00 AM";"10:00 - 10:59";"07002";"Van Baerlestraat";"4.87836936";"52.35839997";"10"
"1/4/2021 12:00:00 AM";"10:00 - 10:59";"07006";"Museumplein";"4.87980116";"52.35642881";"10"
"1/4/2021 12:00:00 AM";"10:00 - 10:59";"07007";"Museumplein";"4.87950215";"52.35690388";"17"
"1/4/2021 12:00:00 AM";"10:00 - 10:59";"07014";"Kastelenstraat";"4.87944660";"52.32583291";"12"
"1/4/2021 12:00:00 AM";"10:00 - 10:59";"07016";"Roelof Hartplein";"4.88286688";"52.35274795";"21"
"1/4/2021 12:00:00 AM";"10:00 - 10:59";"07031";"Valeriusplein";"4.86374943";"52.35333004";"14"
"1/4/2021 12:00:00 AM";"10:00 - 10:59";"07046";"Hoofddorpplein";"4.85048172";"52.35201234";"14"
"1/4/2021 12:00:00 AM";"10:00 - 10:59";"07049";"Hoofddorpplein";"4.84958188";"52.35117239";"13"
"1/4/2021 12:00:00 AM";"10:00 - 10:59";"07097";"Olympiaplein";"4.86582821";"52.34630180";"12"
"1/4/2021 12:00:00 AM";"10:00 - 10:59";"07269";"Station Zuid";"4.87374306";"52.34082689";"11"
"1/4/2021 12:00:00 AM";"10:00 - 10:59";"07303";"VU medisch centrum";"4.86097062";"52.33515342";"14"
"1/4/2021 12:00:00 AM";"10:00 - 10:59";"07321";"Van Baerlestraat";"4.87895796";"52.35827667";"13"
"1/4/2021 12:00:00 AM";"10:00 - 10:59";"07322";"Van Baerlestraat";"4.87971942";"52.35844171";"13"
"1/4/2021 12:00:00 AM";"10:00 - 10:59";"07419";"Van Boshuizenstraat";"4.86896941";"52.32487971";"23"
"1/4/2021 12:00:00 AM";"10:00 - 10:59";"07439";"Oranjebaan";"4.87179001";"52.30302465";"12"
"1/4/2021 12:00:00 AM";"10:00 - 10:59";"07445";"Amstelveen Stadshart";"4.86751502";"52.30124433";"20"
"1/4/2021 12:00:00 AM";"10:00 - 10:59";"07449";"A.J. Ernststraat";"4.86879476";"52.33230287";"10"
"1/4/2021 12:00:00 AM";"10:00 - 10:59";"08054";"Weesperplein";"4.90941338";"52.36145933";"19"
"1/4/2021 12:00:00 AM";"10:00 - 10:59";"08057";"Frederiksplein";"4.90024241";"52.35971430";"21"
"1/4/2021 12:00:00 AM";"10:00 - 10:59";"08072";"Vijzelgracht";"4.89159781";"52.35953462";"13"
"1/4/2021 12:00:00 AM";"10:00 - 10:59";"08073";"Vijzelgracht";"4.89227386";"52.35946554";"13"
"1/4/2021 12:00:00 AM";"10:00 - 10:59";"08080";"Spiegelgracht";"4.88691222";"52.36106979";"11"
"1/4/2021 12:00:00 AM";"10:00 - 10:59";"08094";"Wijttenbachstraat";"4.92547668";"52.35979743";"15"
"1/4/2021 12:00:00 AM";"10:00 - 10:59";"08190";"Molukkenstraat";"4.93934614";"52.36157635";"15"
"1/4/2021 12:00:00 AM";"10:00 - 10:59";"08237";"Kattenburgerstraat";"4.92126795";"52.37614755";"10"
"1/4/2021 12:00:00 AM";"10:00 - 10:59";"08238";"Rietlandpark";"4.93350159";"52.37322013";"15"
"1/4/2021 12:00:00 AM";"10:00 - 10:59";"08239";"Rietlandpark";"4.93413567";"52.37296191";"18"
"1/4/2021 12:00:00 AM";"10:00 - 10:59";"08241";"Zuiderzeeweg";"4.96185517";"52.37193228";"18"
"1/4/2021 12:00:00 AM";"10:00 - 10:59";"08245";"Steigereiland";"4.98012952";"52.36313467";"14"
"1/4/2021 12:00:00 AM";"10:00 - 10:59";"08247";"Vennepluimstraat";"4.99057242";"52.35769662";"20"
"1/4/2021 12:00:00 AM";"10:00 - 10:59";"08249";"Diemerparklaan";"4.99499716";"52.35532962";"12"
"1/4/2021 12:00:00 AM";"10:00 - 10:59";"08262";"IJburg";"5.00486802";"52.35112872";"20"
"1/4/2021 12:00:00 AM";"10:00 - 10:59";"08290";"Molukkenstraat";"4.94016678";"52.36172326";"16"
"1/4/2021 12:00:00 AM";"10:00 - 10:59";"09051";"Victorieplein";"4.90653699";"52.34645615";"16"
"1/4/2021 12:00:00 AM";"10:00 - 10:59";"09097";"Van Woustraat";"4.90084070";"52.35468363";"15"
"1/4/2021 12:00:00 AM";"10:00 - 10:59";"09111";"De Pijp";"4.89073444";"52.35272728";"16"
"1/4/2021 12:00:00 AM";"10:00 - 10:59";"09114";"De Pijp";"4.88948829";"52.35259622";"26"
"1/4/2021 12:00:00 AM";"10:00 - 10:59";"ASA";"Amstelstation";"4.91751426";"52.34647326";"124"
"1/4/2021 12:00:00 AM";"10:00 - 10:59";"ASW";"Amstelveenseweg";"4.85798324";"52.33836671";"103"
"1/4/2021 12:00:00 AM";"10:00 - 10:59";"BLW";"Bullewijk";"4.95233581";"52.30642205";"59"
"1/4/2021 12:00:00 AM";"10:00 - 10:59";"BMR";"Station Bijlmer ArenA";"4.94713474";"52.31193030";"156"
"1/4/2021 12:00:00 AM";"10:00 - 10:59";"CLL";"Station Lelylaan";"4.83426589";"52.35766291";"66"
"1/4/2021 12:00:00 AM";"10:00 - 10:59";"CS";"Centraal Station";"4.90078150";"52.37749421";"265"
"1/4/2021 12:00:00 AM";"10:00 - 10:59";"DMZ";"Station Diemen-Zuid";"4.95713273";"52.33042795";"21"
"1/4/2021 12:00:00 AM";"10:00 - 10:59";"DPP";"De Pijp";"4.89101069";"52.35296212";"99"
"1/4/2021 12:00:00 AM";"10:00 - 10:59";"DVD";"Station Duivendrecht";"4.93678429";"52.32325190";"45"
"1/4/2021 12:00:00 AM";"10:00 - 10:59";"EPP";"Europaplein";"4.89138430";"52.34185482";"72"
"1/4/2021 12:00:00 AM";"10:00 - 10:59";"GN";"Gein";"4.98952268";"52.29627089";"50"
"1/4/2021 12:00:00 AM";"10:00 - 10:59";"GPP";"Gaasperplas";"4.98468551";"52.31080575";"19"
"1/4/2021 12:00:00 AM";"10:00 - 10:59";"GZH";"Station Ganzenhoef";"4.97323379";"52.32331315";"50"
"1/4/2021 12:00:00 AM";"10:00 - 10:59";"HDS";"Heemstedestraat";"4.83421208";"52.35255760";"29"
"1/4/2021 12:00:00 AM";"10:00 - 10:59";"HLD";"Station Holendrecht";"4.96021904";"52.29780451";"157"
"1/4/2021 12:00:00 AM";"10:00 - 10:59";"HVW";"Henk Sneevlietweg";"4.83439318";"52.34626699";"61"
"1/4/2021 12:00:00 AM";"10:00 - 10:59";"ITW";"Isolatorweg";"4.85013475";"52.39523277";"21"
"1/4/2021 12:00:00 AM";"10:00 - 10:59";"JLS";"Jan v.Galenstraat";"4.83492461";"52.37196551";"57"
"1/4/2021 12:00:00 AM";"10:00 - 10:59";"KEN";"Kraaienneststation";"4.97963450";"52.31632492";"42"
"1/4/2021 12:00:00 AM";"10:00 - 10:59";"MDW";"Van der Madeweg";"4.93048657";"52.32945629";"27"
"1/4/2021 12:00:00 AM";"10:00 - 10:59";"ND";"Noord";"4.93123182";"52.40117202";"123"
"1/4/2021 12:00:00 AM";"10:00 - 10:59";"NDP";"Noorderpark";"4.91789115";"52.38855518";"75"
"1/4/2021 12:00:00 AM";"10:00 - 10:59";"NMT";"Nieuwmarkt";"4.90123885";"52.37194169";"52"
"1/4/2021 12:00:00 AM";"10:00 - 10:59";"OAS";"Overamstel";"4.91815361";"52.33179879";"37"
"1/4/2021 12:00:00 AM";"10:00 - 10:59";"PJW";"Postjesweg";"4.83385543";"52.36468044";"34"
"1/4/2021 12:00:00 AM";"10:00 - 10:59";"RAI";"Station RAI";"4.88982004";"52.33739931";"65"
"1/4/2021 12:00:00 AM";"10:00 - 10:59";"RGB";"Reigersbos";"4.97473728";"52.29566301";"60"
"1/4/2021 12:00:00 AM";"10:00 - 10:59";"RKN";"Rokin";"4.89229651";"52.36928023";"137"
"1/4/2021 12:00:00 AM";"10:00 - 10:59";"SLW";"Spaklerweg";"4.92085640";"52.33986250";"36"
"1/4/2021 12:00:00 AM";"10:00 - 10:59";"STD";"Station Sloterdijk";"4.83878389";"52.38880848";"71"
"1/4/2021 12:00:00 AM";"10:00 - 10:59";"SVT";"Strandvliet";"4.94152820";"52.31825469";"31"
"1/4/2021 12:00:00 AM";"10:00 - 10:59";"VLN";"Burg.de Vlugtlaan";"4.83809109";"52.37951196";"30"
"1/4/2021 12:00:00 AM";"10:00 - 10:59";"VPD";"Venserpolder";"4.94665009";"52.32679428";"18"
"1/4/2021 12:00:00 AM";"10:00 - 10:59";"VSW";"Verrijn Stuartweg";"4.96693669";"52.32844093";"17"
"1/4/2021 12:00:00 AM";"10:00 - 10:59";"VZG";"Vijzelgracht";"4.89072870";"52.35980061";"71"
"1/4/2021 12:00:00 AM";"10:00 - 10:59";"WBS";"Wibautstraat";"4.91202993";"52.35428867";"96"
"1/4/2021 12:00:00 AM";"10:00 - 10:59";"WLP";"Waterlooplein";"4.90298171";"52.36697862";"92"
"1/4/2021 12:00:00 AM";"10:00 - 10:59";"WPP";"Weesperplein";"4.90787469";"52.36120146";"106"
"1/4/2021 12:00:00 AM";"10:00 - 10:59";"WTC";"Station Zuid";"4.87509853";"52.33908015";"223"
"1/4/2021 12:00:00 AM";"11:00 - 11:59";"";"Overig";"";"";"2465"
"1/4/2021 12:00:00 AM";"11:00 - 11:59";"[[ Onb";"[[ Onbekend ]]";"0.00000000";"0.00000000";"281"
"1/4/2021 12:00:00 AM";"11:00 - 11:59";"00001";"Muiderpoortstation";"4.93287450";"52.36132700";"10"
"1/4/2021 12:00:00 AM";"11:00 - 11:59";"00007";"Muiderpoortstation";"4.93356602";"52.36117686";"20"
"1/4/2021 12:00:00 AM";"11:00 - 11:59";"00020";"Beukenweg";"4.91674979";"52.35906203";"18"
"1/4/2021 12:00:00 AM";"11:00 - 11:59";"00021";"Beukenweg";"4.91721293";"52.35829991";"29"
"1/4/2021 12:00:00 AM";"11:00 - 11:59";"00030";"Oostpoort";"4.92694026";"52.35739442";"17"
"1/4/2021 12:00:00 AM";"11:00 - 11:59";"00116";"Station Ganzenhoef";"4.97272915";"52.32237665";"17"
"1/4/2021 12:00:00 AM";"11:00 - 11:59";"00141";"Kraaienneststation";"4.97868390";"52.31603403";"15"
"1/4/2021 12:00:00 AM";"11:00 - 11:59";"00151";"Tulastraat";"4.96584458";"52.31985374";"10"
"1/4/2021 12:00:00 AM";"11:00 - 11:59";"00152";"Florijn";"4.95859163";"52.31758973";"11"
"1/4/2021 12:00:00 AM";"11:00 - 11:59";"00197";"Annie Romeinplein";"4.97162041";"52.32173463";"22"
"1/4/2021 12:00:00 AM";"11:00 - 11:59";"00238";"Anton de Komplein";"4.95413359";"52.31603659";"28"
"1/4/2021 12:00:00 AM";"11:00 - 11:59";"00239";"Anton de Komplein";"4.95597669";"52.31652866";"19"
"1/4/2021 12:00:00 AM";"11:00 - 11:59";"00441";"Muiderpoortstation";"4.93254137";"52.36088532";"16"
"1/4/2021 12:00:00 AM";"11:00 - 11:59";"00444";"Linnaeusstraat";"4.92490296";"52.35991203";"18"
"1/4/2021 12:00:00 AM";"11:00 - 11:59";"00518";"Foppingadreef";"4.94967889";"52.31268573";"13"
"1/4/2021 12:00:00 AM";"11:00 - 11:59";"00561";"Station Bijlmer ArenA";"4.94741931";"52.31132918";"18"
"1/4/2021 12:00:00 AM";"11:00 - 11:59";"01076";"Waterlandplein";"4.95247364";"52.39274059";"12"
"1/4/2021 12:00:00 AM";"11:00 - 11:59";"01305";"Station Noord";"4.93215715";"52.40264056";"14"
"1/4/2021 12:00:00 AM";"11:00 - 11:59";"01316";"Station Noord";"4.93336820";"52.40204304";"16"
"1/4/2021 12:00:00 AM";"11:00 - 11:59";"01363";"Buikslotermeerplein";"4.93968364";"52.39943369";"12"
"1/4/2021 12:00:00 AM";"11:00 - 11:59";"01364";"Buikslotermeerplein";"4.93887054";"52.39992493";"10"
"1/4/2021 12:00:00 AM";"11:00 - 11:59";"01402";"Floraweg";"4.90614362";"52.39899665";"13"
"1/4/2021 12:00:00 AM";"11:00 - 11:59";"02103";"Spaarndammerstraat";"4.87765867";"52.39216375";"15"
"1/4/2021 12:00:00 AM";"11:00 - 11:59";"02113";"Haarlemmerplein";"4.88371739";"52.38516129";"13"
"1/4/2021 12:00:00 AM";"11:00 - 11:59";"02114";"Haarlemmerplein";"4.88341252";"52.38484542";"21"
"1/4/2021 12:00:00 AM";"11:00 - 11:59";"02130";"Hugo de Grootplein";"4.87259092";"52.37439113";"11"
"1/4/2021 12:00:00 AM";"11:00 - 11:59";"02132";"Fred. Hendrikplants.";"4.87543499";"52.37862768";"10"
"1/4/2021 12:00:00 AM";"11:00 - 11:59";"02153";"Nassaukade";"4.87920791";"52.38132226";"10"
"1/4/2021 12:00:00 AM";"11:00 - 11:59";"02155";"Willem de Zwijgerlaan";"4.86360306";"52.37071170";"11"
"1/4/2021 12:00:00 AM";"11:00 - 11:59";"02156";"Willem de Zwijgerlaan";"4.86425293";"52.37039101";"11"
"1/4/2021 12:00:00 AM";"11:00 - 11:59";"02157";"Adm. de Ruijterweg";"4.86009910";"52.37148707";"11"
"1/4/2021 12:00:00 AM";"11:00 - 11:59";"02158";"Adm. de Ruijterweg";"4.86096776";"52.37129320";"17"
"1/4/2021 12:00:00 AM";"11:00 - 11:59";"02177";"Bos en Lommerweg";"4.85521256";"52.38101018";"13"
"1/4/2021 12:00:00 AM";"11:00 - 11:59";"02222";"Jan van Galenstraat";"4.85874763";"52.37399761";"10"
"1/4/2021 12:00:00 AM";"11:00 - 11:59";"02319";"Solebaystraat";"4.85540788";"52.38431853";"10"
"1/4/2021 12:00:00 AM";"11:00 - 11:59";"02361";"Station Sloterdijk";"4.83931858";"52.38833460";"21"
"1/4/2021 12:00:00 AM";"11:00 - 11:59";"02378";"Station Sloterdijk";"4.83809796";"52.38844579";"16"
"1/4/2021 12:00:00 AM";"11:00 - 11:59";"03009";"Witte de Withstraat";"4.85851970";"52.36478416";"17"
"1/4/2021 12:00:00 AM";"11:00 - 11:59";"03010";"Witte de Withstraat";"4.85928290";"52.36480554";"14"
"1/4/2021 12:00:00 AM";"11:00 - 11:59";"03028";"Jan van Galenstraat";"4.84921138";"52.37204926";"12"
"1/4/2021 12:00:00 AM";"11:00 - 11:59";"03034";"Erasmusgracht";"4.84691117";"52.37644278";"14"
"1/4/2021 12:00:00 AM";"11:00 - 11:59";"03055";"Burg. Fockstraat";"4.83108040";"52.37991964";"11"
"1/4/2021 12:00:00 AM";"11:00 - 11:59";"03060";"Bos en Lommerplein";"4.84718407";"52.37815169";"12"
"1/4/2021 12:00:00 AM";"11:00 - 11:59";"03061";"Bos en Lommerplein";"4.84523530";"52.37778328";"15"
"1/4/2021 12:00:00 AM";"11:00 - 11:59";"03129";"Plein '40 - '45";"4.82112672";"52.38075328";"14"
"1/4/2021 12:00:00 AM";"11:00 - 11:59";"03157";"Lambertus Zijlplein";"4.80338637";"52.37726977";"11"
"1/4/2021 12:00:00 AM";"11:00 - 11:59";"03168";"Mercatorplein";"4.85152392";"52.37024423";"16"
"1/4/2021 12:00:00 AM";"11:00 - 11:59";"04008";"Dijkgraafplein";"4.78646982";"52.35545267";"18"
"1/4/2021 12:00:00 AM";"11:00 - 11:59";"04009";"Dijkgraafplein";"4.78689401";"52.35556268";"11"
"1/4/2021 12:00:00 AM";"11:00 - 11:59";"04012";"Baden Powellweg";"4.79137362";"52.35646612";"31"
"1/4/2021 12:00:00 AM";"11:00 - 11:59";"04021";"Osdorpplein West";"4.80322869";"52.35913166";"24"
"1/4/2021 12:00:00 AM";"11:00 - 11:59";"04050";"Meer en Vaart";"4.80994403";"52.35636940";"16"
"1/4/2021 12:00:00 AM";"11:00 - 11:59";"04060";"Derkinderenstraat";"4.83972293";"52.35796689";"10"
"1/4/2021 12:00:00 AM";"11:00 - 11:59";"04064";"Osdorpplein Oost";"4.80806527";"52.35860717";"13"
"1/4/2021 12:00:00 AM";"11:00 - 11:59";"04065";"Osdorpplein Oost";"4.80773259";"52.35935153";"21"
"1/4/2021 12:00:00 AM";"11:00 - 11:59";"04120";"Delflandlaan";"4.83969924";"52.35155850";"11"
"1/4/2021 12:00:00 AM";"11:00 - 11:59";"04195";"Station Lelylaan";"4.83460082";"52.35788018";"21"
"1/4/2021 12:00:00 AM";"11:00 - 11:59";"04196";"Station Lelylaan";"4.83382251";"52.35790351";"26"
"1/4/2021 12:00:00 AM";"11:00 - 11:59";"05011";"Centraal Station";"4.89921803";"52.37810793";"75"
"1/4/2021 12:00:00 AM";"11:00 - 11:59";"05022";"Centraal Station";"4.90104337";"52.37771998";"63"
"1/4/2021 12:00:00 AM";"11:00 - 11:59";"05063";"Dam";"4.89064590";"52.37244599";"15"
"1/4/2021 12:00:00 AM";"11:00 - 11:59";"05065";"Dam";"4.89079364";"52.37367792";"11"
"1/4/2021 12:00:00 AM";"11:00 - 11:59";"05066";"Dam";"4.89027056";"52.37318140";"23"
"1/4/2021 12:00:00 AM";"11:00 - 11:59";"05069";"Nieuwezijds Kolk";"4.89373093";"52.37628765";"19"
"1/4/2021 12:00:00 AM";"11:00 - 11:59";"05073";"Westermarkt";"4.88453426";"52.37400204";"10"
"1/4/2021 12:00:00 AM";"11:00 - 11:59";"05074";"Westermarkt";"4.88354950";"52.37407874";"13"
"1/4/2021 12:00:00 AM";"11:00 - 11:59";"05077";"Marnixstraat";"4.87615428";"52.37228546";"13"
"1/4/2021 12:00:00 AM";"11:00 - 11:59";"05097";"Centraal Station";"4.90087651";"52.37954379";"16"
"1/4/2021 12:00:00 AM";"11:00 - 11:59";"05103";"Centraal Station";"4.90127481";"52.37938365";"10"
"1/4/2021 12:00:00 AM";"11:00 - 11:59";"05106";"Centraal Station";"4.90229030";"52.37919008";"11"
"1/4/2021 12:00:00 AM";"11:00 - 11:59";"06001";"Surinameplein";"4.85252231";"52.35807034";"15"
"1/4/2021 12:00:00 AM";"11:00 - 11:59";"06002";"Surinameplein";"4.85090753";"52.35807202";"13"
"1/4/2021 12:00:00 AM";"11:00 - 11:59";"06015";"Postjesweg";"4.85316124";"52.36352879";"11"
"1/4/2021 12:00:00 AM";"11:00 - 11:59";"06016";"J.P. Heijestraat";"4.86239635";"52.36472951";"12"
"1/4/2021 12:00:00 AM";"11:00 - 11:59";"06017";"J.P. Heijestraat";"4.86292316";"52.36487565";"14"
"1/4/2021 12:00:00 AM";"11:00 - 11:59";"06019";"Ten Katestraat";"4.86737423";"52.36591988";"20"
"1/4/2021 12:00:00 AM";"11:00 - 11:59";"06020";"Ten Katestraat";"4.86773990";"52.36603832";"22"
"1/4/2021 12:00:00 AM";"11:00 - 11:59";"06021";"Bilderdijkstraat";"4.87176488";"52.36712545";"12"
"1/4/2021 12:00:00 AM";"11:00 - 11:59";"06024";"Kinkerstraat";"4.87230885";"52.36706491";"15"
"1/4/2021 12:00:00 AM";"11:00 - 11:59";"06027";"Elandsgracht";"4.87855189";"52.36808953";"10"
"1/4/2021 12:00:00 AM";"11:00 - 11:59";"06028";"Elandsgracht";"4.87741694";"52.36974738";"10"
"1/4/2021 12:00:00 AM";"11:00 - 11:59";"06029";"Elandsgracht";"4.87684368";"52.36852258";"13"
"1/4/2021 12:00:00 AM";"11:00 - 11:59";"06030";"Rozengracht";"4.87590932";"52.37187996";"18"
"1/4/2021 12:00:00 AM";"11:00 - 11:59";"06037";"Bilderdijkstraat";"4.86985701";"52.37082906";"14"
"1/4/2021 12:00:00 AM";"11:00 - 11:59";"06044";"Overtoom";"4.87483191";"52.36345380";"13"
"1/4/2021 12:00:00 AM";"11:00 - 11:59";"06045";"1e Con. Huygensstraat";"4.87399228";"52.36242556";"12"
"1/4/2021 12:00:00 AM";"11:00 - 11:59";"06046";"1e Con. Huygensstraat";"4.87487082";"52.36262709";"11"
"1/4/2021 12:00:00 AM";"11:00 - 11:59";"06048";"J.P. Heijestraat";"4.86585368";"52.36037674";"12"
"1/4/2021 12:00:00 AM";"11:00 - 11:59";"06049";"J.P. Heijestraat";"4.86671778";"52.36055131";"10"
"1/4/2021 12:00:00 AM";"11:00 - 11:59";"06061";"Leidseplein";"4.88339576";"52.36305015";"21"
"1/4/2021 12:00:00 AM";"11:00 - 11:59";"06063";"Leidseplein";"4.88064547";"52.36476406";"18"
"1/4/2021 12:00:00 AM";"11:00 - 11:59";"06067";"Leidseplein";"4.88301434";"52.36431580";"11"
"1/4/2021 12:00:00 AM";"11:00 - 11:59";"06072";"Prinsengracht";"4.88428435";"52.36495933";"15"
"1/4/2021 12:00:00 AM";"11:00 - 11:59";"06076";"Koningsplein";"4.88857910";"52.36689188";"10"
"1/4/2021 12:00:00 AM";"11:00 - 11:59";"06089";"Leidseplein";"4.88085541";"52.36309324";"20"
"1/4/2021 12:00:00 AM";"11:00 - 11:59";"06115";"Postjesweg";"4.85319014";"52.36478720";"12"
"1/4/2021 12:00:00 AM";"11:00 - 11:59";"07006";"Museumplein";"4.87980116";"52.35642881";"12"
"1/4/2021 12:00:00 AM";"11:00 - 11:59";"07007";"Museumplein";"4.87950215";"52.35690388";"17"
"1/4/2021 12:00:00 AM";"11:00 - 11:59";"07015";"Roelof Hartplein";"4.88206971";"52.35314900";"11"
"1/4/2021 12:00:00 AM";"11:00 - 11:59";"07016";"Roelof Hartplein";"4.88286688";"52.35274795";"19"
"1/4/2021 12:00:00 AM";"11:00 - 11:59";"07028";"Corn. Schuytstraat";"4.87088070";"52.35604870";"12"
"1/4/2021 12:00:00 AM";"11:00 - 11:59";"07097";"Olympiaplein";"4.86582821";"52.34630180";"15"
"1/4/2021 12:00:00 AM";"11:00 - 11:59";"07098";"Olympiaplein";"4.86659057";"52.34636807";"10"
"1/4/2021 12:00:00 AM";"11:00 - 11:59";"07120";"Olympiaweg";"4.85834130";"52.34526195";"14"
"1/4/2021 12:00:00 AM";"11:00 - 11:59";"07193";"Station Zuid";"4.87334616";"52.34088808";"10"
"1/4/2021 12:00:00 AM";"11:00 - 11:59";"07269";"Station Zuid";"4.87374306";"52.34082689";"14"
"1/4/2021 12:00:00 AM";"11:00 - 11:59";"07321";"Van Baerlestraat";"4.87895796";"52.35827667";"15"
"1/4/2021 12:00:00 AM";"11:00 - 11:59";"07322";"Van Baerlestraat";"4.87971942";"52.35844171";"19"
"1/4/2021 12:00:00 AM";"11:00 - 11:59";"07323";"Rijksmuseum";"4.88355043";"52.35977029";"10"
"1/4/2021 12:00:00 AM";"11:00 - 11:59";"07391";"Kronenburg";"4.87070592";"52.31556694";"10"
"1/4/2021 12:00:00 AM";"11:00 - 11:59";"07419";"Van Boshuizenstraat";"4.86896941";"52.32487971";"16"
"1/4/2021 12:00:00 AM";"11:00 - 11:59";"07423";"Uilenstede";"4.86910951";"52.32167168";"12"
"1/4/2021 12:00:00 AM";"11:00 - 11:59";"07445";"Amstelveen Stadshart";"4.86751502";"52.30124433";"20"
"1/4/2021 12:00:00 AM";"11:00 - 11:59";"07448";"A.J. Ernststraat";"4.86887597";"52.33288743";"10"
"1/4/2021 12:00:00 AM";"11:00 - 11:59";"08054";"Weesperplein";"4.90941338";"52.36145933";"10"
"1/4/2021 12:00:00 AM";"11:00 - 11:59";"08057";"Frederiksplein";"4.90024241";"52.35971430";"23"
"1/4/2021 12:00:00 AM";"11:00 - 11:59";"08066";"Frederiksplein";"4.89751569";"52.35937050";"14"
"1/4/2021 12:00:00 AM";"11:00 - 11:59";"08073";"Vijzelgracht";"4.89227386";"52.35946554";"11"
"1/4/2021 12:00:00 AM";"11:00 - 11:59";"08080";"Spiegelgracht";"4.88691222";"52.36106979";"10"
"1/4/2021 12:00:00 AM";"11:00 - 11:59";"08094";"Wijttenbachstraat";"4.92547668";"52.35979743";"12"
"1/4/2021 12:00:00 AM";"11:00 - 11:59";"08095";"Alexanderplein";"4.91969863";"52.36341478";"13"
"1/4/2021 12:00:00 AM";"11:00 - 11:59";"08098";"1e v.Swindenstraat";"4.92386708";"52.36210997";"18"
"1/4/2021 12:00:00 AM";"11:00 - 11:59";"08113";"Javaplein";"4.93949828";"52.36395867";"11"
"1/4/2021 12:00:00 AM";"11:00 - 11:59";"08114";"Javaplein";"4.93955537";"52.36412066";"13"
"1/4/2021 12:00:00 AM";"11:00 - 11:59";"08120";"Insulindeweg";"4.94763926";"52.36469021";"11"
"1/4/2021 12:00:00 AM";"11:00 - 11:59";"08129";"Molukkenstraat";"4.93861286";"52.36150167";"11"
"1/4/2021 12:00:00 AM";"11:00 - 11:59";"08190";"Molukkenstraat";"4.93934614";"52.36157635";"17"
"1/4/2021 12:00:00 AM";"11:00 - 11:59";"08237";"Kattenburgerstraat";"4.92126795";"52.37614755";"10"
"1/4/2021 12:00:00 AM";"11:00 - 11:59";"08238";"Rietlandpark";"4.93350159";"52.37322013";"16"
"1/4/2021 12:00:00 AM";"11:00 - 11:59";"08239";"Rietlandpark";"4.93413567";"52.37296191";"10"
"1/4/2021 12:00:00 AM";"11:00 - 11:59";"08241";"Zuiderzeeweg";"4.96185517";"52.37193228";"12"
"1/4/2021 12:00:00 AM";"11:00 - 11:59";"08245";"Steigereiland";"4.98012952";"52.36313467";"16"
"1/4/2021 12:00:00 AM";"11:00 - 11:59";"08247";"Vennepluimstraat";"4.99057242";"52.35769662";"22"
"1/4/2021 12:00:00 AM";"11:00 - 11:59";"08249";"Diemerparklaan";"4.99499716";"52.35532962";"17"
"1/4/2021 12:00:00 AM";"11:00 - 11:59";"08262";"IJburg";"5.00486802";"52.35112872";"19"
"1/4/2021 12:00:00 AM";"11:00 - 11:59";"08290";"Molukkenstraat";"4.94016678";"52.36172326";"13"
"1/4/2021 12:00:00 AM";"11:00 - 11:59";"08300";"P.Oosterhuisstraat";"5.00693059";"52.35193526";"11"
"1/4/2021 12:00:00 AM";"11:00 - 11:59";"09049";"Victorieplein";"4.90570139";"52.34637186";"20"
"1/4/2021 12:00:00 AM";"11:00 - 11:59";"09051";"Victorieplein";"4.90653699";"52.34645615";"15"
"1/4/2021 12:00:00 AM";"11:00 - 11:59";"09096";"Van Woustraat";"4.90163035";"52.35495650";"10"
"1/4/2021 12:00:00 AM";"11:00 - 11:59";"09097";"Van Woustraat";"4.90084070";"52.35468363";"15"
"1/4/2021 12:00:00 AM";"11:00 - 11:59";"09111";"De Pijp";"4.89073444";"52.35272728";"29"
"1/4/2021 12:00:00 AM";"11:00 - 11:59";"09114";"De Pijp";"4.88948829";"52.35259622";"24"
"1/4/2021 12:00:00 AM";"11:00 - 11:59";"ASA";"Amstelstation";"4.91751426";"52.34647326";"127"
"1/4/2021 12:00:00 AM";"11:00 - 11:59";"ASW";"Amstelveenseweg";"4.85798324";"52.33836671";"79"
"1/4/2021 12:00:00 AM";"11:00 - 11:59";"BLW";"Bullewijk";"4.95233581";"52.30642205";"60"
"1/4/2021 12:00:00 AM";"11:00 - 11:59";"BMR";"Station Bijlmer ArenA";"4.94713474";"52.31193030";"139"
"1/4/2021 12:00:00 AM";"11:00 - 11:59";"CLL";"Station Lelylaan";"4.83426589";"52.35766291";"48"
"1/4/2021 12:00:00 AM";"11:00 - 11:59";"CS";"Centraal Station";"4.90078150";"52.37749421";"309"
"1/4/2021 12:00:00 AM";"11:00 - 11:59";"DMZ";"Station Diemen-Zuid";"4.95713273";"52.33042795";"29"
"1/4/2021 12:00:00 AM";"11:00 - 11:59";"DPP";"De Pijp";"4.89101069";"52.35296212";"144"
"1/4/2021 12:00:00 AM";"11:00 - 11:59";"DVD";"Station Duivendrecht";"4.93678429";"52.32325190";"43"
"1/4/2021 12:00:00 AM";"11:00 - 11:59";"EPP";"Europaplein";"4.89138430";"52.34185482";"69"
"1/4/2021 12:00:00 AM";"11:00 - 11:59";"GN";"Gein";"4.98952268";"52.29627089";"61"
"1/4/2021 12:00:00 AM";"11:00 - 11:59";"GPP";"Gaasperplas";"4.98468551";"52.31080575";"23"
"1/4/2021 12:00:00 AM";"11:00 - 11:59";"GZH";"Station Ganzenhoef";"4.97323379";"52.32331315";"55"
"1/4/2021 12:00:00 AM";"11:00 - 11:59";"HDS";"Heemstedestraat";"4.83421208";"52.35255760";"19"
"1/4/2021 12:00:00 AM";"11:00 - 11:59";"HLD";"Station Holendrecht";"4.96021904";"52.29780451";"131"
"1/4/2021 12:00:00 AM";"11:00 - 11:59";"HVW";"Henk Sneevlietweg";"4.83439318";"52.34626699";"53"
"1/4/2021 12:00:00 AM";"11:00 - 11:59";"ITW";"Isolatorweg";"4.85013475";"52.39523277";"16"
"1/4/2021 12:00:00 AM";"11:00 - 11:59";"JLS";"Jan v.Galenstraat";"4.83492461";"52.37196551";"50"
"1/4/2021 12:00:00 AM";"11:00 - 11:59";"KEN";"Kraaienneststation";"4.97963450";"52.31632492";"46"
"1/4/2021 12:00:00 AM";"11:00 - 11:59";"MDW";"Van der Madeweg";"4.93048657";"52.32945629";"34"
"1/4/2021 12:00:00 AM";"11:00 - 11:59";"ND";"Noord";"4.93123182";"52.40117202";"142"
"1/4/2021 12:00:00 AM";"11:00 - 11:59";"NDP";"Noorderpark";"4.91789115";"52.38855518";"68"
"1/4/2021 12:00:00 AM";"11:00 - 11:59";"NMT";"Nieuwmarkt";"4.90123885";"52.37194169";"54"
"1/4/2021 12:00:00 AM";"11:00 - 11:59";"OAS";"Overamstel";"4.91815361";"52.33179879";"13"
"1/4/2021 12:00:00 AM";"11:00 - 11:59";"PJW";"Postjesweg";"4.83385543";"52.36468044";"34"
"1/4/2021 12:00:00 AM";"11:00 - 11:59";"RAI";"Station RAI";"4.88982004";"52.33739931";"47"
"1/4/2021 12:00:00 AM";"11:00 - 11:59";"RGB";"Reigersbos";"4.97473728";"52.29566301";"63"
"1/4/2021 12:00:00 AM";"11:00 - 11:59";"RKN";"Rokin";"4.89229651";"52.36928023";"115"
"1/4/2021 12:00:00 AM";"11:00 - 11:59";"SLW";"Spaklerweg";"4.92085640";"52.33986250";"32"
"1/4/2021 12:00:00 AM";"11:00 - 11:59";"STD";"Station Sloterdijk";"4.83878389";"52.38880848";"105"
"1/4/2021 12:00:00 AM";"11:00 - 11:59";"SVT";"Strandvliet";"4.94152820";"52.31825469";"34"
"1/4/2021 12:00:00 AM";"11:00 - 11:59";"VLN";"Burg.de Vlugtlaan";"4.83809109";"52.37951196";"44"
"1/4/2021 12:00:00 AM";"11:00 - 11:59";"VPD";"Venserpolder";"4.94665009";"52.32679428";"20"
"1/4/2021 12:00:00 AM";"11:00 - 11:59";"VSW";"Verrijn Stuartweg";"4.96693669";"52.32844093";"14"
"1/4/2021 12:00:00 AM";"11:00 - 11:59";"VZG";"Vijzelgracht";"4.89072870";"52.35980061";"69"
"1/4/2021 12:00:00 AM";"11:00 - 11:59";"WBS";"Wibautstraat";"4.91202993";"52.35428867";"81"
"1/4/2021 12:00:00 AM";"11:00 - 11:59";"WLP";"Waterlooplein";"4.90298171";"52.36697862";"71"
"1/4/2021 12:00:00 AM";"11:00 - 11:59";"WPP";"Weesperplein";"4.90787469";"52.36120146";"65"
"1/4/2021 12:00:00 AM";"11:00 - 11:59";"WTC";"Station Zuid";"4.87509853";"52.33908015";"241"
"1/4/2021 12:00:00 AM";"12:00 - 12:59";"";"Overig";"";"";"2340"
"1/4/2021 12:00:00 AM";"12:00 - 12:59";"[[ Onb";"[[ Onbekend ]]";"0.00000000";"0.00000000";"290"
"1/4/2021 12:00:00 AM";"12:00 - 12:59";"00001";"Muiderpoortstation";"4.93287450";"52.36132700";"16"
"1/4/2021 12:00:00 AM";"12:00 - 12:59";"00007";"Muiderpoortstation";"4.93356602";"52.36117686";"18"
"1/4/2021 12:00:00 AM";"12:00 - 12:59";"00017";"Linnaeusstraat";"4.92573745";"52.36013099";"16"
"1/4/2021 12:00:00 AM";"12:00 - 12:59";"00020";"Beukenweg";"4.91674979";"52.35906203";"18"
"1/4/2021 12:00:00 AM";"12:00 - 12:59";"00021";"Beukenweg";"4.91721293";"52.35829991";"21"
"1/4/2021 12:00:00 AM";"12:00 - 12:59";"00029";"Oostpoort";"4.92719316";"52.35707185";"17"
"1/4/2021 12:00:00 AM";"12:00 - 12:59";"00074";"Brinkstraat";"4.94797289";"52.34285131";"24"
"1/4/2021 12:00:00 AM";"12:00 - 12:59";"00116";"Station Ganzenhoef";"4.97272915";"52.32237665";"18"
"1/4/2021 12:00:00 AM";"12:00 - 12:59";"00141";"Kraaienneststation";"4.97868390";"52.31603403";"11"
"1/4/2021 12:00:00 AM";"12:00 - 12:59";"00145";"Kikkenstein";"4.97271326";"52.31621998";"10"
"1/4/2021 12:00:00 AM";"12:00 - 12:59";"00150";"Tulastraat";"4.96535973";"52.31994189";"10"
"1/4/2021 12:00:00 AM";"12:00 - 12:59";"00152";"Florijn";"4.95859163";"52.31758973";"10"
"1/4/2021 12:00:00 AM";"12:00 - 12:59";"00197";"Annie Romeinplein";"4.97162041";"52.32173463";"31"
"1/4/2021 12:00:00 AM";"12:00 - 12:59";"00238";"Anton de Komplein";"4.95413359";"52.31603659";"36"
"1/4/2021 12:00:00 AM";"12:00 - 12:59";"00239";"Anton de Komplein";"4.95597669";"52.31652866";"22"
"1/4/2021 12:00:00 AM";"12:00 - 12:59";"00351";"Dostojevskisingel";"4.94525272";"52.32275356";"10"
"1/4/2021 12:00:00 AM";"12:00 - 12:59";"00434";"Bijlmerplein";"4.95032022";"52.31457553";"10"
"1/4/2021 12:00:00 AM";"12:00 - 12:59";"00441";"Muiderpoortstation";"4.93254137";"52.36088532";"23"
