"Datum";"UurgroepOmschrijving (van aankomst)";"AankomstHalteCode";"AankomstHalteNaam";"AankomstLat";"AankomstLon";"AantalReizen"
"12/19/2020 12:00:00 AM";"17:00 - 17:59";"";"Overig";"";"";"1"
"10/7/2021 12:00:00 AM";"15:00 - 15:59";"";"Overig";"";"";"1"
"11/29/2021 12:00:00 AM";"00:00 - 00:59";"";"Overig";"";"";"1"
"11/29/2021 12:00:00 AM";"01:00 - 01:59";"";"Overig";"";"";"15"
"11/29/2021 12:00:00 AM";"02:00 - 02:59";"";"Overig";"";"";"18"
"11/29/2021 12:00:00 AM";"02:00 - 02:59";"[[ Onb";"[[ Onbekend ]]";"0.00000000";"0.00000000";"10"
"11/29/2021 12:00:00 AM";"03:00 - 03:59";"";"Overig";"";"";"31"
"11/29/2021 12:00:00 AM";"04:00 - 04:59";"";"Overig";"";"";"39"
"11/29/2021 12:00:00 AM";"04:00 - 04:59";"[[ Onb";"[[ Onbekend ]]";"0.00000000";"0.00000000";"13"
"11/29/2021 12:00:00 AM";"04:00 - 04:59";"00562";"Station Bijlmer ArenA";"4.94736012";"52.31138289";"22"
"11/29/2021 12:00:00 AM";"04:00 - 04:59";"00566";"Station Bijlmer ArenA";"4.94709342";"52.31166052";"15"
"11/29/2021 12:00:00 AM";"04:00 - 04:59";"05100";"Centraal Station";"4.90068332";"52.37974972";"11"
"11/29/2021 12:00:00 AM";"05:00 - 05:59";"";"Overig";"";"";"211"
"11/29/2021 12:00:00 AM";"05:00 - 05:59";"[[ Onb";"[[ Onbekend ]]";"0.00000000";"0.00000000";"38"
"11/29/2021 12:00:00 AM";"05:00 - 05:59";"00562";"Station Bijlmer ArenA";"4.94736012";"52.31138289";"24"
"11/29/2021 12:00:00 AM";"05:00 - 05:59";"02365";"Station Sloterdijk";"4.83873236";"52.38822404";"12"
"11/29/2021 12:00:00 AM";"05:00 - 05:59";"04267";"Schiphol Airport/Plaza";"4.76139455";"52.30887344";"87"
"11/29/2021 12:00:00 AM";"05:00 - 05:59";"04274";"Schiphol Airport/Plaza";"4.76104997";"52.30939292";"46"
"11/29/2021 12:00:00 AM";"05:00 - 05:59";"04300";"Knooppunt Schiphol Nrd";"4.79292928";"52.32250892";"12"
"11/29/2021 12:00:00 AM";"05:00 - 05:59";"04379";"Knooppunt Schiphol Nrd";"4.79320459";"52.32276196";"46"
"11/29/2021 12:00:00 AM";"05:00 - 05:59";"05022";"Centraal Station";"4.90104337";"52.37771998";"20"
"11/29/2021 12:00:00 AM";"05:00 - 05:59";"05100";"Centraal Station";"4.90068332";"52.37974972";"17"
"11/29/2021 12:00:00 AM";"05:00 - 05:59";"CS";"Centraal Station";"4.90078150";"52.37749421";"40"
"11/29/2021 12:00:00 AM";"05:00 - 05:59";"RKN";"Rokin";"4.89229651";"52.36928023";"11"
"11/29/2021 12:00:00 AM";"06:00 - 06:59";"";"Overig";"";"";"1448"
"11/29/2021 12:00:00 AM";"06:00 - 06:59";"[[ Onb";"[[ Onbekend ]]";"0.00000000";"0.00000000";"121"
"11/29/2021 12:00:00 AM";"06:00 - 06:59";"00005";"Muiderpoortstation";"4.93280219";"52.36121887";"14"
"11/29/2021 12:00:00 AM";"06:00 - 06:59";"00023";"Beukenplein";"4.91809259";"52.35701816";"21"
"11/29/2021 12:00:00 AM";"06:00 - 06:59";"00205";"Station Holendrecht";"4.95865657";"52.29716971";"13"
"11/29/2021 12:00:00 AM";"06:00 - 06:59";"00453";"Diemen Sniep";"4.96964866";"52.33644962";"36"
"11/29/2021 12:00:00 AM";"06:00 - 06:59";"00506";"Science Park Terra";"4.95831008";"52.35434856";"15"
"11/29/2021 12:00:00 AM";"06:00 - 06:59";"00560";"Station Bijlmer ArenA";"4.94747867";"52.31125750";"12"
"11/29/2021 12:00:00 AM";"06:00 - 06:59";"00561";"Station Bijlmer ArenA";"4.94741931";"52.31132918";"41"
"11/29/2021 12:00:00 AM";"06:00 - 06:59";"00562";"Station Bijlmer ArenA";"4.94736012";"52.31138289";"37"
"11/29/2021 12:00:00 AM";"06:00 - 06:59";"01316";"Station Noord";"4.93336820";"52.40204304";"13"
"11/29/2021 12:00:00 AM";"06:00 - 06:59";"01365";"Atat?rk";"4.89794256";"52.40319625";"12"
"11/29/2021 12:00:00 AM";"06:00 - 06:59";"02010";"Koivistokade";"4.87631267";"52.39805387";"23"
"11/29/2021 12:00:00 AM";"06:00 - 06:59";"02201";"Abberdaan";"4.78087947";"52.39180671";"13"
"11/29/2021 12:00:00 AM";"06:00 - 06:59";"02311";"Seineweg";"4.81857317";"52.38632242";"39"
"11/29/2021 12:00:00 AM";"06:00 - 06:59";"02317";"Naritaweg";"4.82102069";"52.38790700";"10"
"11/29/2021 12:00:00 AM";"06:00 - 06:59";"02360";"Station Sloterdijk";"4.83827278";"52.38856344";"10"
"11/29/2021 12:00:00 AM";"06:00 - 06:59";"02361";"Station Sloterdijk";"4.83931858";"52.38833460";"38"
"11/29/2021 12:00:00 AM";"06:00 - 06:59";"02365";"Station Sloterdijk";"4.83873236";"52.38822404";"27"
"11/29/2021 12:00:00 AM";"06:00 - 06:59";"02366";"Station Sloterdijk";"4.83873347";"52.38813416";"12"
"11/29/2021 12:00:00 AM";"06:00 - 06:59";"02368";"Station Sloterdijk";"4.83877999";"52.38793665";"19"
"11/29/2021 12:00:00 AM";"06:00 - 06:59";"02378";"Station Sloterdijk";"4.83809796";"52.38844579";"22"
"11/29/2021 12:00:00 AM";"06:00 - 06:59";"03061";"Bos en Lommerplein";"4.84523530";"52.37778328";"13"
"11/29/2021 12:00:00 AM";"06:00 - 06:59";"03076";"Jan Tooropstraat";"4.83810313";"52.37142305";"10"
"11/29/2021 12:00:00 AM";"06:00 - 06:59";"03129";"Plein '40 - '45";"4.82112672";"52.38075328";"11"
"11/29/2021 12:00:00 AM";"06:00 - 06:59";"04112";"Johan Huizingalaan";"4.82742878";"52.34923618";"24"
"11/29/2021 12:00:00 AM";"06:00 - 06:59";"04195";"Station Lelylaan";"4.83460082";"52.35788018";"17"
"11/29/2021 12:00:00 AM";"06:00 - 06:59";"04196";"Station Lelylaan";"4.83382251";"52.35790351";"19"
"11/29/2021 12:00:00 AM";"06:00 - 06:59";"04267";"Schiphol Airport/Plaza";"4.76139455";"52.30887344";"34"
"11/29/2021 12:00:00 AM";"06:00 - 06:59";"04274";"Schiphol Airport/Plaza";"4.76104997";"52.30939292";"28"
"11/29/2021 12:00:00 AM";"06:00 - 06:59";"04379";"Knooppunt Schiphol Nrd";"4.79320459";"52.32276196";"28"
"11/29/2021 12:00:00 AM";"06:00 - 06:59";"05011";"Centraal Station";"4.89921803";"52.37810793";"96"
"11/29/2021 12:00:00 AM";"06:00 - 06:59";"05022";"Centraal Station";"4.90104337";"52.37771998";"77"
"11/29/2021 12:00:00 AM";"06:00 - 06:59";"05031";"Dam";"4.89348394";"52.37341055";"17"
"11/29/2021 12:00:00 AM";"06:00 - 06:59";"05066";"Dam";"4.89027056";"52.37318140";"40"
"11/29/2021 12:00:00 AM";"06:00 - 06:59";"05069";"Nieuwezijds Kolk";"4.89373093";"52.37628765";"14"
"11/29/2021 12:00:00 AM";"06:00 - 06:59";"05074";"Westermarkt";"4.88354950";"52.37407874";"15"
"11/29/2021 12:00:00 AM";"06:00 - 06:59";"05097";"Centraal Station";"4.90087651";"52.37954379";"42"
"11/29/2021 12:00:00 AM";"06:00 - 06:59";"05101";"Centraal Station";"4.90105195";"52.37961641";"18"
"11/29/2021 12:00:00 AM";"06:00 - 06:59";"05103";"Centraal Station";"4.90127481";"52.37938365";"24"
"11/29/2021 12:00:00 AM";"06:00 - 06:59";"05107";"Centraal Station";"4.90195282";"52.37916174";"16"
"11/29/2021 12:00:00 AM";"06:00 - 06:59";"06027";"Elandsgracht";"4.87855189";"52.36808953";"18"
"11/29/2021 12:00:00 AM";"06:00 - 06:59";"06029";"Elandsgracht";"4.87684368";"52.36852258";"10"
"11/29/2021 12:00:00 AM";"06:00 - 06:59";"06061";"Leidseplein";"4.88339576";"52.36305015";"15"
"11/29/2021 12:00:00 AM";"06:00 - 06:59";"06063";"Leidseplein";"4.88064547";"52.36476406";"27"
"11/29/2021 12:00:00 AM";"06:00 - 06:59";"06089";"Leidseplein";"4.88085541";"52.36309324";"23"
"11/29/2021 12:00:00 AM";"06:00 - 06:59";"07001";"Concertgebouw";"4.87950215";"52.35690388";"17"
"11/29/2021 12:00:00 AM";"06:00 - 06:59";"07014";"Kastelenstraat";"4.87944660";"52.32583291";"10"
"11/29/2021 12:00:00 AM";"06:00 - 06:59";"07193";"Station Zuid";"4.87334616";"52.34088808";"13"
"11/29/2021 12:00:00 AM";"06:00 - 06:59";"07269";"Station Zuid";"4.87374306";"52.34082689";"14"
"11/29/2021 12:00:00 AM";"06:00 - 06:59";"07294";"Station Zuid";"4.87327467";"52.34072599";"13"
"11/29/2021 12:00:00 AM";"06:00 - 06:59";"07303";"VU medisch centrum";"4.86097062";"52.33515342";"14"
"11/29/2021 12:00:00 AM";"06:00 - 06:59";"07453";"Ouderkerkerlaan";"4.86721192";"52.29582332";"14"
"11/29/2021 12:00:00 AM";"06:00 - 06:59";"08054";"Weesperplein";"4.90941338";"52.36145933";"17"
"11/29/2021 12:00:00 AM";"06:00 - 06:59";"08057";"Frederiksplein";"4.90024241";"52.35971430";"16"
"11/29/2021 12:00:00 AM";"06:00 - 06:59";"08072";"Vijzelgracht";"4.89159781";"52.35953462";"12"
"11/29/2021 12:00:00 AM";"06:00 - 06:59";"08073";"Vijzelgracht";"4.89227386";"52.35946554";"12"
"11/29/2021 12:00:00 AM";"06:00 - 06:59";"08080";"Spiegelgracht";"4.88691222";"52.36106979";"15"
"11/29/2021 12:00:00 AM";"06:00 - 06:59";"08239";"Rietlandpark";"4.93413567";"52.37296191";"13"
"11/29/2021 12:00:00 AM";"06:00 - 06:59";"08259";"1e Leeghwaterstraat";"4.93004964";"52.37047459";"11"
"11/29/2021 12:00:00 AM";"06:00 - 06:59";"09016";"Amstelstation";"4.91953925";"52.34649925";"16"
"11/29/2021 12:00:00 AM";"06:00 - 06:59";"09026";"Amstelstation";"4.91874992";"52.34619953";"14"
"11/29/2021 12:00:00 AM";"06:00 - 06:59";"ASA";"Amstelstation";"4.91751426";"52.34647326";"115"
"11/29/2021 12:00:00 AM";"06:00 - 06:59";"ASW";"Amstelveenseweg";"4.85798324";"52.33836671";"116"
"11/29/2021 12:00:00 AM";"06:00 - 06:59";"BLW";"Bullewijk";"4.95233581";"52.30642205";"41"
"11/29/2021 12:00:00 AM";"06:00 - 06:59";"BMR";"Station Bijlmer ArenA";"4.94713474";"52.31193030";"172"
"11/29/2021 12:00:00 AM";"06:00 - 06:59";"CLL";"Station Lelylaan";"4.83426589";"52.35766291";"28"
"11/29/2021 12:00:00 AM";"06:00 - 06:59";"CS";"Centraal Station";"4.90078150";"52.37749421";"383"
"11/29/2021 12:00:00 AM";"06:00 - 06:59";"DMZ";"Station Diemen-Zuid";"4.95713273";"52.33042795";"19"
"11/29/2021 12:00:00 AM";"06:00 - 06:59";"DPP";"De Pijp";"4.89101069";"52.35296212";"39"
"11/29/2021 12:00:00 AM";"06:00 - 06:59";"DVD";"Station Duivendrecht";"4.93678429";"52.32325190";"64"
"11/29/2021 12:00:00 AM";"06:00 - 06:59";"EPP";"Europaplein";"4.89138430";"52.34185482";"34"
"11/29/2021 12:00:00 AM";"06:00 - 06:59";"GN";"Gein";"4.98952268";"52.29627089";"11"
"11/29/2021 12:00:00 AM";"06:00 - 06:59";"GZH";"Station Ganzenhoef";"4.97323379";"52.32331315";"12"
"11/29/2021 12:00:00 AM";"06:00 - 06:59";"HDS";"Heemstedestraat";"4.83421208";"52.35255760";"12"
"11/29/2021 12:00:00 AM";"06:00 - 06:59";"HLD";"Station Holendrecht";"4.96021904";"52.29780451";"101"
"11/29/2021 12:00:00 AM";"06:00 - 06:59";"HVW";"Henk Sneevlietweg";"4.83439318";"52.34626699";"40"
"11/29/2021 12:00:00 AM";"06:00 - 06:59";"ITW";"Isolatorweg";"4.85013475";"52.39523277";"29"
"11/29/2021 12:00:00 AM";"06:00 - 06:59";"JLS";"Jan v.Galenstraat";"4.83492461";"52.37196551";"62"
"11/29/2021 12:00:00 AM";"06:00 - 06:59";"MDW";"Van der Madeweg";"4.93048657";"52.32945629";"45"
"11/29/2021 12:00:00 AM";"06:00 - 06:59";"ND";"Noord";"4.93123182";"52.40117202";"67"
"11/29/2021 12:00:00 AM";"06:00 - 06:59";"NDP";"Noorderpark";"4.91789115";"52.38855518";"31"
"11/29/2021 12:00:00 AM";"06:00 - 06:59";"NMT";"Nieuwmarkt";"4.90123885";"52.37194169";"44"
"11/29/2021 12:00:00 AM";"06:00 - 06:59";"OAS";"Overamstel";"4.91815361";"52.33179879";"41"
"11/29/2021 12:00:00 AM";"06:00 - 06:59";"RAI";"Station RAI";"4.88982004";"52.33739931";"57"
"11/29/2021 12:00:00 AM";"06:00 - 06:59";"RKN";"Rokin";"4.89229651";"52.36928023";"148"
"11/29/2021 12:00:00 AM";"06:00 - 06:59";"SLW";"Spaklerweg";"4.92085640";"52.33986250";"38"
"11/29/2021 12:00:00 AM";"06:00 - 06:59";"STD";"Station Sloterdijk";"4.83878389";"52.38880848";"121"
"11/29/2021 12:00:00 AM";"06:00 - 06:59";"SVT";"Strandvliet";"4.94152820";"52.31825469";"10"
"11/29/2021 12:00:00 AM";"06:00 - 06:59";"VLN";"Burg.de Vlugtlaan";"4.83809109";"52.37951196";"12"
"11/29/2021 12:00:00 AM";"06:00 - 06:59";"VSW";"Verrijn Stuartweg";"4.96693669";"52.32844093";"18"
"11/29/2021 12:00:00 AM";"06:00 - 06:59";"VZG";"Vijzelgracht";"4.89072870";"52.35980061";"56"
"11/29/2021 12:00:00 AM";"06:00 - 06:59";"WBS";"Wibautstraat";"4.91202993";"52.35428867";"76"
"11/29/2021 12:00:00 AM";"06:00 - 06:59";"WLP";"Waterlooplein";"4.90298171";"52.36697862";"84"
"11/29/2021 12:00:00 AM";"06:00 - 06:59";"WPP";"Weesperplein";"4.90787469";"52.36120146";"88"
"11/29/2021 12:00:00 AM";"06:00 - 06:59";"WTC";"Station Zuid";"4.87509853";"52.33908015";"335"
"11/29/2021 12:00:00 AM";"07:00 - 07:59";"";"Overig";"";"";"2263"
"11/29/2021 12:00:00 AM";"07:00 - 07:59";"[[ Onb";"[[ Onbekend ]]";"0.00000000";"0.00000000";"395"
"11/29/2021 12:00:00 AM";"07:00 - 07:59";"00005";"Muiderpoortstation";"4.93280219";"52.36121887";"23"
"11/29/2021 12:00:00 AM";"07:00 - 07:59";"00008";"Dapperstraat";"4.92977913";"52.36110836";"15"
"11/29/2021 12:00:00 AM";"07:00 - 07:59";"00017";"Linnaeusstraat";"4.92573745";"52.36013099";"10"
"11/29/2021 12:00:00 AM";"07:00 - 07:59";"00018";"Diemerknoop";"5.00286153";"52.33537576";"16"
"11/29/2021 12:00:00 AM";"07:00 - 07:59";"00019";"Diemerknoop";"5.00296377";"52.33543002";"18"
"11/29/2021 12:00:00 AM";"07:00 - 07:59";"00020";"Beukenweg";"4.91674979";"52.35906203";"44"
"11/29/2021 12:00:00 AM";"07:00 - 07:59";"00021";"Beukenweg";"4.91721293";"52.35829991";"32"
"11/29/2021 12:00:00 AM";"07:00 - 07:59";"00023";"Beukenplein";"4.91809259";"52.35701816";"46"
"11/29/2021 12:00:00 AM";"07:00 - 07:59";"00029";"Oostpoort";"4.92719316";"52.35707185";"23"
"11/29/2021 12:00:00 AM";"07:00 - 07:59";"00030";"Oostpoort";"4.92694026";"52.35739442";"22"
"11/29/2021 12:00:00 AM";"07:00 - 07:59";"00059";"Radioweg";"4.93945830";"52.35337100";"12"
"11/29/2021 12:00:00 AM";"07:00 - 07:59";"00070";"Kruislaan";"4.93993910";"52.34789929";"11"
"11/29/2021 12:00:00 AM";"07:00 - 07:59";"00179";"Kelbergen";"4.97179997";"52.31351146";"13"
"11/29/2021 12:00:00 AM";"07:00 - 07:59";"00205";"Station Holendrecht";"4.95865657";"52.29716971";"24"
"11/29/2021 12:00:00 AM";"07:00 - 07:59";"00238";"Anton de Komplein";"4.95413359";"52.31603659";"11"
"11/29/2021 12:00:00 AM";"07:00 - 07:59";"00432";"Diemerbrug";"4.96142958";"52.33824484";"10"
"11/29/2021 12:00:00 AM";"07:00 - 07:59";"00441";"Muiderpoortstation";"4.93254137";"52.36088532";"10"
"11/29/2021 12:00:00 AM";"07:00 - 07:59";"00453";"Diemen Sniep";"4.96964866";"52.33644962";"63"
"11/29/2021 12:00:00 AM";"07:00 - 07:59";"00505";"Arent Krijtsstraat";"4.95469645";"52.33956859";"10"
"11/29/2021 12:00:00 AM";"07:00 - 07:59";"00506";"Science Park Terra";"4.95831008";"52.35434856";"11"
"11/29/2021 12:00:00 AM";"07:00 - 07:59";"00511";"Station Duivendrecht";"4.93682938";"52.32314422";"11"
"11/29/2021 12:00:00 AM";"07:00 - 07:59";"00515";"Station Duivendrecht";"4.93669692";"52.32318866";"14"
"11/29/2021 12:00:00 AM";"07:00 - 07:59";"00518";"Foppingadreef";"4.94967889";"52.31268573";"10"
"11/29/2021 12:00:00 AM";"07:00 - 07:59";"00560";"Station Bijlmer ArenA";"4.94747867";"52.31125750";"34"
"11/29/2021 12:00:00 AM";"07:00 - 07:59";"00561";"Station Bijlmer ArenA";"4.94741931";"52.31132918";"77"
"11/29/2021 12:00:00 AM";"07:00 - 07:59";"00562";"Station Bijlmer ArenA";"4.94736012";"52.31138289";"51"
"11/29/2021 12:00:00 AM";"07:00 - 07:59";"00568";"Station Bijlmer ArenA";"4.94762664";"52.31112323";"18"
"11/29/2021 12:00:00 AM";"07:00 - 07:59";"00665";"Station Weesp";"5.04383463";"52.31145059";"17"
"11/29/2021 12:00:00 AM";"07:00 - 07:59";"00999";"Vinkenbrug";"4.97831599";"52.33370267";"15"
"11/29/2021 12:00:00 AM";"07:00 - 07:59";"01076";"Waterlandplein";"4.95247364";"52.39274059";"12"
"11/29/2021 12:00:00 AM";"07:00 - 07:59";"01111";"Rode Kruisstraat";"4.92881363";"52.39488033";"17"
"11/29/2021 12:00:00 AM";"07:00 - 07:59";"01305";"Station Noord";"4.93215715";"52.40264056";"14"
"11/29/2021 12:00:00 AM";"07:00 - 07:59";"01316";"Station Noord";"4.93336820";"52.40204304";"15"
"11/29/2021 12:00:00 AM";"07:00 - 07:59";"01352";"Oosterlengte";"4.92206974";"52.40611555";"22"
"11/29/2021 12:00:00 AM";"07:00 - 07:59";"01365";"Atat?rk";"4.89794256";"52.40319625";"21"
"11/29/2021 12:00:00 AM";"07:00 - 07:59";"01402";"Floraweg";"4.90614362";"52.39899665";"18"
"11/29/2021 12:00:00 AM";"07:00 - 07:59";"02010";"Koivistokade";"4.87631267";"52.39805387";"16"
"11/29/2021 12:00:00 AM";"07:00 - 07:59";"02064";"Kabelweg";"4.84827817";"52.39205168";"14"
"11/29/2021 12:00:00 AM";"07:00 - 07:59";"02099";"Zaanstraat";"4.86990824";"52.39287613";"14"
"11/29/2021 12:00:00 AM";"07:00 - 07:59";"02103";"Spaarndammerstraat";"4.87765867";"52.39216375";"20"
"11/29/2021 12:00:00 AM";"07:00 - 07:59";"02113";"Haarlemmerplein";"4.88371739";"52.38516129";"16"
"11/29/2021 12:00:00 AM";"07:00 - 07:59";"02114";"Haarlemmerplein";"4.88341252";"52.38484542";"39"
"11/29/2021 12:00:00 AM";"07:00 - 07:59";"02138";"Kostverlorenstraat";"4.87170885";"52.37952826";"12"
"11/29/2021 12:00:00 AM";"07:00 - 07:59";"02155";"Willem de Zwijgerlaan";"4.86360306";"52.37071170";"10"
"11/29/2021 12:00:00 AM";"07:00 - 07:59";"02157";"Adm. de Ruijterweg";"4.86009910";"52.37148707";"10"
"11/29/2021 12:00:00 AM";"07:00 - 07:59";"02158";"Adm. de Ruijterweg";"4.86096776";"52.37129320";"12"
"11/29/2021 12:00:00 AM";"07:00 - 07:59";"02168";"Haparandaweg";"4.87311908";"52.39470562";"13"
"11/29/2021 12:00:00 AM";"07:00 - 07:59";"02170";"Spaarndammerstraat";"4.87723089";"52.39231470";"15"
"11/29/2021 12:00:00 AM";"07:00 - 07:59";"02182";"Markthallen";"4.86695146";"52.37567869";"10"
"11/29/2021 12:00:00 AM";"07:00 - 07:59";"02201";"Abberdaan";"4.78087947";"52.39180671";"13"
"11/29/2021 12:00:00 AM";"07:00 - 07:59";"02222";"Jan van Galenstraat";"4.85874763";"52.37399761";"16"
"11/29/2021 12:00:00 AM";"07:00 - 07:59";"02260";"Contactweg";"4.85432952";"52.39215995";"16"
"11/29/2021 12:00:00 AM";"07:00 - 07:59";"02311";"Seineweg";"4.81857317";"52.38632242";"21"
"11/29/2021 12:00:00 AM";"07:00 - 07:59";"02330";"Maltaweg";"4.80388392";"52.40419947";"27"
"11/29/2021 12:00:00 AM";"07:00 - 07:59";"02360";"Station Sloterdijk";"4.83827278";"52.38856344";"17"
"11/29/2021 12:00:00 AM";"07:00 - 07:59";"02361";"Station Sloterdijk";"4.83931858";"52.38833460";"77"
"11/29/2021 12:00:00 AM";"07:00 - 07:59";"02365";"Station Sloterdijk";"4.83873236";"52.38822404";"27"
"11/29/2021 12:00:00 AM";"07:00 - 07:59";"02366";"Station Sloterdijk";"4.83873347";"52.38813416";"21"
"11/29/2021 12:00:00 AM";"07:00 - 07:59";"02367";"Station Sloterdijk";"4.83876429";"52.38801747";"16"
"11/29/2021 12:00:00 AM";"07:00 - 07:59";"02368";"Station Sloterdijk";"4.83877999";"52.38793665";"18"
"11/29/2021 12:00:00 AM";"07:00 - 07:59";"02378";"Station Sloterdijk";"4.83809796";"52.38844579";"45"
"11/29/2021 12:00:00 AM";"07:00 - 07:59";"03034";"Erasmusgracht";"4.84691117";"52.37644278";"10"
"11/29/2021 12:00:00 AM";"07:00 - 07:59";"03055";"Burg. Fockstraat";"4.83108040";"52.37991964";"11"
"11/29/2021 12:00:00 AM";"07:00 - 07:59";"03060";"Bos en Lommerplein";"4.84718407";"52.37815169";"14"
"11/29/2021 12:00:00 AM";"07:00 - 07:59";"03061";"Bos en Lommerplein";"4.84523530";"52.37778328";"25"
"11/29/2021 12:00:00 AM";"07:00 - 07:59";"03076";"Jan Tooropstraat";"4.83810313";"52.37142305";"34"
"11/29/2021 12:00:00 AM";"07:00 - 07:59";"03087";"Plein '40 - '45";"4.82063128";"52.38159575";"24"
"11/29/2021 12:00:00 AM";"07:00 - 07:59";"03129";"Plein '40 - '45";"4.82112672";"52.38075328";"13"
"11/29/2021 12:00:00 AM";"07:00 - 07:59";"03135";"Ookmeerweg";"4.80431836";"52.36558127";"22"
"11/29/2021 12:00:00 AM";"07:00 - 07:59";"03145";"J. Cabeliaustraat";"4.80409638";"52.38246819";"29"
"11/29/2021 12:00:00 AM";"07:00 - 07:59";"03150";"Mercatorplein";"4.85011339";"52.37031872";"10"
"11/29/2021 12:00:00 AM";"07:00 - 07:59";"03157";"Lambertus Zijlplein";"4.80338637";"52.37726977";"10"
"11/29/2021 12:00:00 AM";"07:00 - 07:59";"03167";"Bos en Lommerplein";"4.84650668";"52.37709704";"23"
"11/29/2021 12:00:00 AM";"07:00 - 07:59";"03181";"Jan Voermanstraat";"4.83788946";"52.36970540";"12"
"11/29/2021 12:00:00 AM";"07:00 - 07:59";"04008";"Dijkgraafplein";"4.78646982";"52.35545267";"10"
"11/29/2021 12:00:00 AM";"07:00 - 07:59";"04009";"Dijkgraafplein";"4.78689401";"52.35556268";"11"
"11/29/2021 12:00:00 AM";"07:00 - 07:59";"04024";"Baden Powellweg";"4.78782801";"52.36248802";"12"
"11/29/2021 12:00:00 AM";"07:00 - 07:59";"04050";"Meer en Vaart";"4.80994403";"52.35636940";"16"
"11/29/2021 12:00:00 AM";"07:00 - 07:59";"04060";"Derkinderenstraat";"4.83972293";"52.35796689";"12"
"11/29/2021 12:00:00 AM";"07:00 - 07:59";"04061";"Derkinderenstraat";"4.84014895";"52.35794190";"18"
"11/29/2021 12:00:00 AM";"07:00 - 07:59";"04062";"Johan Huizingalaan";"4.82582327";"52.35781191";"11"
"11/29/2021 12:00:00 AM";"07:00 - 07:59";"04063";"Johan Huizingalaan";"4.82626398";"52.35778704";"10"
"11/29/2021 12:00:00 AM";"07:00 - 07:59";"04065";"Osdorpplein Oost";"4.80773259";"52.35935153";"10"
"11/29/2021 12:00:00 AM";"07:00 - 07:59";"04088";"Louwesweg";"4.82436420";"52.34669608";"14"
"11/29/2021 12:00:00 AM";"07:00 - 07:59";"04112";"Johan Huizingalaan";"4.82742878";"52.34923618";"39"
"11/29/2021 12:00:00 AM";"07:00 - 07:59";"04195";"Station Lelylaan";"4.83460082";"52.35788018";"57"
"11/29/2021 12:00:00 AM";"07:00 - 07:59";"04196";"Station Lelylaan";"4.83382251";"52.35790351";"79"
"11/29/2021 12:00:00 AM";"07:00 - 07:59";"04274";"Schiphol Airport/Plaza";"4.76104997";"52.30939292";"23"
"11/29/2021 12:00:00 AM";"07:00 - 07:59";"04379";"Knooppunt Schiphol Nrd";"4.79320459";"52.32276196";"52"
"11/29/2021 12:00:00 AM";"07:00 - 07:59";"04402";"Matterhorn";"4.77477998";"52.35372103";"20"
"11/29/2021 12:00:00 AM";"07:00 - 07:59";"04407";"Ecuplein";"4.78817670";"52.34970912";"12"
"11/29/2021 12:00:00 AM";"07:00 - 07:59";"04409";"Baden Powellweg";"4.79441281";"52.35092691";"14"
"11/29/2021 12:00:00 AM";"07:00 - 07:59";"04413";"Louis Davidsstraat";"4.80850916";"52.35383682";"12"
"11/29/2021 12:00:00 AM";"07:00 - 07:59";"05011";"Centraal Station";"4.89921803";"52.37810793";"176"
"11/29/2021 12:00:00 AM";"07:00 - 07:59";"05022";"Centraal Station";"4.90104337";"52.37771998";"151"
"11/29/2021 12:00:00 AM";"07:00 - 07:59";"05031";"Dam";"4.89348394";"52.37341055";"12"
"11/29/2021 12:00:00 AM";"07:00 - 07:59";"05032";"Dam";"4.89549360";"52.37492885";"10"
"11/29/2021 12:00:00 AM";"07:00 - 07:59";"05036";"Rokin";"4.89230478";"52.36985548";"11"
"11/29/2021 12:00:00 AM";"07:00 - 07:59";"05047";"Rembrandtplein";"4.89702882";"52.36623511";"13"
"11/29/2021 12:00:00 AM";"07:00 - 07:59";"05060";"Koningsplein";"4.88894752";"52.36807981";"19"
"11/29/2021 12:00:00 AM";"07:00 - 07:59";"05064";"Koningsplein";"4.88949610";"52.36760577";"30"
"11/29/2021 12:00:00 AM";"07:00 - 07:59";"05065";"Dam";"4.89079364";"52.37367792";"43"
"11/29/2021 12:00:00 AM";"07:00 - 07:59";"05066";"Dam";"4.89027056";"52.37318140";"49"
"11/29/2021 12:00:00 AM";"07:00 - 07:59";"05067";"Dam";"4.89118479";"52.37415591";"11"
"11/29/2021 12:00:00 AM";"07:00 - 07:59";"05069";"Nieuwezijds Kolk";"4.89373093";"52.37628765";"26"
"11/29/2021 12:00:00 AM";"07:00 - 07:59";"05073";"Westermarkt";"4.88453426";"52.37400204";"22"
"11/29/2021 12:00:00 AM";"07:00 - 07:59";"05074";"Westermarkt";"4.88354950";"52.37407874";"28"
"11/29/2021 12:00:00 AM";"07:00 - 07:59";"05077";"Marnixstraat";"4.87615428";"52.37228546";"18"
"11/29/2021 12:00:00 AM";"07:00 - 07:59";"05080";"Buiten Oranjestraat";"4.88782167";"52.38330923";"17"
"11/29/2021 12:00:00 AM";"07:00 - 07:59";"05090";"Westerdoksdijk";"4.89331977";"52.38551629";"15"
"11/29/2021 12:00:00 AM";"07:00 - 07:59";"05092";"Barentszplein";"4.89160204";"52.38938281";"11"
"11/29/2021 12:00:00 AM";"07:00 - 07:59";"05097";"Centraal Station";"4.90087651";"52.37954379";"72"
"11/29/2021 12:00:00 AM";"07:00 - 07:59";"05101";"Centraal Station";"4.90105195";"52.37961641";"35"
"11/29/2021 12:00:00 AM";"07:00 - 07:59";"05103";"Centraal Station";"4.90127481";"52.37938365";"64"
"11/29/2021 12:00:00 AM";"07:00 - 07:59";"05104";"Centraal Station";"4.90164343";"52.37925034";"33"
"11/29/2021 12:00:00 AM";"07:00 - 07:59";"05106";"Centraal Station";"4.90229030";"52.37919008";"17"
"11/29/2021 12:00:00 AM";"07:00 - 07:59";"05107";"Centraal Station";"4.90195282";"52.37916174";"12"
"11/29/2021 12:00:00 AM";"07:00 - 07:59";"06001";"Surinameplein";"4.85252231";"52.35807034";"20"
"11/29/2021 12:00:00 AM";"07:00 - 07:59";"06002";"Surinameplein";"4.85090753";"52.35807202";"12"
"11/29/2021 12:00:00 AM";"07:00 - 07:59";"06015";"Postjesweg";"4.85316124";"52.36352879";"10"
"11/29/2021 12:00:00 AM";"07:00 - 07:59";"06019";"Ten Katestraat";"4.86737423";"52.36591988";"14"
"11/29/2021 12:00:00 AM";"07:00 - 07:59";"06020";"Ten Katestraat";"4.86773990";"52.36603832";"21"
"11/29/2021 12:00:00 AM";"07:00 - 07:59";"06021";"Bilderdijkstraat";"4.87176488";"52.36712545";"19"
"11/29/2021 12:00:00 AM";"07:00 - 07:59";"06023";"Bilderdijkstraat";"4.87254032";"52.36736251";"10"
"11/29/2021 12:00:00 AM";"07:00 - 07:59";"06027";"Elandsgracht";"4.87855189";"52.36808953";"14"
"11/29/2021 12:00:00 AM";"07:00 - 07:59";"06028";"Elandsgracht";"4.87741694";"52.36974738";"19"
"11/29/2021 12:00:00 AM";"07:00 - 07:59";"06029";"Elandsgracht";"4.87684368";"52.36852258";"38"
"11/29/2021 12:00:00 AM";"07:00 - 07:59";"06030";"Rozengracht";"4.87590932";"52.37187996";"10"
"11/29/2021 12:00:00 AM";"07:00 - 07:59";"06034";"Bilderdijkstraat";"4.87082347";"52.37105798";"14"
"11/29/2021 12:00:00 AM";"07:00 - 07:59";"06037";"Bilderdijkstraat";"4.86985701";"52.37082906";"21"
"11/29/2021 12:00:00 AM";"07:00 - 07:59";"06045";"1e Con. Huygensstraat";"4.87399228";"52.36242556";"16"
"11/29/2021 12:00:00 AM";"07:00 - 07:59";"06046";"1e Con. Huygensstraat";"4.87487082";"52.36262709";"14"
"11/29/2021 12:00:00 AM";"07:00 - 07:59";"06048";"J.P. Heijestraat";"4.86585368";"52.36037674";"17"
"11/29/2021 12:00:00 AM";"07:00 - 07:59";"06061";"Leidseplein";"4.88339576";"52.36305015";"18"
"11/29/2021 12:00:00 AM";"07:00 - 07:59";"06063";"Leidseplein";"4.88064547";"52.36476406";"31"
"11/29/2021 12:00:00 AM";"07:00 - 07:59";"06074";"Keizersgracht";"4.88624128";"52.36588437";"12"
"11/29/2021 12:00:00 AM";"07:00 - 07:59";"06081";"Rhijnvis Feithstraat";"4.86039355";"52.35905833";"10"
"11/29/2021 12:00:00 AM";"07:00 - 07:59";"06089";"Leidseplein";"4.88085541";"52.36309324";"44"
"11/29/2021 12:00:00 AM";"07:00 - 07:59";"06114";"Hoofdweg";"4.85444451";"52.36425359";"10"
"11/29/2021 12:00:00 AM";"07:00 - 07:59";"07000";"Concertgebouw";"4.87980116";"52.35642881";"16"
"11/29/2021 12:00:00 AM";"07:00 - 07:59";"07001";"Concertgebouw";"4.87950215";"52.35690388";"46"
"11/29/2021 12:00:00 AM";"07:00 - 07:59";"07015";"Roelof Hartplein";"4.88206971";"52.35314900";"10"
"11/29/2021 12:00:00 AM";"07:00 - 07:59";"07016";"Roelof Hartplein";"4.88286688";"52.35274795";"17"
"11/29/2021 12:00:00 AM";"07:00 - 07:59";"07021";"Kastelenstraat";"4.87955984";"52.32619291";"10"
"11/29/2021 12:00:00 AM";"07:00 - 07:59";"07028";"Corn. Schuytstraat";"4.87088070";"52.35604870";"10"
"11/29/2021 12:00:00 AM";"07:00 - 07:59";"07031";"Valeriusplein";"4.86374943";"52.35333004";"20"
"11/29/2021 12:00:00 AM";"07:00 - 07:59";"07049";"Hoofddorpplein";"4.84958188";"52.35117239";"20"
"11/29/2021 12:00:00 AM";"07:00 - 07:59";"07050";"Haarlemmermeerstation";"4.85744749";"52.34883508";"29"
"11/29/2021 12:00:00 AM";"07:00 - 07:59";"07083";"Gerrit v.d. Veenstraat";"4.87735929";"52.34921014";"11"
"11/29/2021 12:00:00 AM";"07:00 - 07:59";"07084";"Gerrit v.d. Veenstraat";"4.87720177";"52.34886793";"17"
"11/29/2021 12:00:00 AM";"07:00 - 07:59";"07097";"Olympiaplein";"4.86582821";"52.34630180";"11"
"11/29/2021 12:00:00 AM";"07:00 - 07:59";"07116";"Haarlemmermeerstation";"4.85760410";"52.34924023";"12"
"11/29/2021 12:00:00 AM";"07:00 - 07:59";"07190";"Station Zuid";"4.87352214";"52.34089784";"18"
"11/29/2021 12:00:00 AM";"07:00 - 07:59";"07193";"Station Zuid";"4.87334616";"52.34088808";"38"
"11/29/2021 12:00:00 AM";"07:00 - 07:59";"07268";"Station Zuid";"4.87428608";"52.34082026";"19"
"11/29/2021 12:00:00 AM";"07:00 - 07:59";"07269";"Station Zuid";"4.87374306";"52.34082689";"35"
"11/29/2021 12:00:00 AM";"07:00 - 07:59";"07270";"Parnassusweg";"4.86874218";"52.33806382";"36"
"11/29/2021 12:00:00 AM";"07:00 - 07:59";"07294";"Station Zuid";"4.87327467";"52.34072599";"33"
"11/29/2021 12:00:00 AM";"07:00 - 07:59";"07303";"VU medisch centrum";"4.86097062";"52.33515342";"50"
"11/29/2021 12:00:00 AM";"07:00 - 07:59";"07325";"Museumplein";"4.88046549";"52.35866960";"23"
"11/29/2021 12:00:00 AM";"07:00 - 07:59";"07326";"Museumplein";"4.88178292";"52.35899880";"10"
"11/29/2021 12:00:00 AM";"07:00 - 07:59";"07339";"Nieuw Herlaer";"4.88985946";"52.32602094";"26"
"11/29/2021 12:00:00 AM";"07:00 - 07:59";"07350";"VU medisch centrum";"4.86006046";"52.33519431";"11"
"11/29/2021 12:00:00 AM";"07:00 - 07:59";"07391";"Kronenburg";"4.87070592";"52.31556694";"15"
"11/29/2021 12:00:00 AM";"07:00 - 07:59";"07418";"Van Boshuizenstraat";"4.86902148";"52.32544617";"18"
"11/29/2021 12:00:00 AM";"07:00 - 07:59";"07419";"Van Boshuizenstraat";"4.86896941";"52.32487971";"26"
"11/29/2021 12:00:00 AM";"07:00 - 07:59";"07439";"Oranjebaan";"4.87179001";"52.30302465";"14"
"11/29/2021 12:00:00 AM";"07:00 - 07:59";"07445";"Amstelveen Stadshart";"4.86751502";"52.30124433";"11"
"11/29/2021 12:00:00 AM";"07:00 - 07:59";"07448";"A.J. Ernststraat";"4.86887597";"52.33288743";"12"
"11/29/2021 12:00:00 AM";"07:00 - 07:59";"07449";"A.J. Ernststraat";"4.86879476";"52.33230287";"19"
"11/29/2021 12:00:00 AM";"07:00 - 07:59";"07453";"Ouderkerkerlaan";"4.86721192";"52.29582332";"16"
"11/29/2021 12:00:00 AM";"07:00 - 07:59";"07457";"Sportlaan";"4.86336804";"52.28987436";"24"
"11/29/2021 12:00:00 AM";"07:00 - 07:59";"07473";"Meent";"4.85693861";"52.28084883";"12"
"11/29/2021 12:00:00 AM";"07:00 - 07:59";"07481";"Poortwachter";"4.84496524";"52.28332911";"11"
"11/29/2021 12:00:00 AM";"07:00 - 07:59";"07482";"Sacharovlaan";"4.83228912";"52.28211984";"21"
"11/29/2021 12:00:00 AM";"07:00 - 07:59";"08007";"Bob Haarmslaan";"4.96921237";"52.36876786";"12"
"11/29/2021 12:00:00 AM";"07:00 - 07:59";"08027";"Kadijksplein";"4.91357159";"52.37075136";"11"
"11/29/2021 12:00:00 AM";"07:00 - 07:59";"08051";"K. 's-Gravesandestr.";"4.91366120";"52.36235720";"10"
"11/29/2021 12:00:00 AM";"07:00 - 07:59";"08053";"Weesperplein";"4.90655690";"52.36088154";"11"
"11/29/2021 12:00:00 AM";"07:00 - 07:59";"08054";"Weesperplein";"4.90941338";"52.36145933";"34"
"11/29/2021 12:00:00 AM";"07:00 - 07:59";"08057";"Frederiksplein";"4.90024241";"52.35971430";"21"
"11/29/2021 12:00:00 AM";"07:00 - 07:59";"08058";"Veelaan";"4.93961588";"52.36830916";"10"
"11/29/2021 12:00:00 AM";"07:00 - 07:59";"08059";"Veelaan";"4.93944523";"52.36776026";"14"
"11/29/2021 12:00:00 AM";"07:00 - 07:59";"08066";"Frederiksplein";"4.89751569";"52.35937050";"19"
"11/29/2021 12:00:00 AM";"07:00 - 07:59";"08071";"Muntplein";"4.89312361";"52.36620989";"12"
"11/29/2021 12:00:00 AM";"07:00 - 07:59";"08072";"Vijzelgracht";"4.89159781";"52.35953462";"19"
"11/29/2021 12:00:00 AM";"07:00 - 07:59";"08073";"Vijzelgracht";"4.89227386";"52.35946554";"14"
"11/29/2021 12:00:00 AM";"07:00 - 07:59";"08080";"Spiegelgracht";"4.88691222";"52.36106979";"20"
"11/29/2021 12:00:00 AM";"07:00 - 07:59";"08113";"Javaplein";"4.93949828";"52.36395867";"10"
"11/29/2021 12:00:00 AM";"07:00 - 07:59";"08119";"Insulindeweg";"4.94765323";"52.36476217";"11"
"11/29/2021 12:00:00 AM";"07:00 - 07:59";"08120";"Insulindeweg";"4.94763926";"52.36469021";"22"
"11/29/2021 12:00:00 AM";"07:00 - 07:59";"08129";"Molukkenstraat";"4.93861286";"52.36150167";"16"
"11/29/2021 12:00:00 AM";"07:00 - 07:59";"08139";"Zuiderzeeweg";"4.96240105";"52.37166461";"20"
"11/29/2021 12:00:00 AM";"07:00 - 07:59";"08195";"Oostenburgergracht";"4.92452709";"52.36780177";"16"
"11/29/2021 12:00:00 AM";"07:00 - 07:59";"08235";"Muziekgeb. Bimhuis";"4.91290020";"52.37723779";"11"
"11/29/2021 12:00:00 AM";"07:00 - 07:59";"08237";"Kattenburgerstraat";"4.92126795";"52.37614755";"13"
"11/29/2021 12:00:00 AM";"07:00 - 07:59";"08239";"Rietlandpark";"4.93413567";"52.37296191";"30"
"11/29/2021 12:00:00 AM";"07:00 - 07:59";"08241";"Zuiderzeeweg";"4.96185517";"52.37193228";"14"
"11/29/2021 12:00:00 AM";"07:00 - 07:59";"08245";"Steigereiland";"4.98012952";"52.36313467";"20"
"11/29/2021 12:00:00 AM";"07:00 - 07:59";"08247";"Vennepluimstraat";"4.99057242";"52.35769662";"10"
"11/29/2021 12:00:00 AM";"07:00 - 07:59";"08249";"Diemerparklaan";"4.99499716";"52.35532962";"17"
"11/29/2021 12:00:00 AM";"07:00 - 07:59";"08259";"1e Leeghwaterstraat";"4.93004964";"52.37047459";"13"
"11/29/2021 12:00:00 AM";"07:00 - 07:59";"08262";"IJburg";"5.00486802";"52.35112872";"27"
"11/29/2021 12:00:00 AM";"07:00 - 07:59";"08300";"P.Oosterhuisstraat";"5.00693059";"52.35193526";"17"
"11/29/2021 12:00:00 AM";"07:00 - 07:59";"09013";"Amstelstation";"4.91790223";"52.34725673";"14"
"11/29/2021 12:00:00 AM";"07:00 - 07:59";"09015";"Amstelstation";"4.91940405";"52.34679531";"14"
"11/29/2021 12:00:00 AM";"07:00 - 07:59";"09016";"Amstelstation";"4.91953925";"52.34649925";"10"
"11/29/2021 12:00:00 AM";"07:00 - 07:59";"09023";"Camperstraat";"4.91383551";"52.35840330";"18"
"11/29/2021 12:00:00 AM";"07:00 - 07:59";"09026";"Amstelstation";"4.91874992";"52.34619953";"13"
"11/29/2021 12:00:00 AM";"07:00 - 07:59";"09091";"Lutmastraat";"4.90313216";"52.35184391";"10"
"11/29/2021 12:00:00 AM";"07:00 - 07:59";"09111";"De Pijp";"4.89073444";"52.35272728";"11"
"11/29/2021 12:00:00 AM";"07:00 - 07:59";"09114";"De Pijp";"4.88948829";"52.35259622";"10"
"11/29/2021 12:00:00 AM";"07:00 - 07:59";"09176";"James Wattstraat";"4.92329155";"52.35116068";"12"
"11/29/2021 12:00:00 AM";"07:00 - 07:59";"ASA";"Amstelstation";"4.91751426";"52.34647326";"267"
"11/29/2021 12:00:00 AM";"07:00 - 07:59";"ASW";"Amstelveenseweg";"4.85798324";"52.33836671";"347"
"11/29/2021 12:00:00 AM";"07:00 - 07:59";"BLW";"Bullewijk";"4.95233581";"52.30642205";"84"
"11/29/2021 12:00:00 AM";"07:00 - 07:59";"BMR";"Station Bijlmer ArenA";"4.94713474";"52.31193030";"357"
"11/29/2021 12:00:00 AM";"07:00 - 07:59";"CLL";"Station Lelylaan";"4.83426589";"52.35766291";"110"
"11/29/2021 12:00:00 AM";"07:00 - 07:59";"CS";"Centraal Station";"4.90078150";"52.37749421";"694"
"11/29/2021 12:00:00 AM";"07:00 - 07:59";"DMZ";"Station Diemen-Zuid";"4.95713273";"52.33042795";"47"
"11/29/2021 12:00:00 AM";"07:00 - 07:59";"DPP";"De Pijp";"4.89101069";"52.35296212";"132"
"11/29/2021 12:00:00 AM";"07:00 - 07:59";"DVD";"Station Duivendrecht";"4.93678429";"52.32325190";"98"
"11/29/2021 12:00:00 AM";"07:00 - 07:59";"EPP";"Europaplein";"4.89138430";"52.34185482";"111"
"11/29/2021 12:00:00 AM";"07:00 - 07:59";"GN";"Gein";"4.98952268";"52.29627089";"49"
"11/29/2021 12:00:00 AM";"07:00 - 07:59";"GZH";"Station Ganzenhoef";"4.97323379";"52.32331315";"28"
"11/29/2021 12:00:00 AM";"07:00 - 07:59";"HDS";"Heemstedestraat";"4.83421208";"52.35255760";"97"
"11/29/2021 12:00:00 AM";"07:00 - 07:59";"HLD";"Station Holendrecht";"4.96021904";"52.29780451";"396"
"11/29/2021 12:00:00 AM";"07:00 - 07:59";"HVW";"Henk Sneevlietweg";"4.83439318";"52.34626699";"195"
"11/29/2021 12:00:00 AM";"07:00 - 07:59";"ITW";"Isolatorweg";"4.85013475";"52.39523277";"62"
"11/29/2021 12:00:00 AM";"07:00 - 07:59";"JLS";"Jan v.Galenstraat";"4.83492461";"52.37196551";"220"
"11/29/2021 12:00:00 AM";"07:00 - 07:59";"KEN";"Kraaienneststation";"4.97963450";"52.31632492";"21"
"11/29/2021 12:00:00 AM";"07:00 - 07:59";"MDW";"Van der Madeweg";"4.93048657";"52.32945629";"73"
"11/29/2021 12:00:00 AM";"07:00 - 07:59";"ND";"Noord";"4.93123182";"52.40117202";"144"
"11/29/2021 12:00:00 AM";"07:00 - 07:59";"NDP";"Noorderpark";"4.91789115";"52.38855518";"97"
"11/29/2021 12:00:00 AM";"07:00 - 07:59";"NMT";"Nieuwmarkt";"4.90123885";"52.37194169";"69"
"11/29/2021 12:00:00 AM";"07:00 - 07:59";"OAS";"Overamstel";"4.91815361";"52.33179879";"69"
"11/29/2021 12:00:00 AM";"07:00 - 07:59";"PJW";"Postjesweg";"4.83385543";"52.36468044";"52"
"11/29/2021 12:00:00 AM";"07:00 - 07:59";"RAI";"Station RAI";"4.88982004";"52.33739931";"165"
"11/29/2021 12:00:00 AM";"07:00 - 07:59";"RGB";"Reigersbos";"4.97473728";"52.29566301";"66"
"11/29/2021 12:00:00 AM";"07:00 - 07:59";"RKN";"Rokin";"4.89229651";"52.36928023";"221"
"11/29/2021 12:00:00 AM";"07:00 - 07:59";"SLW";"Spaklerweg";"4.92085640";"52.33986250";"95"
"11/29/2021 12:00:00 AM";"07:00 - 07:59";"STD";"Station Sloterdijk";"4.83878389";"52.38880848";"282"
"11/29/2021 12:00:00 AM";"07:00 - 07:59";"SVT";"Strandvliet";"4.94152820";"52.31825469";"55"
"11/29/2021 12:00:00 AM";"07:00 - 07:59";"VLN";"Burg.de Vlugtlaan";"4.83809109";"52.37951196";"51"
"11/29/2021 12:00:00 AM";"07:00 - 07:59";"VPD";"Venserpolder";"4.94665009";"52.32679428";"26"
"11/29/2021 12:00:00 AM";"07:00 - 07:59";"VSW";"Verrijn Stuartweg";"4.96693669";"52.32844093";"33"
"11/29/2021 12:00:00 AM";"07:00 - 07:59";"VZG";"Vijzelgracht";"4.89072870";"52.35980061";"119"
"11/29/2021 12:00:00 AM";"07:00 - 07:59";"WBS";"Wibautstraat";"4.91202993";"52.35428867";"251"
"11/29/2021 12:00:00 AM";"07:00 - 07:59";"WLP";"Waterlooplein";"4.90298171";"52.36697862";"152"
"11/29/2021 12:00:00 AM";"07:00 - 07:59";"WPP";"Weesperplein";"4.90787469";"52.36120146";"249"
"11/29/2021 12:00:00 AM";"07:00 - 07:59";"WTC";"Station Zuid";"4.87509853";"52.33908015";"607"
"11/29/2021 12:00:00 AM";"08:00 - 08:59";"";"Overig";"";"";"2147"
"11/29/2021 12:00:00 AM";"08:00 - 08:59";"[[ Onb";"[[ Onbekend ]]";"0.00000000";"0.00000000";"732"
"11/29/2021 12:00:00 AM";"08:00 - 08:59";"00001";"Muiderpoortstation";"4.93287450";"52.36132700";"15"
"11/29/2021 12:00:00 AM";"08:00 - 08:59";"00005";"Muiderpoortstation";"4.93280219";"52.36121887";"74"
"11/29/2021 12:00:00 AM";"08:00 - 08:59";"00006";"Muiderpoortstation";"4.93368466";"52.36106048";"41"
"11/29/2021 12:00:00 AM";"08:00 - 08:59";"00007";"Muiderpoortstation";"4.93356602";"52.36117686";"26"
"11/29/2021 12:00:00 AM";"08:00 - 08:59";"00008";"Dapperstraat";"4.92977913";"52.36110836";"51"
"11/29/2021 12:00:00 AM";"08:00 - 08:59";"00010";"Dapperstraat";"4.92891486";"52.36092527";"17"
"11/29/2021 12:00:00 AM";"08:00 - 08:59";"00014";"Wijttenbachstraat";"4.92507537";"52.36027221";"13"
"11/29/2021 12:00:00 AM";"08:00 - 08:59";"00017";"Linnaeusstraat";"4.92573745";"52.36013099";"26"
"11/29/2021 12:00:00 AM";"08:00 - 08:59";"00018";"Diemerknoop";"5.00286153";"52.33537576";"19"
"11/29/2021 12:00:00 AM";"08:00 - 08:59";"00019";"Diemerknoop";"5.00296377";"52.33543002";"13"
"11/29/2021 12:00:00 AM";"08:00 - 08:59";"00020";"Beukenweg";"4.91674979";"52.35906203";"63"
"11/29/2021 12:00:00 AM";"08:00 - 08:59";"00021";"Beukenweg";"4.91721293";"52.35829991";"37"
"11/29/2021 12:00:00 AM";"08:00 - 08:59";"00023";"Beukenplein";"4.91809259";"52.35701816";"50"
"11/29/2021 12:00:00 AM";"08:00 - 08:59";"00029";"Oostpoort";"4.92719316";"52.35707185";"125"
"11/29/2021 12:00:00 AM";"08:00 - 08:59";"00030";"Oostpoort";"4.92694026";"52.35739442";"80"
"11/29/2021 12:00:00 AM";"08:00 - 08:59";"00039";"Hogeweg";"4.93084015";"52.35358075";"35"
"11/29/2021 12:00:00 AM";"08:00 - 08:59";"00040";"Hogeweg";"4.93135765";"52.35321425";"10"
"11/29/2021 12:00:00 AM";"08:00 - 08:59";"00053";"Kruislaan";"4.93967974";"52.34742196";"23"
"11/29/2021 12:00:00 AM";"08:00 - 08:59";"00059";"Radioweg";"4.93945830";"52.35337100";"32"
"11/29/2021 12:00:00 AM";"08:00 - 08:59";"00060";"Radioweg";"4.93979325";"52.35363291";"25"
"11/29/2021 12:00:00 AM";"08:00 - 08:59";"00061";"Archimedesweg";"4.93965454";"52.35574450";"10"
"11/29/2021 12:00:00 AM";"08:00 - 08:59";"00065";"Hugo de Vrieslaan";"4.93487340";"52.35101676";"19"
"11/29/2021 12:00:00 AM";"08:00 - 08:59";"00070";"Kruislaan";"4.93993910";"52.34789929";"16"
"11/29/2021 12:00:00 AM";"08:00 - 08:59";"00074";"Brinkstraat";"4.94797289";"52.34285131";"10"
"11/29/2021 12:00:00 AM";"08:00 - 08:59";"00114";"Dennenrode";"4.95213839";"52.32209601";"29"
"11/29/2021 12:00:00 AM";"08:00 - 08:59";"00116";"Station Ganzenhoef";"4.97272915";"52.32237665";"24"
"11/29/2021 12:00:00 AM";"08:00 - 08:59";"00128";"Geerdinkhof";"4.98077720";"52.32287193";"15"
"11/29/2021 12:00:00 AM";"08:00 - 08:59";"00129";"Geerdinkhof";"4.98025676";"52.32364309";"13"
"11/29/2021 12:00:00 AM";"08:00 - 08:59";"00134";"Koornhorst";"4.98400929";"52.31907218";"25"
"11/29/2021 12:00:00 AM";"08:00 - 08:59";"00135";"Koornhorst";"4.98396309";"52.31931470";"16"
"11/29/2021 12:00:00 AM";"08:00 - 08:59";"00141";"Kraaienneststation";"4.97868390";"52.31603403";"27"
"11/29/2021 12:00:00 AM";"08:00 - 08:59";"00144";"Kikkenstein";"4.97237050";"52.31680298";"12"
"11/29/2021 12:00:00 AM";"08:00 - 08:59";"00145";"Kikkenstein";"4.97271326";"52.31621998";"14"
"11/29/2021 12:00:00 AM";"08:00 - 08:59";"00150";"Tulastraat";"4.96535973";"52.31994189";"101"
"11/29/2021 12:00:00 AM";"08:00 - 08:59";"00151";"Tulastraat";"4.96584458";"52.31985374";"92"
"11/29/2021 12:00:00 AM";"08:00 - 08:59";"00152";"Florijn";"4.95859163";"52.31758973";"26"
"11/29/2021 12:00:00 AM";"08:00 - 08:59";"00153";"Florijn";"4.95971907";"52.31778255";"12"
"11/29/2021 12:00:00 AM";"08:00 - 08:59";"00157";"Dolingadreef";"4.94847023";"52.31925132";"18"
"11/29/2021 12:00:00 AM";"08:00 - 08:59";"00158";"Dolingadreef";"4.94901581";"52.31895674";"33"
"11/29/2021 12:00:00 AM";"08:00 - 08:59";"00167";"Hogevecht";"4.95956435";"52.30947729";"22"
"11/29/2021 12:00:00 AM";"08:00 - 08:59";"00172";"Holendrechtplein";"4.96402882";"52.29952588";"14"
"11/29/2021 12:00:00 AM";"08:00 - 08:59";"00179";"Kelbergen";"4.97179997";"52.31351146";"16"
"11/29/2021 12:00:00 AM";"08:00 - 08:59";"00197";"Annie Romeinplein";"4.97162041";"52.32173463";"14"
"11/29/2021 12:00:00 AM";"08:00 - 08:59";"00198";"Annie Romeinplein";"4.96998049";"52.32143226";"11"
"11/29/2021 12:00:00 AM";"08:00 - 08:59";"00199";"Station Ganzenhoef";"4.97329456";"52.32308866";"13"
"11/29/2021 12:00:00 AM";"08:00 - 08:59";"00205";"Station Holendrecht";"4.95865657";"52.29716971";"32"
"11/29/2021 12:00:00 AM";"08:00 - 08:59";"00238";"Anton de Komplein";"4.95413359";"52.31603659";"46"
"11/29/2021 12:00:00 AM";"08:00 - 08:59";"00239";"Anton de Komplein";"4.95597669";"52.31652866";"33"
"11/29/2021 12:00:00 AM";"08:00 - 08:59";"00250";"Station Diemen Zuid";"4.95668889";"52.33081280";"18"
"11/29/2021 12:00:00 AM";"08:00 - 08:59";"00265";"Station Diemen";"4.96682240";"52.34516669";"10"
"11/29/2021 12:00:00 AM";"08:00 - 08:59";"00306";"Leusdenhof";"4.97837367";"52.30990330";"13"
"11/29/2021 12:00:00 AM";"08:00 - 08:59";"00331";"Station Reigersbos";"4.97350466";"52.29737537";"46"
"11/29/2021 12:00:00 AM";"08:00 - 08:59";"00341";"Woudrichemstraat";"4.98882309";"52.29418337";"21"
"11/29/2021 12:00:00 AM";"08:00 - 08:59";"00345";"Station Gein";"4.98911240";"52.29625153";"14"
"11/29/2021 12:00:00 AM";"08:00 - 08:59";"00351";"Dostojevskisingel";"4.94525272";"52.32275356";"59"
"11/29/2021 12:00:00 AM";"08:00 - 08:59";"00352";"Dostojevskisingel";"4.94457408";"52.32314649";"10"
"11/29/2021 12:00:00 AM";"08:00 - 08:59";"00432";"Diemerbrug";"4.96142958";"52.33824484";"18"
"11/29/2021 12:00:00 AM";"08:00 - 08:59";"00434";"Bijlmerplein";"4.95032022";"52.31457553";"13"
"11/29/2021 12:00:00 AM";"08:00 - 08:59";"00441";"Muiderpoortstation";"4.93254137";"52.36088532";"10"
"11/29/2021 12:00:00 AM";"08:00 - 08:59";"00444";"Linnaeusstraat";"4.92490296";"52.35991203";"52"
"11/29/2021 12:00:00 AM";"08:00 - 08:59";"00453";"Diemen Sniep";"4.96964866";"52.33644962";"24"
"11/29/2021 12:00:00 AM";"08:00 - 08:59";"00464";"Hogeschool InHolland";"4.95958754";"52.32687769";"10"
"11/29/2021 12:00:00 AM";"08:00 - 08:59";"00506";"Science Park Terra";"4.95831008";"52.35434856";"147"
"11/29/2021 12:00:00 AM";"08:00 - 08:59";"00511";"Station Duivendrecht";"4.93682938";"52.32314422";"10"
"11/29/2021 12:00:00 AM";"08:00 - 08:59";"00515";"Station Duivendrecht";"4.93669692";"52.32318866";"25"
"11/29/2021 12:00:00 AM";"08:00 - 08:59";"00518";"Foppingadreef";"4.94967889";"52.31268573";"29"
"11/29/2021 12:00:00 AM";"08:00 - 08:59";"00529";"Station Science Park";"4.94782063";"52.35230583";"10"
"11/29/2021 12:00:00 AM";"08:00 - 08:59";"00538";"Station Science Park";"4.94808393";"52.35239669";"63"
"11/29/2021 12:00:00 AM";"08:00 - 08:59";"00554";"Science Park";"4.95088162";"52.35447420";"38"
"11/29/2021 12:00:00 AM";"08:00 - 08:59";"00560";"Station Bijlmer ArenA";"4.94747867";"52.31125750";"71"
"11/29/2021 12:00:00 AM";"08:00 - 08:59";"00561";"Station Bijlmer ArenA";"4.94741931";"52.31132918";"72"
"11/29/2021 12:00:00 AM";"08:00 - 08:59";"00562";"Station Bijlmer ArenA";"4.94736012";"52.31138289";"38"
"11/29/2021 12:00:00 AM";"08:00 - 08:59";"00568";"Station Bijlmer ArenA";"4.94762664";"52.31112323";"13"
"11/29/2021 12:00:00 AM";"08:00 - 08:59";"00601";"Van Houtenlaan";"5.03711994";"52.30381828";"14"
"11/29/2021 12:00:00 AM";"08:00 - 08:59";"00603";"V. Houten Ind.park";"5.03580865";"52.30648376";"35"
"11/29/2021 12:00:00 AM";"08:00 - 08:59";"00651";"Casparuslaan";"5.03531862";"52.30911571";"20"
"11/29/2021 12:00:00 AM";"08:00 - 08:59";"00665";"Station Weesp";"5.04383463";"52.31145059";"17"
"11/29/2021 12:00:00 AM";"08:00 - 08:59";"00999";"Vinkenbrug";"4.97831599";"52.33370267";"11"
"11/29/2021 12:00:00 AM";"08:00 - 08:59";"01076";"Waterlandplein";"4.95247364";"52.39274059";"14"
"11/29/2021 12:00:00 AM";"08:00 - 08:59";"01078";"Dijkmanshuizenstraat";"4.95475323";"52.39549915";"11"
"11/29/2021 12:00:00 AM";"08:00 - 08:59";"01092";"Th. Weeversweg";"4.94438255";"52.39825599";"14"
"11/29/2021 12:00:00 AM";"08:00 - 08:59";"01110";"Rode Kruisstraat";"4.92847908";"52.39455548";"61"
"11/29/2021 12:00:00 AM";"08:00 - 08:59";"01111";"Rode Kruisstraat";"4.92881363";"52.39488033";"117"
"11/29/2021 12:00:00 AM";"08:00 - 08:59";"01116";"Merelstraat";"4.92492850";"52.38986809";"62"
"11/29/2021 12:00:00 AM";"08:00 - 08:59";"01117";"Merelstraat";"4.92505977";"52.38995848";"68"
"11/29/2021 12:00:00 AM";"08:00 - 08:59";"01142";"Mosplein";"4.91298245";"52.39289464";"12"
"11/29/2021 12:00:00 AM";"08:00 - 08:59";"01155";"Mosplein";"4.91358361";"52.39300490";"18"
"11/29/2021 12:00:00 AM";"08:00 - 08:59";"01168";"Tjalkstraat";"4.91116991";"52.40572174";"11"
"11/29/2021 12:00:00 AM";"08:00 - 08:59";"01189";"Pinksterbloemstraat";"4.91221693";"52.39852684";"24"
"11/29/2021 12:00:00 AM";"08:00 - 08:59";"01191";"Pinksterbloemstraat";"4.91203754";"52.39881372";"10"
"11/29/2021 12:00:00 AM";"08:00 - 08:59";"01212";"Oostzanerdijk";"4.88149588";"52.42023965";"42"
"11/29/2021 12:00:00 AM";"08:00 - 08:59";"01213";"Oostzanerdijk";"4.88083286";"52.42037163";"10"
"11/29/2021 12:00:00 AM";"08:00 - 08:59";"01237";"Beemsterstraat";"4.95210741";"52.39712521";"25"
"11/29/2021 12:00:00 AM";"08:00 - 08:59";"01278";"Statenjachtstraat";"4.91380643";"52.40790731";"14"
"11/29/2021 12:00:00 AM";"08:00 - 08:59";"01305";"Station Noord";"4.93215715";"52.40264056";"28"
"11/29/2021 12:00:00 AM";"08:00 - 08:59";"01316";"Station Noord";"4.93336820";"52.40204304";"49"
"11/29/2021 12:00:00 AM";"08:00 - 08:59";"01352";"Oosterlengte";"4.92206974";"52.40611555";"28"
"11/29/2021 12:00:00 AM";"08:00 - 08:59";"01363";"Buikslotermeerplein";"4.93968364";"52.39943369";"19"
"11/29/2021 12:00:00 AM";"08:00 - 08:59";"01364";"Buikslotermeerplein";"4.93887054";"52.39992493";"12"
"11/29/2021 12:00:00 AM";"08:00 - 08:59";"01365";"Atat?rk";"4.89794256";"52.40319625";"25"
"11/29/2021 12:00:00 AM";"08:00 - 08:59";"01366";"Atat?rk";"4.89776534";"52.40327640";"13"
"11/29/2021 12:00:00 AM";"08:00 - 08:59";"01369";"Pomonastraat";"4.89546974";"52.40886620";"16"
"11/29/2021 12:00:00 AM";"08:00 - 08:59";"01402";"Floraweg";"4.90614362";"52.39899665";"39"
"11/29/2021 12:00:00 AM";"08:00 - 08:59";"01407";"Floraweg";"4.90766473";"52.39828381";"10"
"11/29/2021 12:00:00 AM";"08:00 - 08:59";"01414";"Olof Palmeplein";"4.94012168";"52.39679298";"17"
"11/29/2021 12:00:00 AM";"08:00 - 08:59";"01422";"Noorderpark";"4.91956087";"52.38902016";"55"
"11/29/2021 12:00:00 AM";"08:00 - 08:59";"01423";"Noorderpark";"4.91921998";"52.38930641";"14"
"11/29/2021 12:00:00 AM";"08:00 - 08:59";"02010";"Koivistokade";"4.87631267";"52.39805387";"118"
"11/29/2021 12:00:00 AM";"08:00 - 08:59";"02064";"Kabelweg";"4.84827817";"52.39205168";"24"
"11/29/2021 12:00:00 AM";"08:00 - 08:59";"02066";"La Guardiaweg";"4.84008244";"52.39190625";"17"
"11/29/2021 12:00:00 AM";"08:00 - 08:59";"02089";"Vredenhof";"4.86238820";"52.38527541";"12"
"11/29/2021 12:00:00 AM";"08:00 - 08:59";"02094";"Zaanstraat";"4.87012818";"52.39291304";"15"
"11/29/2021 12:00:00 AM";"08:00 - 08:59";"02099";"Zaanstraat";"4.86990824";"52.39287613";"16"
"11/29/2021 12:00:00 AM";"08:00 - 08:59";"02103";"Spaarndammerstraat";"4.87765867";"52.39216375";"36"
"11/29/2021 12:00:00 AM";"08:00 - 08:59";"02107";"Assendelftstraat";"4.87984170";"52.38882970";"15"
"11/29/2021 12:00:00 AM";"08:00 - 08:59";"02113";"Haarlemmerplein";"4.88371739";"52.38516129";"26"
"11/29/2021 12:00:00 AM";"08:00 - 08:59";"02114";"Haarlemmerplein";"4.88341252";"52.38484542";"56"
"11/29/2021 12:00:00 AM";"08:00 - 08:59";"02126";"Bloemgracht";"4.87658402";"52.37449829";"10"
"11/29/2021 12:00:00 AM";"08:00 - 08:59";"02128";"G. v.Ledenberchstraat";"4.87062828";"52.37520945";"13"
"11/29/2021 12:00:00 AM";"08:00 - 08:59";"02130";"Hugo de Grootplein";"4.87259092";"52.37439113";"14"
"11/29/2021 12:00:00 AM";"08:00 - 08:59";"02132";"Fred. Hendrikplants.";"4.87543499";"52.37862768";"29"
"11/29/2021 12:00:00 AM";"08:00 - 08:59";"02133";"Fred. Hendrikplants.";"4.87521709";"52.37842002";"13"
"11/29/2021 12:00:00 AM";"08:00 - 08:59";"02138";"Kostverlorenstraat";"4.87170885";"52.37952826";"14"
"11/29/2021 12:00:00 AM";"08:00 - 08:59";"02140";"Van Beuningenplein";"4.87111633";"52.38122436";"14"
"11/29/2021 12:00:00 AM";"08:00 - 08:59";"02142";"V.d. Hoopstraat";"4.87031312";"52.38335094";"10"
"11/29/2021 12:00:00 AM";"08:00 - 08:59";"02149";"Van L.Stirumstraat";"4.87489798";"52.38443141";"10"
"11/29/2021 12:00:00 AM";"08:00 - 08:59";"02155";"Willem de Zwijgerlaan";"4.86360306";"52.37071170";"30"
"11/29/2021 12:00:00 AM";"08:00 - 08:59";"02156";"Willem de Zwijgerlaan";"4.86425293";"52.37039101";"33"
"11/29/2021 12:00:00 AM";"08:00 - 08:59";"02157";"Adm. de Ruijterweg";"4.86009910";"52.37148707";"20"
"11/29/2021 12:00:00 AM";"08:00 - 08:59";"02158";"Adm. de Ruijterweg";"4.86096776";"52.37129320";"26"
"11/29/2021 12:00:00 AM";"08:00 - 08:59";"02166";"Bos en Lommerweg";"4.85548704";"52.38016657";"12"
"11/29/2021 12:00:00 AM";"08:00 - 08:59";"02167";"Bos en Lommerweg";"4.85380049";"52.38118358";"13"
"11/29/2021 12:00:00 AM";"08:00 - 08:59";"02168";"Haparandaweg";"4.87311908";"52.39470562";"102"
"11/29/2021 12:00:00 AM";"08:00 - 08:59";"02170";"Spaarndammerstraat";"4.87723089";"52.39231470";"33"
"11/29/2021 12:00:00 AM";"08:00 - 08:59";"02172";"Molenwerf";"4.84552895";"52.38620612";"13"
"11/29/2021 12:00:00 AM";"08:00 - 08:59";"02177";"Bos en Lommerweg";"4.85516829";"52.38102795";"10"
"11/29/2021 12:00:00 AM";"08:00 - 08:59";"02182";"Markthallen";"4.86695146";"52.37567869";"45"
"11/29/2021 12:00:00 AM";"08:00 - 08:59";"02183";"Markthallen";"4.86667150";"52.37575835";"32"
"11/29/2021 12:00:00 AM";"08:00 - 08:59";"02184";"Jan v.Galenstraat";"4.86033817";"52.37484954";"12"
"11/29/2021 12:00:00 AM";"08:00 - 08:59";"02190";"Karel Doormanstraat";"4.85695623";"52.37889690";"10"
"11/29/2021 12:00:00 AM";"08:00 - 08:59";"02193";"Marnixplein";"4.87844490";"52.37741832";"14"
"11/29/2021 12:00:00 AM";"08:00 - 08:59";"02199";"Eerste Marnixdwarsstraat";"4.88203787";"52.38302405";"10"
"11/29/2021 12:00:00 AM";"08:00 - 08:59";"02222";"Jan van Galenstraat";"4.85874763";"52.37399761";"24"
"11/29/2021 12:00:00 AM";"08:00 - 08:59";"02252";"Zekeringstraat";"4.84719064";"52.39690907";"10"
"11/29/2021 12:00:00 AM";"08:00 - 08:59";"02259";"Contactweg";"4.85657970";"52.39195435";"143"
"11/29/2021 12:00:00 AM";"08:00 - 08:59";"02260";"Contactweg";"4.85432952";"52.39215995";"95"
"11/29/2021 12:00:00 AM";"08:00 - 08:59";"02301";"Fred. Hendrikplants.";"4.87521585";"52.37852787";"57"
"11/29/2021 12:00:00 AM";"08:00 - 08:59";"02302";"Fred. Hendrikplants.";"4.87549415";"52.37859198";"43"
"11/29/2021 12:00:00 AM";"08:00 - 08:59";"02309";"Plesostraat";"4.82645527";"52.38795084";"11"
"11/29/2021 12:00:00 AM";"08:00 - 08:59";"02310";"Plesostraat";"4.82849791";"52.38788859";"13"
"11/29/2021 12:00:00 AM";"08:00 - 08:59";"02319";"Solebaystraat";"4.85540788";"52.38431853";"15"
"11/29/2021 12:00:00 AM";"08:00 - 08:59";"02320";"Van Hallstraat";"4.86782303";"52.38527240";"16"
"11/29/2021 12:00:00 AM";"08:00 - 08:59";"02321";"Van Hallstraat";"4.86864429";"52.38538386";"24"
"11/29/2021 12:00:00 AM";"08:00 - 08:59";"02330";"Maltaweg";"4.80388392";"52.40419947";"11"
"11/29/2021 12:00:00 AM";"08:00 - 08:59";"02333";"Herwijk";"4.78729047";"52.39572206";"14"
"11/29/2021 12:00:00 AM";"08:00 - 08:59";"02361";"Station Sloterdijk";"4.83931858";"52.38833460";"112"
"11/29/2021 12:00:00 AM";"08:00 - 08:59";"02365";"Station Sloterdijk";"4.83873236";"52.38822404";"59"
"11/29/2021 12:00:00 AM";"08:00 - 08:59";"02366";"Station Sloterdijk";"4.83873347";"52.38813416";"35"
"11/29/2021 12:00:00 AM";"08:00 - 08:59";"02367";"Station Sloterdijk";"4.83876429";"52.38801747";"29"
"11/29/2021 12:00:00 AM";"08:00 - 08:59";"02368";"Station Sloterdijk";"4.83877999";"52.38793665";"20"
"11/29/2021 12:00:00 AM";"08:00 - 08:59";"02378";"Station Sloterdijk";"4.83809796";"52.38844579";"78"
"11/29/2021 12:00:00 AM";"08:00 - 08:59";"03009";"Witte de Withstraat";"4.85851970";"52.36478416";"39"
"11/29/2021 12:00:00 AM";"08:00 - 08:59";"03010";"Witte de Withstraat";"4.85928290";"52.36480554";"36"
"11/29/2021 12:00:00 AM";"08:00 - 08:59";"03022";"Mercatorplein";"4.85070310";"52.37012367";"12"
"11/29/2021 12:00:00 AM";"08:00 - 08:59";"03023";"Marco Polostraat";"4.85520189";"52.37088096";"53"
"11/29/2021 12:00:00 AM";"08:00 - 08:59";"03024";"Marco Polostraat";"4.85546532";"52.37095405";"17"
"11/29/2021 12:00:00 AM";"08:00 - 08:59";"03025";"Jan v.Galenstraat";"4.84854861";"52.37342137";"19"
"11/29/2021 12:00:00 AM";"08:00 - 08:59";"03028";"Jan van Galenstraat";"4.84921138";"52.37204926";"15"
"11/29/2021 12:00:00 AM";"08:00 - 08:59";"03034";"Erasmusgracht";"4.84691117";"52.37644278";"28"
"11/29/2021 12:00:00 AM";"08:00 - 08:59";"03037";"Egidiusstraat";"4.85150597";"52.37902516";"14"
"11/29/2021 12:00:00 AM";"08:00 - 08:59";"03038";"Bos en Lommerweg";"4.85369544";"52.38014952";"22"
"11/29/2021 12:00:00 AM";"08:00 - 08:59";"03052";"Burg. Eliasstraat";"4.82565009";"52.38077481";"53"
"11/29/2021 12:00:00 AM";"08:00 - 08:59";"03055";"Burg. Fockstraat";"4.83108040";"52.37991964";"14"
"11/29/2021 12:00:00 AM";"08:00 - 08:59";"03060";"Bos en Lommerplein";"4.84718407";"52.37815169";"17"
"11/29/2021 12:00:00 AM";"08:00 - 08:59";"03061";"Bos en Lommerplein";"4.84523530";"52.37778328";"77"
"11/29/2021 12:00:00 AM";"08:00 - 08:59";"03076";"Jan Tooropstraat";"4.83810313";"52.37142305";"53"
"11/29/2021 12:00:00 AM";"08:00 - 08:59";"03077";"Jan Tooropstraat";"4.83817288";"52.37171997";"30"
"11/29/2021 12:00:00 AM";"08:00 - 08:59";"03087";"Plein '40 - '45";"4.82063128";"52.38159575";"43"
"11/29/2021 12:00:00 AM";"08:00 - 08:59";"03090";"Slotermeerlaan";"4.81728149";"52.37596234";"20"
"11/29/2021 12:00:00 AM";"08:00 - 08:59";"03097";"Burg. v. Leeuwenlaan";"4.81182601";"52.37651117";"15"
"11/29/2021 12:00:00 AM";"08:00 - 08:59";"03101";"Lambertus Zijlplein";"4.80300456";"52.37726788";"15"
"11/29/2021 12:00:00 AM";"08:00 - 08:59";"03116";"Michel de Klerkhof";"4.79756954";"52.37625229";"10"
"11/29/2021 12:00:00 AM";"08:00 - 08:59";"03117";"Sam van Houtenstraat";"4.79790430";"52.37868964";"18"
"11/29/2021 12:00:00 AM";"08:00 - 08:59";"03121";"Aalbersestraat";"4.79774249";"52.38202329";"20"
"11/29/2021 12:00:00 AM";"08:00 - 08:59";"03125";"Anth. Moddermanstraat";"4.81338292";"52.38330447";"10"
"11/29/2021 12:00:00 AM";"08:00 - 08:59";"03129";"Plein '40 - '45";"4.82112672";"52.38075328";"78"
"11/29/2021 12:00:00 AM";"08:00 - 08:59";"03132";"Burg. R?ellstraat";"4.81950345";"52.37676393";"44"
"11/29/2021 12:00:00 AM";"08:00 - 08:59";"03135";"Ookmeerweg";"4.80431836";"52.36558127";"146"
"11/29/2021 12:00:00 AM";"08:00 - 08:59";"03136";"Ookmeerweg";"4.80419536";"52.36600309";"29"
"11/29/2021 12:00:00 AM";"08:00 - 08:59";"03145";"J. Cabeliaustraat";"4.80409638";"52.38246819";"18"
"11/29/2021 12:00:00 AM";"08:00 - 08:59";"03150";"Mercatorplein";"4.85011339";"52.37031872";"20"
"11/29/2021 12:00:00 AM";"08:00 - 08:59";"03157";"Lambertus Zijlplein";"4.80338637";"52.37726977";"17"
"11/29/2021 12:00:00 AM";"08:00 - 08:59";"03163";"Burg.de Vlugtlaan";"4.83793812";"52.37881920";"13"
"11/29/2021 12:00:00 AM";"08:00 - 08:59";"03167";"Bos en Lommerplein";"4.84650668";"52.37709704";"43"
"11/29/2021 12:00:00 AM";"08:00 - 08:59";"03168";"Mercatorplein";"4.85152392";"52.37024423";"32"
"11/29/2021 12:00:00 AM";"08:00 - 08:59";"03169";"Jan v.Galenstraat";"4.83601291";"52.37301316";"37"
"11/29/2021 12:00:00 AM";"08:00 - 08:59";"03171";"Burg. Rendorpstraat";"4.82768433";"52.37436719";"32"
"11/29/2021 12:00:00 AM";"08:00 - 08:59";"03172";"Burg. Rendorpstraat";"4.82691962";"52.37445346";"49"
"11/29/2021 12:00:00 AM";"08:00 - 08:59";"03174";"Burg. R?ellstraat";"4.81863325";"52.37476448";"26"
"11/29/2021 12:00:00 AM";"08:00 - 08:59";"03178";"Mercatorplein";"4.84991664";"52.37080317";"30"
"11/29/2021 12:00:00 AM";"08:00 - 08:59";"03179";"Adm. Helfrichstraat";"4.84386882";"52.36944538";"37"
"11/29/2021 12:00:00 AM";"08:00 - 08:59";"03180";"Adm. Helfrichstraat";"4.84458860";"52.36942172";"19"
"11/29/2021 12:00:00 AM";"08:00 - 08:59";"03181";"Jan Voermanstraat";"4.83788946";"52.36970540";"44"
"11/29/2021 12:00:00 AM";"08:00 - 08:59";"03182";"Jan Voermanstraat";"4.83852226";"52.36959149";"17"
"11/29/2021 12:00:00 AM";"08:00 - 08:59";"03197";"W. Schoutenstraat";"4.85238084";"52.36737202";"20"
"11/29/2021 12:00:00 AM";"08:00 - 08:59";"03198";"W. Schoutenstraat";"4.85259061";"52.36702245";"17"
"11/29/2021 12:00:00 AM";"08:00 - 08:59";"04008";"Dijkgraafplein";"4.78646982";"52.35545267";"12"
"11/29/2021 12:00:00 AM";"08:00 - 08:59";"04009";"Dijkgraafplein";"4.78689401";"52.35556268";"15"
"11/29/2021 12:00:00 AM";"08:00 - 08:59";"04012";"Baden Powellweg";"4.79137362";"52.35646612";"27"
"11/29/2021 12:00:00 AM";"08:00 - 08:59";"04016";"Hoekenes";"4.79854723";"52.35791310";"20"
"11/29/2021 12:00:00 AM";"08:00 - 08:59";"04021";"Osdorpplein West";"4.80322869";"52.35913166";"26"
"11/29/2021 12:00:00 AM";"08:00 - 08:59";"04023";"Osdorpplein Noord";"4.80526797";"52.36034607";"13"
"11/29/2021 12:00:00 AM";"08:00 - 08:59";"04050";"Meer en Vaart";"4.80994403";"52.35636940";"46"
"11/29/2021 12:00:00 AM";"08:00 - 08:59";"04060";"Derkinderenstraat";"4.83972293";"52.35796689";"30"
"11/29/2021 12:00:00 AM";"08:00 - 08:59";"04061";"Derkinderenstraat";"4.84014895";"52.35794190";"25"
"11/29/2021 12:00:00 AM";"08:00 - 08:59";"04062";"Johan Huizingalaan";"4.82582327";"52.35781191";"17"
"11/29/2021 12:00:00 AM";"08:00 - 08:59";"04063";"Johan Huizingalaan";"4.82626398";"52.35778704";"28"
"11/29/2021 12:00:00 AM";"08:00 - 08:59";"04064";"Osdorpplein Oost";"4.80806527";"52.35860717";"14"
"11/29/2021 12:00:00 AM";"08:00 - 08:59";"04065";"Osdorpplein Oost";"4.80773259";"52.35935153";"28"
"11/29/2021 12:00:00 AM";"08:00 - 08:59";"04088";"Louwesweg";"4.82436420";"52.34669608";"35"
"11/29/2021 12:00:00 AM";"08:00 - 08:59";"04096";"Ottho Heldringstraat";"4.83379801";"52.34692032";"11"
"11/29/2021 12:00:00 AM";"08:00 - 08:59";"04110";"Westlandgracht";"4.84581964";"52.35156868";"14"
"11/29/2021 12:00:00 AM";"08:00 - 08:59";"04111";"Delflandlaan";"4.84191575";"52.35154177";"10"
"11/29/2021 12:00:00 AM";"08:00 - 08:59";"04112";"Johan Huizingalaan";"4.82742878";"52.34923618";"57"
"11/29/2021 12:00:00 AM";"08:00 - 08:59";"04120";"Delflandlaan";"4.83969924";"52.35155850";"11"
"11/29/2021 12:00:00 AM";"08:00 - 08:59";"04123";"Station Lelylaan";"4.83455700";"52.35668460";"12"
"11/29/2021 12:00:00 AM";"08:00 - 08:59";"04124";"Station Lelylaan";"4.83471835";"52.35669434";"12"
"11/29/2021 12:00:00 AM";"08:00 - 08:59";"04129";"Derkinderenstraat";"4.83926482";"52.36415734";"20"
"11/29/2021 12:00:00 AM";"08:00 - 08:59";"04132";"Jan Tooropstraat";"4.83537474";"52.36411231";"11"
"11/29/2021 12:00:00 AM";"08:00 - 08:59";"04133";"Robert Fruinlaan";"4.82910660";"52.36403799";"21"
"11/29/2021 12:00:00 AM";"08:00 - 08:59";"04136";"Justus Lipsiusstraat";"4.82704776";"52.36081963";"18"
"11/29/2021 12:00:00 AM";"08:00 - 08:59";"04140";"Sierplein";"4.82732630";"52.35503282";"13"
"11/29/2021 12:00:00 AM";"08:00 - 08:59";"04148";"Louis Davidsstraat";"4.80952552";"52.35356316";"96"
"11/29/2021 12:00:00 AM";"08:00 - 08:59";"04149";"Louis Davidsstraat";"4.80959575";"52.35380618";"10"
"11/29/2021 12:00:00 AM";"08:00 - 08:59";"04195";"Station Lelylaan";"4.83460082";"52.35788018";"133"
"11/29/2021 12:00:00 AM";"08:00 - 08:59";"04196";"Station Lelylaan";"4.83382251";"52.35790351";"123"
"11/29/2021 12:00:00 AM";"08:00 - 08:59";"04267";"Schiphol Airport/Plaza";"4.76139455";"52.30887344";"16"
"11/29/2021 12:00:00 AM";"08:00 - 08:59";"04274";"Schiphol Airport/Plaza";"4.76104997";"52.30939292";"21"
"11/29/2021 12:00:00 AM";"08:00 - 08:59";"04277";"Laan v.Vlaanderen";"4.81642720";"52.34648730";"13"
"11/29/2021 12:00:00 AM";"08:00 - 08:59";"04279";"Centrum Nieuw Sloten";"4.81104244";"52.34638930";"17"
"11/29/2021 12:00:00 AM";"08:00 - 08:59";"04307";"Antwerpenbaan";"4.81592157";"52.34586470";"13"
"11/29/2021 12:00:00 AM";"08:00 - 08:59";"04308";"Antwerpenbaan";"4.81624222";"52.34603701";"10"
"11/29/2021 12:00:00 AM";"08:00 - 08:59";"04379";"Knooppunt Schiphol Nrd";"4.79320459";"52.32276196";"67"
"11/29/2021 12:00:00 AM";"08:00 - 08:59";"04401";"Matterhorn";"4.77438097";"52.35391670";"11"
"11/29/2021 12:00:00 AM";"08:00 - 08:59";"04402";"Matterhorn";"4.77477998";"52.35372103";"37"
"11/29/2021 12:00:00 AM";"08:00 - 08:59";"04407";"Ecuplein";"4.78817670";"52.34970912";"13"
"11/29/2021 12:00:00 AM";"08:00 - 08:59";"04409";"Baden Powellweg";"4.79441281";"52.35092691";"54"
"11/29/2021 12:00:00 AM";"08:00 - 08:59";"04411";"Hoekenes";"4.80183430";"52.35243785";"12"
"11/29/2021 12:00:00 AM";"08:00 - 08:59";"04412";"Hoekenes";"4.80261063";"52.35255853";"11"
"11/29/2021 12:00:00 AM";"08:00 - 08:59";"04413";"Louis Davidsstraat";"4.80850916";"52.35383682";"65"
"11/29/2021 12:00:00 AM";"08:00 - 08:59";"04414";"Louis Davidsstraat";"4.80910976";"52.35392963";"20"
"11/29/2021 12:00:00 AM";"08:00 - 08:59";"05011";"Centraal Station";"4.89921803";"52.37810793";"290"
"11/29/2021 12:00:00 AM";"08:00 - 08:59";"05022";"Centraal Station";"4.90104337";"52.37771998";"246"
"11/29/2021 12:00:00 AM";"08:00 - 08:59";"05031";"Dam";"4.89348394";"52.37341055";"31"
"11/29/2021 12:00:00 AM";"08:00 - 08:59";"05032";"Dam";"4.89549360";"52.37492885";"29"
"11/29/2021 12:00:00 AM";"08:00 - 08:59";"05035";"Rokin";"4.89210433";"52.36939627";"15"
"11/29/2021 12:00:00 AM";"08:00 - 08:59";"05036";"Rokin";"4.89230478";"52.36985548";"35"
"11/29/2021 12:00:00 AM";"08:00 - 08:59";"05046";"Rembrandtplein";"4.89627976";"52.36625897";"20"
"11/29/2021 12:00:00 AM";"08:00 - 08:59";"05047";"Rembrandtplein";"4.89702882";"52.36623511";"41"
"11/29/2021 12:00:00 AM";"08:00 - 08:59";"05056";"Mr. Visserplein";"4.90539389";"52.36794116";"11"
"11/29/2021 12:00:00 AM";"08:00 - 08:59";"05060";"Koningsplein";"4.88894752";"52.36807981";"29"
"11/29/2021 12:00:00 AM";"08:00 - 08:59";"05064";"Koningsplein";"4.88949610";"52.36760577";"75"
"11/29/2021 12:00:00 AM";"08:00 - 08:59";"05065";"Dam";"4.89079364";"52.37367792";"89"
"11/29/2021 12:00:00 AM";"08:00 - 08:59";"05066";"Dam";"4.89027056";"52.37318140";"85"
"11/29/2021 12:00:00 AM";"08:00 - 08:59";"05067";"Dam";"4.89118479";"52.37415591";"26"
"11/29/2021 12:00:00 AM";"08:00 - 08:59";"05069";"Nieuwezijds Kolk";"4.89373093";"52.37628765";"55"
"11/29/2021 12:00:00 AM";"08:00 - 08:59";"05070";"Nieuwezijds Kolk";"4.89284106";"52.37575366";"24"
"11/29/2021 12:00:00 AM";"08:00 - 08:59";"05073";"Westermarkt";"4.88453426";"52.37400204";"48"
"11/29/2021 12:00:00 AM";"08:00 - 08:59";"05074";"Westermarkt";"4.88354950";"52.37407874";"142"
"11/29/2021 12:00:00 AM";"08:00 - 08:59";"05077";"Marnixstraat";"4.87615428";"52.37228546";"37"
"11/29/2021 12:00:00 AM";"08:00 - 08:59";"05079";"Buiten Oranjestraat";"4.88805879";"52.38312149";"15"
"11/29/2021 12:00:00 AM";"08:00 - 08:59";"05080";"Buiten Oranjestraat";"4.88782167";"52.38330923";"33"
"11/29/2021 12:00:00 AM";"08:00 - 08:59";"05081";"Buiten Brouwersstraat";"4.89157253";"52.38150947";"15"
"11/29/2021 12:00:00 AM";"08:00 - 08:59";"05082";"Buiten Brouwersstraat";"4.89129168";"52.38167008";"33"
"11/29/2021 12:00:00 AM";"08:00 - 08:59";"05090";"Westerdoksdijk";"4.89331977";"52.38551629";"28"
"11/29/2021 12:00:00 AM";"08:00 - 08:59";"05092";"Barentszplein";"4.89160204";"52.38938281";"27"
"11/29/2021 12:00:00 AM";"08:00 - 08:59";"05097";"Centraal Station";"4.90087651";"52.37954379";"73"
"11/29/2021 12:00:00 AM";"08:00 - 08:59";"05101";"Centraal Station";"4.90105195";"52.37961641";"63"
"11/29/2021 12:00:00 AM";"08:00 - 08:59";"05103";"Centraal Station";"4.90127481";"52.37938365";"61"
"11/29/2021 12:00:00 AM";"08:00 - 08:59";"05104";"Centraal Station";"4.90164343";"52.37925034";"25"
"11/29/2021 12:00:00 AM";"08:00 - 08:59";"05106";"Centraal Station";"4.90229030";"52.37919008";"20"
"11/29/2021 12:00:00 AM";"08:00 - 08:59";"05107";"Centraal Station";"4.90195282";"52.37916174";"30"
"11/29/2021 12:00:00 AM";"08:00 - 08:59";"05154";"Marnixstraat";"4.87536375";"52.37207533";"22"
"11/29/2021 12:00:00 AM";"08:00 - 08:59";"06001";"Surinameplein";"4.85252231";"52.35807034";"49"
"11/29/2021 12:00:00 AM";"08:00 - 08:59";"06002";"Surinameplein";"4.85090753";"52.35807202";"15"
"11/29/2021 12:00:00 AM";"08:00 - 08:59";"06010";"Corantijnstraat";"4.85326125";"52.36131825";"11"
"11/29/2021 12:00:00 AM";"08:00 - 08:59";"06015";"Postjesweg";"4.85316124";"52.36352879";"11"
"11/29/2021 12:00:00 AM";"08:00 - 08:59";"06016";"J.P. Heijestraat";"4.86239635";"52.36472951";"33"
"11/29/2021 12:00:00 AM";"08:00 - 08:59";"06017";"J.P. Heijestraat";"4.86292317";"52.36487565";"29"
"11/29/2021 12:00:00 AM";"08:00 - 08:59";"06019";"Ten Katestraat";"4.86737423";"52.36591988";"36"
"11/29/2021 12:00:00 AM";"08:00 - 08:59";"06020";"Ten Katestraat";"4.86773990";"52.36603832";"41"
"11/29/2021 12:00:00 AM";"08:00 - 08:59";"06021";"Bilderdijkstraat";"4.87176488";"52.36712545";"120"
"11/29/2021 12:00:00 AM";"08:00 - 08:59";"06023";"Bilderdijkstraat";"4.87254032";"52.36736251";"34"
"11/29/2021 12:00:00 AM";"08:00 - 08:59";"06024";"Kinkerstraat";"4.87230885";"52.36706491";"19"
"11/29/2021 12:00:00 AM";"08:00 - 08:59";"06027";"Elandsgracht";"4.87855189";"52.36808953";"37"
"11/29/2021 12:00:00 AM";"08:00 - 08:59";"06028";"Elandsgracht";"4.87741694";"52.36974738";"52"
"11/29/2021 12:00:00 AM";"08:00 - 08:59";"06029";"Elandsgracht";"4.87684368";"52.36852258";"166"
"11/29/2021 12:00:00 AM";"08:00 - 08:59";"06030";"Rozengracht";"4.87590932";"52.37187996";"37"
"11/29/2021 12:00:00 AM";"08:00 - 08:59";"06034";"Bilderdijkstraat";"4.87082347";"52.37105798";"29"
"11/29/2021 12:00:00 AM";"08:00 - 08:59";"06037";"Bilderdijkstraat";"4.86985701";"52.37082906";"50"
"11/29/2021 12:00:00 AM";"08:00 - 08:59";"06043";"Overtoom";"4.87510145";"52.36299659";"17"
"11/29/2021 12:00:00 AM";"08:00 - 08:59";"06044";"Overtoom";"4.87483191";"52.36345380";"23"
"11/29/2021 12:00:00 AM";"08:00 - 08:59";"06045";"1e Con. Huygensstraat";"4.87399228";"52.36242556";"32"
"11/29/2021 12:00:00 AM";"08:00 - 08:59";"06046";"1e Con. Huygensstraat";"4.87487082";"52.36262709";"37"
"11/29/2021 12:00:00 AM";"08:00 - 08:59";"06048";"J.P. Heijestraat";"4.86585368";"52.36037674";"22"
"11/29/2021 12:00:00 AM";"08:00 - 08:59";"06049";"J.P. Heijestraat";"4.86671778";"52.36055131";"26"
"11/29/2021 12:00:00 AM";"08:00 - 08:59";"06059";"Spiegelgracht";"4.88762090";"52.36071327";"27"
"11/29/2021 12:00:00 AM";"08:00 - 08:59";"06061";"Leidseplein";"4.88339576";"52.36305015";"69"
"11/29/2021 12:00:00 AM";"08:00 - 08:59";"06063";"Leidseplein";"4.88064547";"52.36476406";"84"
"11/29/2021 12:00:00 AM";"08:00 - 08:59";"06067";"Leidseplein";"4.88301434";"52.36431580";"27"
"11/29/2021 12:00:00 AM";"08:00 - 08:59";"06072";"Prinsengracht";"4.88428435";"52.36495933";"54"
"11/29/2021 12:00:00 AM";"08:00 - 08:59";"06073";"Keizersgracht";"4.88666521";"52.36604795";"18"
"11/29/2021 12:00:00 AM";"08:00 - 08:59";"06074";"Keizersgracht";"4.88624128";"52.36588437";"28"
"11/29/2021 12:00:00 AM";"08:00 - 08:59";"06081";"Rhijnvis Feithstraat";"4.86039355";"52.35905833";"17"
"11/29/2021 12:00:00 AM";"08:00 - 08:59";"06082";"Rhijnvis Feithstraat";"4.85967683";"52.35883943";"48"
"11/29/2021 12:00:00 AM";"08:00 - 08:59";"06089";"Leidseplein";"4.88085541";"52.36309324";"114"
"11/29/2021 12:00:00 AM";"08:00 - 08:59";"06114";"Hoofdweg";"4.85444451";"52.36425359";"33"
"11/29/2021 12:00:00 AM";"08:00 - 08:59";"06115";"Postjesweg";"4.85319014";"52.36478720";"15"
"11/29/2021 12:00:00 AM";"08:00 - 08:59";"07000";"Concertgebouw";"4.87980116";"52.35642881";"75"
"11/29/2021 12:00:00 AM";"08:00 - 08:59";"07001";"Concertgebouw";"4.87950215";"52.35690388";"189"
"11/29/2021 12:00:00 AM";"08:00 - 08:59";"07002";"Van Baerlestraat";"4.87836936";"52.35839997";"20"
"11/29/2021 12:00:00 AM";"08:00 - 08:59";"07003";"Van Baerlestraat";"4.87808541";"52.35883915";"16"
"11/29/2021 12:00:00 AM";"08:00 - 08:59";"07004";"De Boelelaan/VU";"4.86586883";"52.33534587";"59"
"11/29/2021 12:00:00 AM";"08:00 - 08:59";"07015";"Roelof Hartplein";"4.88206971";"52.35314900";"57"
"11/29/2021 12:00:00 AM";"08:00 - 08:59";"07016";"Roelof Hartplein";"4.88286688";"52.35274795";"122"
"11/29/2021 12:00:00 AM";"08:00 - 08:59";"07017";"Roelof Hartplein";"4.88206086";"52.35263666";"36"
"11/29/2021 12:00:00 AM";"08:00 - 08:59";"07021";"Kastelenstraat";"4.87955984";"52.32619291";"13"
"11/29/2021 12:00:00 AM";"08:00 - 08:59";"07027";"Corn. Schuytstraat";"4.87051458";"52.35597520";"34"
"11/29/2021 12:00:00 AM";"08:00 - 08:59";"07028";"Corn. Schuytstraat";"4.87088070";"52.35604870";"25"
"11/29/2021 12:00:00 AM";"08:00 - 08:59";"07031";"Valeriusplein";"4.86374943";"52.35333004";"36"
"11/29/2021 12:00:00 AM";"08:00 - 08:59";"07032";"Valeriusplein";"4.86326678";"52.35318410";"42"
"11/29/2021 12:00:00 AM";"08:00 - 08:59";"07033";"Amstelveenseweg";"4.85695925";"52.35161911";"25"
"11/29/2021 12:00:00 AM";"08:00 - 08:59";"07034";"Amstelveenseweg";"4.85596467";"52.35132704";"22"
"11/29/2021 12:00:00 AM";"08:00 - 08:59";"07035";"Zeilstraat";"4.85672894";"52.35124059";"20"
"11/29/2021 12:00:00 AM";"08:00 - 08:59";"07044";"Haarlemmermeerstraat";"4.85044107";"52.35537358";"11"
"11/29/2021 12:00:00 AM";"08:00 - 08:59";"07046";"Hoofddorpplein";"4.85048172";"52.35201234";"15"
"11/29/2021 12:00:00 AM";"08:00 - 08:59";"07048";"Hoofddorpplein";"4.85010578";"52.35154327";"23"
"11/29/2021 12:00:00 AM";"08:00 - 08:59";"07049";"Hoofddorpplein";"4.84958188";"52.35117239";"47"
"11/29/2021 12:00:00 AM";"08:00 - 08:59";"07050";"Haarlemmermeerstation";"4.85744749";"52.34883508";"33"
"11/29/2021 12:00:00 AM";"08:00 - 08:59";"07083";"Gerrit v.d. Veenstraat";"4.87735929";"52.34921014";"102"
"11/29/2021 12:00:00 AM";"08:00 - 08:59";"07084";"Gerrit v.d. Veenstraat";"4.87720177";"52.34886793";"68"
"11/29/2021 12:00:00 AM";"08:00 - 08:59";"07087";"Stadionweg";"4.87688397";"52.34714989";"13"
"11/29/2021 12:00:00 AM";"08:00 - 08:59";"07088";"Stadionweg";"4.87687497";"52.34665553";"22"
"11/29/2021 12:00:00 AM";"08:00 - 08:59";"07097";"Olympiaplein";"4.86582821";"52.34630180";"31"
"11/29/2021 12:00:00 AM";"08:00 - 08:59";"07098";"Olympiaplein";"4.86659057";"52.34636807";"20"
"11/29/2021 12:00:00 AM";"08:00 - 08:59";"07108";"Olympiaweg";"4.85873730";"52.34528169";"15"
"11/29/2021 12:00:00 AM";"08:00 - 08:59";"07116";"Haarlemmermeerstation";"4.85760410";"52.34924023";"51"
"11/29/2021 12:00:00 AM";"08:00 - 08:59";"07120";"Olympiaweg";"4.85834130";"52.34526195";"16"
"11/29/2021 12:00:00 AM";"08:00 - 08:59";"07121";"Olympisch stadion";"4.85696449";"52.34380875";"10"
"11/29/2021 12:00:00 AM";"08:00 - 08:59";"07130";"Pr. Irenestraat";"4.86819699";"52.34202504";"33"
"11/29/2021 12:00:00 AM";"08:00 - 08:59";"07131";"Pr. Irenestraat";"4.86833196";"52.34303226";"42"
"11/29/2021 12:00:00 AM";"08:00 - 08:59";"07133";"De Boelelaan";"4.86754589";"52.33496677";"28"
"11/29/2021 12:00:00 AM";"08:00 - 08:59";"07150";"Europaboulevard";"4.88974083";"52.33399261";"15"
"11/29/2021 12:00:00 AM";"08:00 - 08:59";"07186";"Pr. Irenestraat";"4.87677483";"52.34260161";"42"
"11/29/2021 12:00:00 AM";"08:00 - 08:59";"07190";"Station Zuid";"4.87352214";"52.34089784";"19"
"11/29/2021 12:00:00 AM";"08:00 - 08:59";"07193";"Station Zuid";"4.87334616";"52.34088808";"71"
"11/29/2021 12:00:00 AM";"08:00 - 08:59";"07202";"Olympisch stadion";"4.85684420";"52.34405088";"10"
"11/29/2021 12:00:00 AM";"08:00 - 08:59";"07207";"IJsbaanpad";"4.85756146";"52.34051291";"14"
"11/29/2021 12:00:00 AM";"08:00 - 08:59";"07258";"Drentepark";"4.88936495";"52.33611215";"17"
"11/29/2021 12:00:00 AM";"08:00 - 08:59";"07260";"Station RAI";"4.89077724";"52.33708876";"12"
"11/29/2021 12:00:00 AM";"08:00 - 08:59";"07266";"Station Zuid";"4.87252654";"52.34070477";"11"
"11/29/2021 12:00:00 AM";"08:00 - 08:59";"07268";"Station Zuid";"4.87428608";"52.34082026";"38"
"11/29/2021 12:00:00 AM";"08:00 - 08:59";"07269";"Station Zuid";"4.87374306";"52.34082689";"130"
"11/29/2021 12:00:00 AM";"08:00 - 08:59";"07270";"Parnassusweg";"4.86874218";"52.33806382";"70"
"11/29/2021 12:00:00 AM";"08:00 - 08:59";"07271";"Parnassusweg";"4.86866745";"52.33818033";"26"
"11/29/2021 12:00:00 AM";"08:00 - 08:59";"07294";"Station Zuid";"4.87327467";"52.34072599";"35"
"11/29/2021 12:00:00 AM";"08:00 - 08:59";"07303";"VU medisch centrum";"4.86097062";"52.33515342";"70"
"11/29/2021 12:00:00 AM";"08:00 - 08:59";"07307";"Beethovenstraat";"4.87820649";"52.34700280";"17"
"11/29/2021 12:00:00 AM";"08:00 - 08:59";"07308";"Beethovenstraat";"4.87632951";"52.34686888";"12"
"11/29/2021 12:00:00 AM";"08:00 - 08:59";"07325";"Museumplein";"4.88046549";"52.35866960";"84"
"11/29/2021 12:00:00 AM";"08:00 - 08:59";"07326";"Museumplein";"4.88178292";"52.35899880";"89"
"11/29/2021 12:00:00 AM";"08:00 - 08:59";"07350";"VU medisch centrum";"4.86006046";"52.33519431";"18"
"11/29/2021 12:00:00 AM";"08:00 - 08:59";"07390";"Kronenburg";"4.87055248";"52.31615048";"10"
"11/29/2021 12:00:00 AM";"08:00 - 08:59";"07391";"Kronenburg";"4.87070592";"52.31556694";"35"
"11/29/2021 12:00:00 AM";"08:00 - 08:59";"07418";"Van Boshuizenstraat";"4.86902148";"52.32544617";"70"
"11/29/2021 12:00:00 AM";"08:00 - 08:59";"07419";"Van Boshuizenstraat";"4.86896941";"52.32487971";"209"
"11/29/2021 12:00:00 AM";"08:00 - 08:59";"07423";"Uilenstede";"4.86910951";"52.32167168";"40"
"11/29/2021 12:00:00 AM";"08:00 - 08:59";"07438";"Oranjebaan";"4.87217918";"52.30360157";"14"
"11/29/2021 12:00:00 AM";"08:00 - 08:59";"07439";"Oranjebaan";"4.87179001";"52.30302465";"59"
"11/29/2021 12:00:00 AM";"08:00 - 08:59";"07442";"Zonnestein";"4.87236664";"52.31146674";"24"
"11/29/2021 12:00:00 AM";"08:00 - 08:59";"07445";"Amstelveen Stadshart";"4.86751502";"52.30124433";"34"
"11/29/2021 12:00:00 AM";"08:00 - 08:59";"07448";"A.J. Ernststraat";"4.86887597";"52.33288743";"85"
"11/29/2021 12:00:00 AM";"08:00 - 08:59";"07449";"A.J. Ernststraat";"4.86879476";"52.33230287";"49"
"11/29/2021 12:00:00 AM";"08:00 - 08:59";"07453";"Ouderkerkerlaan";"4.86721192";"52.29582332";"26"
"11/29/2021 12:00:00 AM";"08:00 - 08:59";"07456";"Sportlaan";"4.86394869";"52.29035329";"14"
"11/29/2021 12:00:00 AM";"08:00 - 08:59";"07457";"Sportlaan";"4.86336804";"52.28987436";"77"
"11/29/2021 12:00:00 AM";"08:00 - 08:59";"07473";"Meent";"4.85693861";"52.28084883";"28"
"11/29/2021 12:00:00 AM";"08:00 - 08:59";"07481";"Poortwachter";"4.84496524";"52.28332911";"25"
"11/29/2021 12:00:00 AM";"08:00 - 08:59";"07482";"Sacharovlaan";"4.83228912";"52.28211984";"45"
"11/29/2021 12:00:00 AM";"08:00 - 08:59";"08007";"Bob Haarmslaan";"4.96921237";"52.36876786";"73"
"11/29/2021 12:00:00 AM";"08:00 - 08:59";"08009";"Bob Haarmslaan";"4.96859205";"52.36915214";"64"
"11/29/2021 12:00:00 AM";"08:00 - 08:59";"08011";"C. van Eesterenlaan";"4.93855181";"52.37334722";"10"
"11/29/2021 12:00:00 AM";"08:00 - 08:59";"08013";"Azartplein";"4.93734445";"52.37656023";"14"
"11/29/2021 12:00:00 AM";"08:00 - 08:59";"08014";"Azartplein";"4.93735640";"52.37682991";"14"
"11/29/2021 12:00:00 AM";"08:00 - 08:59";"08016";"Wittenburgergracht";"4.91969400";"52.36942754";"19"
"11/29/2021 12:00:00 AM";"08:00 - 08:59";"08027";"Kadijksplein";"4.91357159";"52.37075136";"25"
"11/29/2021 12:00:00 AM";"08:00 - 08:59";"08034";"P. Hendrikkade (uitstaphalte)";"4.90238928";"52.37685369";"18"
"11/29/2021 12:00:00 AM";"08:00 - 08:59";"08042";"Artis";"4.91080977";"52.36676771";"24"
"11/29/2021 12:00:00 AM";"08:00 - 08:59";"08049";"Alexanderplein";"4.91916567";"52.36383510";"26"
"11/29/2021 12:00:00 AM";"08:00 - 08:59";"08050";"Alexanderplein";"4.91867098";"52.36341072";"29"
"11/29/2021 12:00:00 AM";"08:00 - 08:59";"08051";"K. 's-Gravesandestr.";"4.91366120";"52.36235720";"44"
"11/29/2021 12:00:00 AM";"08:00 - 08:59";"08052";"K. 's-Gravesandestr.";"4.91550720";"52.36271509";"25"
"11/29/2021 12:00:00 AM";"08:00 - 08:59";"08053";"Weesperplein";"4.90655690";"52.36088154";"50"
"11/29/2021 12:00:00 AM";"08:00 - 08:59";"08054";"Weesperplein";"4.90941338";"52.36145933";"168"
"11/29/2021 12:00:00 AM";"08:00 - 08:59";"08057";"Frederiksplein";"4.90024241";"52.35971430";"68"
"11/29/2021 12:00:00 AM";"08:00 - 08:59";"08058";"Veelaan";"4.93961588";"52.36830916";"32"
"11/29/2021 12:00:00 AM";"08:00 - 08:59";"08059";"Veelaan";"4.93944523";"52.36776026";"27"
"11/29/2021 12:00:00 AM";"08:00 - 08:59";"08060";"Keizersgracht";"4.89833435";"52.36367901";"16"
"11/29/2021 12:00:00 AM";"08:00 - 08:59";"08066";"Frederiksplein";"4.89751569";"52.35937050";"37"
"11/29/2021 12:00:00 AM";"08:00 - 08:59";"08071";"Muntplein";"4.89312361";"52.36620989";"21"
"11/29/2021 12:00:00 AM";"08:00 - 08:59";"08072";"Vijzelgracht";"4.89159781";"52.35953462";"41"
"11/29/2021 12:00:00 AM";"08:00 - 08:59";"08073";"Vijzelgracht";"4.89227386";"52.35946554";"38"
"11/29/2021 12:00:00 AM";"08:00 - 08:59";"08080";"Spiegelgracht";"4.88691222";"52.36106979";"104"
"11/29/2021 12:00:00 AM";"08:00 - 08:59";"08086";"Muntplein";"4.89308297";"52.36590414";"24"
"11/29/2021 12:00:00 AM";"08:00 - 08:59";"08094";"Wijttenbachstraat";"4.92547668";"52.35979743";"13"
"11/29/2021 12:00:00 AM";"08:00 - 08:59";"08095";"Alexanderplein";"4.91969863";"52.36341478";"25"
"11/29/2021 12:00:00 AM";"08:00 - 08:59";"08096";"Alexanderplein";"4.91931589";"52.36351213";"12"
"11/29/2021 12:00:00 AM";"08:00 - 08:59";"08097";"1e v.Swindenstraat";"4.92412105";"52.36168854";"20"
"11/29/2021 12:00:00 AM";"08:00 - 08:59";"08098";"1e v.Swindenstraat";"4.92386708";"52.36210997";"11"
"11/29/2021 12:00:00 AM";"08:00 - 08:59";"08113";"Javaplein";"4.93949828";"52.36395867";"14"
"11/29/2021 12:00:00 AM";"08:00 - 08:59";"08114";"Javaplein";"4.93955537";"52.36412066";"12"
"11/29/2021 12:00:00 AM";"08:00 - 08:59";"08120";"Insulindeweg";"4.94763926";"52.36469021";"38"
"11/29/2021 12:00:00 AM";"08:00 - 08:59";"08121";"Soembawastraat";"4.94391980";"52.36224967";"32"
"11/29/2021 12:00:00 AM";"08:00 - 08:59";"08124";"Soembawastraat";"4.94346569";"52.36214910";"44"
"11/29/2021 12:00:00 AM";"08:00 - 08:59";"08129";"Molukkenstraat";"4.93861286";"52.36150167";"43"
"11/29/2021 12:00:00 AM";"08:00 - 08:59";"08132";"Valentijnkade";"4.94079607";"52.35900236";"12"
"11/29/2021 12:00:00 AM";"08:00 - 08:59";"08138";"Zuiderzeeweg";"4.96218432";"52.37129534";"41"
"11/29/2021 12:00:00 AM";"08:00 - 08:59";"08139";"Zuiderzeeweg";"4.96240105";"52.37166461";"39"
"11/29/2021 12:00:00 AM";"08:00 - 08:59";"08179";"K. 's-Gravesandestr.";"4.91480799";"52.36220000";"35"
"11/29/2021 12:00:00 AM";"08:00 - 08:59";"08183";"Het Funen";"4.93160770";"52.36746073";"12"
"11/29/2021 12:00:00 AM";"08:00 - 08:59";"08190";"Molukkenstraat";"4.93934614";"52.36157635";"20"
"11/29/2021 12:00:00 AM";"08:00 - 08:59";"08195";"Oostenburgergracht";"4.92452709";"52.36780177";"20"
"11/29/2021 12:00:00 AM";"08:00 - 08:59";"08219";"Borneolaan";"4.93862058";"52.37090283";"15"
"11/29/2021 12:00:00 AM";"08:00 - 08:59";"08222";"Peter Martensstraat";"5.01391391";"52.34882079";"11"
"11/29/2021 12:00:00 AM";"08:00 - 08:59";"08233";"C. van Eesterenlaan";"4.93812487";"52.37345346";"17"
"11/29/2021 12:00:00 AM";"08:00 - 08:59";"08235";"Muziekgeb. Bimhuis";"4.91290020";"52.37723779";"23"
"11/29/2021 12:00:00 AM";"08:00 - 08:59";"08237";"Kattenburgerstraat";"4.92126795";"52.37614755";"49"
"11/29/2021 12:00:00 AM";"08:00 - 08:59";"08238";"Rietlandpark";"4.93350159";"52.37322013";"38"
"11/29/2021 12:00:00 AM";"08:00 - 08:59";"08239";"Rietlandpark";"4.93413567";"52.37296191";"73"
"11/29/2021 12:00:00 AM";"08:00 - 08:59";"08241";"Zuiderzeeweg";"4.96185517";"52.37193228";"26"
"11/29/2021 12:00:00 AM";"08:00 - 08:59";"08244";"Steigereiland";"4.98083725";"52.36280456";"15"
"11/29/2021 12:00:00 AM";"08:00 - 08:59";"08245";"Steigereiland";"4.98012952";"52.36313467";"57"
"11/29/2021 12:00:00 AM";"08:00 - 08:59";"08247";"Vennepluimstraat";"4.99057242";"52.35769662";"26"
"11/29/2021 12:00:00 AM";"08:00 - 08:59";"08249";"Diemerparklaan";"4.99499716";"52.35532962";"40"
"11/29/2021 12:00:00 AM";"08:00 - 08:59";"08251";"Lumi?restraat";"4.99942127";"52.35298044";"16"
"11/29/2021 12:00:00 AM";"08:00 - 08:59";"08255";"Hoogte Kadijk";"4.92483038";"52.36687722";"15"
"11/29/2021 12:00:00 AM";"08:00 - 08:59";"08257";"1e Coehoornstraat";"4.92618328";"52.36808685";"20"
"11/29/2021 12:00:00 AM";"08:00 - 08:59";"08259";"1e Leeghwaterstraat";"4.93004964";"52.37047459";"35"
"11/29/2021 12:00:00 AM";"08:00 - 08:59";"08261";"Rietlandpark";"4.93481067";"52.37300943";"17"
"11/29/2021 12:00:00 AM";"08:00 - 08:59";"08262";"IJburg";"5.00486802";"52.35112872";"190"
"11/29/2021 12:00:00 AM";"08:00 - 08:59";"08270";"Diemerparklaan";"4.99472994";"52.35567027";"14"
"11/29/2021 12:00:00 AM";"08:00 - 08:59";"08281";"Vennepluimstraat";"4.99139941";"52.35714215";"12"
"11/29/2021 12:00:00 AM";"08:00 - 08:59";"08286";"Lumierestraat";"4.99915409";"52.35332109";"12"
"11/29/2021 12:00:00 AM";"08:00 - 08:59";"08300";"P.Oosterhuisstraat";"5.00693059";"52.35193526";"79"
"11/29/2021 12:00:00 AM";"08:00 - 08:59";"09003";"Dintelstraat";"4.89289498";"52.34192405";"29"
"11/29/2021 12:00:00 AM";"08:00 - 08:59";"09004";"Europaplein";"4.89216887";"52.33992574";"10"
"11/29/2021 12:00:00 AM";"08:00 - 08:59";"09013";"Amstelstation";"4.91790223";"52.34725673";"30"
"11/29/2021 12:00:00 AM";"08:00 - 08:59";"09015";"Amstelstation";"4.91940405";"52.34679531";"15"
"11/29/2021 12:00:00 AM";"08:00 - 08:59";"09016";"Amstelstation";"4.91953925";"52.34649925";"22"
"11/29/2021 12:00:00 AM";"08:00 - 08:59";"09020";"Wibautstraat";"4.90928242";"52.35726154";"16"
"11/29/2021 12:00:00 AM";"08:00 - 08:59";"09023";"Camperstraat";"4.91383551";"52.35840330";"10"
"11/29/2021 12:00:00 AM";"08:00 - 08:59";"09026";"Amstelstation";"4.91874992";"52.34619953";"22"
"11/29/2021 12:00:00 AM";"08:00 - 08:59";"09027";"Wibautstraat";"4.90986831";"52.35738074";"18"
"11/29/2021 12:00:00 AM";"08:00 - 08:59";"09028";"Amstelstation";"4.91867673";"52.34618127";"10"
"11/29/2021 12:00:00 AM";"08:00 - 08:59";"09048";"Victorieplein";"4.90511195";"52.34659416";"12"
"11/29/2021 12:00:00 AM";"08:00 - 08:59";"09049";"Victorieplein";"4.90570139";"52.34637186";"40"
"11/29/2021 12:00:00 AM";"08:00 - 08:59";"09051";"Victorieplein";"4.90653699";"52.34645615";"29"
"11/29/2021 12:00:00 AM";"08:00 - 08:59";"09060";"Waalstraat";"4.90103893";"52.34462715";"18"
"11/29/2021 12:00:00 AM";"08:00 - 08:59";"09061";"Waalstraat";"4.90060087";"52.34442762";"12"
"11/29/2021 12:00:00 AM";"08:00 - 08:59";"09064";"Pres. Kennedylaan";"4.90174037";"52.34087315";"16"
"11/29/2021 12:00:00 AM";"08:00 - 08:59";"09065";"Pres. Kennedylaan";"4.90190089";"52.34095470";"15"
"11/29/2021 12:00:00 AM";"08:00 - 08:59";"09068";"Maasstraat";"4.89636198";"52.34290018";"10"
"11/29/2021 12:00:00 AM";"08:00 - 08:59";"09073";"Scheldeplein";"4.89113518";"52.34445124";"17"
"11/29/2021 12:00:00 AM";"08:00 - 08:59";"09078";"Maasstraat";"4.89476308";"52.34681220";"12"
"11/29/2021 12:00:00 AM";"08:00 - 08:59";"09079";"Maasstraat";"4.89545003";"52.34706671";"13"
"11/29/2021 12:00:00 AM";"08:00 - 08:59";"09082";"Waalstraat";"4.89974094";"52.34656317";"45"
"11/29/2021 12:00:00 AM";"08:00 - 08:59";"09083";"Waalstraat";"4.90032528";"52.34680824";"45"
"11/29/2021 12:00:00 AM";"08:00 - 08:59";"09088";"Amstelkade";"4.90406932";"52.34934914";"22"
"11/29/2021 12:00:00 AM";"08:00 - 08:59";"09091";"Lutmastraat";"4.90313216";"52.35184391";"16"
"11/29/2021 12:00:00 AM";"08:00 - 08:59";"09096";"Van Woustraat";"4.90163035";"52.35495650";"26"
"11/29/2021 12:00:00 AM";"08:00 - 08:59";"09097";"Van Woustraat";"4.90084070";"52.35468363";"68"
"11/29/2021 12:00:00 AM";"08:00 - 08:59";"09108";"2e v.d.Helststraat";"4.89423729";"52.35319131";"27"
"11/29/2021 12:00:00 AM";"08:00 - 08:59";"09109";"2e v.d.Helststraat";"4.89488170";"52.35331982";"25"
"11/29/2021 12:00:00 AM";"08:00 - 08:59";"09111";"De Pijp";"4.89073444";"52.35272728";"48"
"11/29/2021 12:00:00 AM";"08:00 - 08:59";"09114";"De Pijp";"4.88948829";"52.35259622";"33"
"11/29/2021 12:00:00 AM";"08:00 - 08:59";"09120";"Cornelis Troostplein";"4.89161100";"52.35046604";"36"
"11/29/2021 12:00:00 AM";"08:00 - 08:59";"09139";"Amsteldijk";"4.91124086";"52.34711329";"11"
"11/29/2021 12:00:00 AM";"08:00 - 08:59";"09140";"Amsteldijk";"4.91055179";"52.34704760";"11"
"11/29/2021 12:00:00 AM";"08:00 - 08:59";"09175";"James Wattstraat";"4.92275924";"52.35153607";"11"
"11/29/2021 12:00:00 AM";"08:00 - 08:59";"09176";"James Wattstraat";"4.92329155";"52.35116068";"74"
"11/29/2021 12:00:00 AM";"08:00 - 08:59";"ASA";"Amstelstation";"4.91751426";"52.34647326";"724"
"11/29/2021 12:00:00 AM";"08:00 - 08:59";"ASW";"Amstelveenseweg";"4.85798324";"52.33836671";"768"
"11/29/2021 12:00:00 AM";"08:00 - 08:59";"BLW";"Bullewijk";"4.95233581";"52.30642205";"149"
"11/29/2021 12:00:00 AM";"08:00 - 08:59";"BMR";"Station Bijlmer ArenA";"4.94713474";"52.31193030";"792"
"11/29/2021 12:00:00 AM";"08:00 - 08:59";"CLL";"Station Lelylaan";"4.83426589";"52.35766291";"258"
"11/29/2021 12:00:00 AM";"08:00 - 08:59";"CS";"Centraal Station";"4.90078150";"52.37749421";"1099"
"11/29/2021 12:00:00 AM";"08:00 - 08:59";"DMZ";"Station Diemen-Zuid";"4.95713273";"52.33042795";"62"
"11/29/2021 12:00:00 AM";"08:00 - 08:59";"DPP";"De Pijp";"4.89101069";"52.35296212";"514"
"11/29/2021 12:00:00 AM";"08:00 - 08:59";"DVD";"Station Duivendrecht";"4.93678429";"52.32325190";"138"
"11/29/2021 12:00:00 AM";"08:00 - 08:59";"EPP";"Europaplein";"4.89138430";"52.34185482";"581"
"11/29/2021 12:00:00 AM";"08:00 - 08:59";"GN";"Gein";"4.98952268";"52.29627089";"92"
"11/29/2021 12:00:00 AM";"08:00 - 08:59";"GPP";"Gaasperplas";"4.98468551";"52.31080575";"39"
"11/29/2021 12:00:00 AM";"08:00 - 08:59";"GZH";"Station Ganzenhoef";"4.97323379";"52.32331315";"73"
"11/29/2021 12:00:00 AM";"08:00 - 08:59";"HDS";"Heemstedestraat";"4.83421208";"52.35255760";"150"
"11/29/2021 12:00:00 AM";"08:00 - 08:59";"HLD";"Station Holendrecht";"4.96021904";"52.29780451";"802"
"11/29/2021 12:00:00 AM";"08:00 - 08:59";"HVW";"Henk Sneevlietweg";"4.83439318";"52.34626699";"794"
"11/29/2021 12:00:00 AM";"08:00 - 08:59";"ITW";"Isolatorweg";"4.85013475";"52.39523277";"411"
"11/29/2021 12:00:00 AM";"08:00 - 08:59";"JLS";"Jan v.Galenstraat";"4.83492461";"52.37196551";"551"
"11/29/2021 12:00:00 AM";"08:00 - 08:59";"KEN";"Kraaienneststation";"4.97963450";"52.31632492";"50"
"11/29/2021 12:00:00 AM";"08:00 - 08:59";"MDW";"Van der Madeweg";"4.93048657";"52.32945629";"178"
"11/29/2021 12:00:00 AM";"08:00 - 08:59";"ND";"Noord";"4.93123182";"52.40117202";"315"
"11/29/2021 12:00:00 AM";"08:00 - 08:59";"NDP";"Noorderpark";"4.91789115";"52.38855518";"285"
"11/29/2021 12:00:00 AM";"08:00 - 08:59";"NMT";"Nieuwmarkt";"4.90123885";"52.37194169";"232"
"11/29/2021 12:00:00 AM";"08:00 - 08:59";"OAS";"Overamstel";"4.91815361";"52.33179879";"184"
"11/29/2021 12:00:00 AM";"08:00 - 08:59";"PJW";"Postjesweg";"4.83385543";"52.36468044";"345"
"11/29/2021 12:00:00 AM";"08:00 - 08:59";"RAI";"Station RAI";"4.88982004";"52.33739931";"416"
"11/29/2021 12:00:00 AM";"08:00 - 08:59";"RGB";"Reigersbos";"4.97473728";"52.29566301";"255"
"11/29/2021 12:00:00 AM";"08:00 - 08:59";"RKN";"Rokin";"4.89229651";"52.36928023";"645"
"11/29/2021 12:00:00 AM";"08:00 - 08:59";"SLW";"Spaklerweg";"4.92085640";"52.33986250";"206"
"11/29/2021 12:00:00 AM";"08:00 - 08:59";"STD";"Station Sloterdijk";"4.83878389";"52.38880848";"393"
"11/29/2021 12:00:00 AM";"08:00 - 08:59";"SVT";"Strandvliet";"4.94152820";"52.31825469";"219"
"11/29/2021 12:00:00 AM";"08:00 - 08:59";"VLN";"Burg.de Vlugtlaan";"4.83809109";"52.37951196";"78"
"11/29/2021 12:00:00 AM";"08:00 - 08:59";"VPD";"Venserpolder";"4.94665009";"52.32679428";"86"
"11/29/2021 12:00:00 AM";"08:00 - 08:59";"VSW";"Verrijn Stuartweg";"4.96693669";"52.32844093";"89"
"11/29/2021 12:00:00 AM";"08:00 - 08:59";"VZG";"Vijzelgracht";"4.89072870";"52.35980061";"417"
"11/29/2021 12:00:00 AM";"08:00 - 08:59";"WBS";"Wibautstraat";"4.91202993";"52.35428867";"389"
"11/29/2021 12:00:00 AM";"08:00 - 08:59";"WLP";"Waterlooplein";"4.90298171";"52.36697862";"523"
"11/29/2021 12:00:00 AM";"08:00 - 08:59";"WPP";"Weesperplein";"4.90787469";"52.36120146";"1350"
"11/29/2021 12:00:00 AM";"08:00 - 08:59";"WTC";"Station Zuid";"4.87509853";"52.33908015";"1940"
"11/29/2021 12:00:00 AM";"09:00 - 09:59";"";"Overig";"";"";"2113"
"11/29/2021 12:00:00 AM";"09:00 - 09:59";"[[ Onb";"[[ Onbekend ]]";"0.00000000";"0.00000000";"599"
"11/29/2021 12:00:00 AM";"09:00 - 09:59";"00001";"Muiderpoortstation";"4.93287450";"52.36132700";"12"
"11/29/2021 12:00:00 AM";"09:00 - 09:59";"00005";"Muiderpoortstation";"4.93280219";"52.36121887";"50"
"11/29/2021 12:00:00 AM";"09:00 - 09:59";"00007";"Muiderpoortstation";"4.93356602";"52.36117686";"16"
"11/29/2021 12:00:00 AM";"09:00 - 09:59";"00008";"Dapperstraat";"4.92977913";"52.36110836";"58"
"11/29/2021 12:00:00 AM";"09:00 - 09:59";"00010";"Dapperstraat";"4.92891486";"52.36092527";"36"
"11/29/2021 12:00:00 AM";"09:00 - 09:59";"00017";"Linnaeusstraat";"4.92573745";"52.36013099";"15"
"11/29/2021 12:00:00 AM";"09:00 - 09:59";"00018";"Diemerknoop";"5.00286153";"52.33537576";"13"
"11/29/2021 12:00:00 AM";"09:00 - 09:59";"00019";"Diemerknoop";"5.00296377";"52.33543002";"10"
"11/29/2021 12:00:00 AM";"09:00 - 09:59";"00020";"Beukenweg";"4.91674979";"52.35906203";"36"
"11/29/2021 12:00:00 AM";"09:00 - 09:59";"00021";"Beukenweg";"4.91721293";"52.35829991";"52"
"11/29/2021 12:00:00 AM";"09:00 - 09:59";"00023";"Beukenplein";"4.91809259";"52.35701816";"34"
"11/29/2021 12:00:00 AM";"09:00 - 09:59";"00029";"Oostpoort";"4.92719316";"52.35707185";"82"
"11/29/2021 12:00:00 AM";"09:00 - 09:59";"00030";"Oostpoort";"4.92694026";"52.35739442";"42"
"11/29/2021 12:00:00 AM";"09:00 - 09:59";"00039";"Hogeweg";"4.93084015";"52.35358075";"11"
"11/29/2021 12:00:00 AM";"09:00 - 09:59";"00040";"Hogeweg";"4.93135765";"52.35321425";"27"
"11/29/2021 12:00:00 AM";"09:00 - 09:59";"00053";"Kruislaan";"4.93967974";"52.34742196";"10"
"11/29/2021 12:00:00 AM";"09:00 - 09:59";"00059";"Radioweg";"4.93945830";"52.35337100";"26"
"11/29/2021 12:00:00 AM";"09:00 - 09:59";"00070";"Kruislaan";"4.93993910";"52.34789929";"13"
"11/29/2021 12:00:00 AM";"09:00 - 09:59";"00074";"Brinkstraat";"4.94797289";"52.34285131";"16"
"11/29/2021 12:00:00 AM";"09:00 - 09:59";"00114";"Dennenrode";"4.95213839";"52.32209601";"16"
"11/29/2021 12:00:00 AM";"09:00 - 09:59";"00116";"Station Ganzenhoef";"4.97272915";"52.32237665";"10"
"11/29/2021 12:00:00 AM";"09:00 - 09:59";"00141";"Kraaienneststation";"4.97868390";"52.31603403";"25"
"11/29/2021 12:00:00 AM";"09:00 - 09:59";"00146";"Gooioord";"4.96906535";"52.32048532";"10"
"11/29/2021 12:00:00 AM";"09:00 - 09:59";"00150";"Tulastraat";"4.96535973";"52.31994189";"56"
"11/29/2021 12:00:00 AM";"09:00 - 09:59";"00151";"Tulastraat";"4.96584458";"52.31985374";"41"
"11/29/2021 12:00:00 AM";"09:00 - 09:59";"00152";"Florijn";"4.95859163";"52.31758973";"11"
"11/29/2021 12:00:00 AM";"09:00 - 09:59";"00197";"Annie Romeinplein";"4.97162041";"52.32173463";"23"
"11/29/2021 12:00:00 AM";"09:00 - 09:59";"00199";"Station Ganzenhoef";"4.97329456";"52.32308866";"13"
"11/29/2021 12:00:00 AM";"09:00 - 09:59";"00205";"Station Holendrecht";"4.95865657";"52.29716971";"11"
"11/29/2021 12:00:00 AM";"09:00 - 09:59";"00238";"Anton de Komplein";"4.95413359";"52.31603659";"33"
"11/29/2021 12:00:00 AM";"09:00 - 09:59";"00239";"Anton de Komplein";"4.95597669";"52.31652866";"34"
"11/29/2021 12:00:00 AM";"09:00 - 09:59";"00330";"Middenweg";"4.93455629";"52.35044932";"11"
"11/29/2021 12:00:00 AM";"09:00 - 09:59";"00351";"Dostojevskisingel";"4.94525272";"52.32275356";"17"
"11/29/2021 12:00:00 AM";"09:00 - 09:59";"00432";"Diemerbrug";"4.96142958";"52.33824484";"18"
"11/29/2021 12:00:00 AM";"09:00 - 09:59";"00434";"Bijlmerplein";"4.95032022";"52.31457553";"10"
"11/29/2021 12:00:00 AM";"09:00 - 09:59";"00441";"Muiderpoortstation";"4.93254137";"52.36088532";"16"
"11/29/2021 12:00:00 AM";"09:00 - 09:59";"00444";"Linnaeusstraat";"4.92490296";"52.35991203";"34"
"11/29/2021 12:00:00 AM";"09:00 - 09:59";"00453";"Diemen Sniep";"4.96964866";"52.33644962";"24"
"11/29/2021 12:00:00 AM";"09:00 - 09:59";"00464";"Hogeschool InHolland";"4.95958754";"52.32687769";"31"
"11/29/2021 12:00:00 AM";"09:00 - 09:59";"00497";"Science Park Aqua";"4.95413917";"52.35608598";"19"
"11/29/2021 12:00:00 AM";"09:00 - 09:59";"00506";"Science Park Terra";"4.95831008";"52.35434856";"106"
"11/29/2021 12:00:00 AM";"09:00 - 09:59";"00515";"Station Duivendrecht";"4.93669692";"52.32318866";"14"
"11/29/2021 12:00:00 AM";"09:00 - 09:59";"00518";"Foppingadreef";"4.94967889";"52.31268573";"24"
"11/29/2021 12:00:00 AM";"09:00 - 09:59";"00538";"Station Science Park";"4.94808393";"52.35239669";"30"
"11/29/2021 12:00:00 AM";"09:00 - 09:59";"00554";"Science Park";"4.95088162";"52.35447420";"13"
"11/29/2021 12:00:00 AM";"09:00 - 09:59";"00555";"Science Park";"4.95033473";"52.35485866";"25"
"11/29/2021 12:00:00 AM";"09:00 - 09:59";"00560";"Station Bijlmer ArenA";"4.94747867";"52.31125750";"19"
"11/29/2021 12:00:00 AM";"09:00 - 09:59";"00561";"Station Bijlmer ArenA";"4.94741931";"52.31132918";"42"
"11/29/2021 12:00:00 AM";"09:00 - 09:59";"00562";"Station Bijlmer ArenA";"4.94736012";"52.31138289";"28"
"11/29/2021 12:00:00 AM";"09:00 - 09:59";"00568";"Station Bijlmer ArenA";"4.94762664";"52.31112323";"22"
"11/29/2021 12:00:00 AM";"09:00 - 09:59";"00651";"Casparuslaan";"5.03531862";"52.30911571";"16"
"11/29/2021 12:00:00 AM";"09:00 - 09:59";"01005";"Volendammerweg";"4.95680438";"52.39306199";"13"
"11/29/2021 12:00:00 AM";"09:00 - 09:59";"01007";"Purmerweg";"4.94871052";"52.38999448";"10"
"11/29/2021 12:00:00 AM";"09:00 - 09:59";"01076";"Waterlandplein";"4.95247364";"52.39274059";"15"
"11/29/2021 12:00:00 AM";"09:00 - 09:59";"01110";"Rode Kruisstraat";"4.92847908";"52.39455548";"41"
"11/29/2021 12:00:00 AM";"09:00 - 09:59";"01111";"Rode Kruisstraat";"4.92881363";"52.39488033";"90"
"11/29/2021 12:00:00 AM";"09:00 - 09:59";"01116";"Merelstraat";"4.92492850";"52.38986809";"12"
"11/29/2021 12:00:00 AM";"09:00 - 09:59";"01117";"Merelstraat";"4.92505977";"52.38995848";"32"
"11/29/2021 12:00:00 AM";"09:00 - 09:59";"01133";"Grasweg";"4.90487021";"52.38909605";"10"
"11/29/2021 12:00:00 AM";"09:00 - 09:59";"01191";"Pinksterbloemstraat";"4.91203754";"52.39881372";"13"
"11/29/2021 12:00:00 AM";"09:00 - 09:59";"01237";"Beemsterstraat";"4.95210741";"52.39712521";"16"
"11/29/2021 12:00:00 AM";"09:00 - 09:59";"01278";"Statenjachtstraat";"4.91380643";"52.40790731";"12"
"11/29/2021 12:00:00 AM";"09:00 - 09:59";"01305";"Station Noord";"4.93215715";"52.40264056";"22"
"11/29/2021 12:00:00 AM";"09:00 - 09:59";"01316";"Station Noord";"4.93336820";"52.40204304";"39"
"11/29/2021 12:00:00 AM";"09:00 - 09:59";"01352";"Oosterlengte";"4.92206974";"52.40611555";"15"
"11/29/2021 12:00:00 AM";"09:00 - 09:59";"01363";"Buikslotermeerplein";"4.93968364";"52.39943369";"19"
"11/29/2021 12:00:00 AM";"09:00 - 09:59";"01364";"Buikslotermeerplein";"4.93887054";"52.39992493";"10"
"11/29/2021 12:00:00 AM";"09:00 - 09:59";"01365";"Atat?rk";"4.89794256";"52.40319625";"11"
"11/29/2021 12:00:00 AM";"09:00 - 09:59";"01402";"Floraweg";"4.90614362";"52.39899665";"21"
"11/29/2021 12:00:00 AM";"09:00 - 09:59";"01414";"Olof Palmeplein";"4.94012168";"52.39679298";"10"
"11/29/2021 12:00:00 AM";"09:00 - 09:59";"01422";"Noorderpark";"4.91956087";"52.38902016";"15"
"11/29/2021 12:00:00 AM";"09:00 - 09:59";"01426";"Distelweg";"4.90313401";"52.39473323";"20"
"11/29/2021 12:00:00 AM";"09:00 - 09:59";"01443";"Volendammerweg";"4.95697086";"52.39255928";"11"
"11/29/2021 12:00:00 AM";"09:00 - 09:59";"02010";"Koivistokade";"4.87631267";"52.39805387";"126"
"11/29/2021 12:00:00 AM";"09:00 - 09:59";"02064";"Kabelweg";"4.84827817";"52.39205168";"11"
"11/29/2021 12:00:00 AM";"09:00 - 09:59";"02089";"Vredenhof";"4.86238820";"52.38527541";"10"
"11/29/2021 12:00:00 AM";"09:00 - 09:59";"02099";"Zaanstraat";"4.86990824";"52.39287613";"10"
"11/29/2021 12:00:00 AM";"09:00 - 09:59";"02103";"Spaarndammerstraat";"4.87765867";"52.39216375";"36"
"11/29/2021 12:00:00 AM";"09:00 - 09:59";"02106";"Assendelftstraat";"4.87943840";"52.38941217";"18"
"11/29/2021 12:00:00 AM";"09:00 - 09:59";"02112";"Nassauplein";"4.88149625";"52.38543943";"12"
"11/29/2021 12:00:00 AM";"09:00 - 09:59";"02113";"Haarlemmerplein";"4.88371739";"52.38516129";"34"
"11/29/2021 12:00:00 AM";"09:00 - 09:59";"02114";"Haarlemmerplein";"4.88341252";"52.38484542";"38"
"11/29/2021 12:00:00 AM";"09:00 - 09:59";"02128";"G. v.Ledenberchstraat";"4.87062828";"52.37520945";"10"
"11/29/2021 12:00:00 AM";"09:00 - 09:59";"02130";"Hugo de Grootplein";"4.87259092";"52.37439113";"17"
"11/29/2021 12:00:00 AM";"09:00 - 09:59";"02132";"Fred. Hendrikplants.";"4.87543499";"52.37862768";"29"
"11/29/2021 12:00:00 AM";"09:00 - 09:59";"02133";"Fred. Hendrikplants.";"4.87521709";"52.37842002";"14"
"11/29/2021 12:00:00 AM";"09:00 - 09:59";"02140";"Van Beuningenplein";"4.87111633";"52.38122436";"14"
"11/29/2021 12:00:00 AM";"09:00 - 09:59";"02142";"V.d. Hoopstraat";"4.87031312";"52.38335094";"13"
"11/29/2021 12:00:00 AM";"09:00 - 09:59";"02145";"Van Hallstraat";"4.86990682";"52.38418503";"12"
"11/29/2021 12:00:00 AM";"09:00 - 09:59";"02149";"Van L.Stirumstraat";"4.87489798";"52.38443141";"11"
"11/29/2021 12:00:00 AM";"09:00 - 09:59";"02151";"De Wittenkade";"4.87695310";"52.38326290";"12"
"11/29/2021 12:00:00 AM";"09:00 - 09:59";"02153";"Nassaukade";"4.87920791";"52.38132226";"13"
"11/29/2021 12:00:00 AM";"09:00 - 09:59";"02155";"Willem de Zwijgerlaan";"4.86360306";"52.37071170";"40"
"11/29/2021 12:00:00 AM";"09:00 - 09:59";"02156";"Willem de Zwijgerlaan";"4.86425293";"52.37039101";"24"
"11/29/2021 12:00:00 AM";"09:00 - 09:59";"02157";"Adm. de Ruijterweg";"4.86009910";"52.37148707";"25"
"11/29/2021 12:00:00 AM";"09:00 - 09:59";"02158";"Adm. de Ruijterweg";"4.86096776";"52.37129320";"26"
"11/29/2021 12:00:00 AM";"09:00 - 09:59";"02166";"Bos en Lommerweg";"4.85548704";"52.38016657";"19"
"11/29/2021 12:00:00 AM";"09:00 - 09:59";"02168";"Haparandaweg";"4.87311908";"52.39470562";"61"
"11/29/2021 12:00:00 AM";"09:00 - 09:59";"02170";"Spaarndammerstraat";"4.87723089";"52.39231470";"20"
"11/29/2021 12:00:00 AM";"09:00 - 09:59";"02172";"Molenwerf";"4.84552895";"52.38620612";"11"
"11/29/2021 12:00:00 AM";"09:00 - 09:59";"02177";"Bos en Lommerweg";"4.85516829";"52.38102795";"11"
"11/29/2021 12:00:00 AM";"09:00 - 09:59";"02182";"Markthallen";"4.86695146";"52.37567869";"77"
"11/29/2021 12:00:00 AM";"09:00 - 09:59";"02183";"Markthallen";"4.86667150";"52.37575835";"19"
"11/29/2021 12:00:00 AM";"09:00 - 09:59";"02184";"Jan v.Galenstraat";"4.86033817";"52.37484954";"13"
"11/29/2021 12:00:00 AM";"09:00 - 09:59";"02193";"Marnixplein";"4.87844490";"52.37741832";"34"
"11/29/2021 12:00:00 AM";"09:00 - 09:59";"02199";"Eerste Marnixdwarsstraat";"4.88203787";"52.38302405";"17"
"11/29/2021 12:00:00 AM";"09:00 - 09:59";"02222";"Jan van Galenstraat";"4.85874763";"52.37399761";"20"
"11/29/2021 12:00:00 AM";"09:00 - 09:59";"02259";"Contactweg";"4.85657970";"52.39195435";"137"
"11/29/2021 12:00:00 AM";"09:00 - 09:59";"02260";"Contactweg";"4.85432952";"52.39215995";"41"
"11/29/2021 12:00:00 AM";"09:00 - 09:59";"02301";"Fred. Hendrikplants.";"4.87521585";"52.37852787";"37"
"11/29/2021 12:00:00 AM";"09:00 - 09:59";"02302";"Fred. Hendrikplants.";"4.87549415";"52.37859198";"33"
"11/29/2021 12:00:00 AM";"09:00 - 09:59";"02309";"Plesostraat";"4.82645527";"52.38795084";"20"
"11/29/2021 12:00:00 AM";"09:00 - 09:59";"02310";"Plesostraat";"4.82849791";"52.38788859";"10"
"11/29/2021 12:00:00 AM";"09:00 - 09:59";"02320";"Van Hallstraat";"4.86782303";"52.38527240";"11"
"11/29/2021 12:00:00 AM";"09:00 - 09:59";"02321";"Van Hallstraat";"4.86864429";"52.38538386";"30"
"11/29/2021 12:00:00 AM";"09:00 - 09:59";"02360";"Station Sloterdijk";"4.83827278";"52.38856344";"13"
"11/29/2021 12:00:00 AM";"09:00 - 09:59";"02361";"Station Sloterdijk";"4.83931858";"52.38833460";"53"
"11/29/2021 12:00:00 AM";"09:00 - 09:59";"02365";"Station Sloterdijk";"4.83873236";"52.38822404";"36"
