"Datum";"UurgroepOmschrijving (van aankomst)";"AankomstHalteCode";"AankomstHalteNaam";"AankomstLat";"AankomstLon";"AantalReizen"
"6/23/2020 12:00:00 AM";"13:00 - 13:59";"";"Overig";"";"";"1"
"10/19/2020 12:00:00 AM";"00:00 - 00:59";"";"Overig";"";"";"3"
"10/19/2020 12:00:00 AM";"01:00 - 01:59";"";"Overig";"";"";"42"
"10/19/2020 12:00:00 AM";"02:00 - 02:59";"";"Overig";"";"";"50"
"10/19/2020 12:00:00 AM";"03:00 - 03:59";"";"Overig";"";"";"30"
"10/19/2020 12:00:00 AM";"04:00 - 04:59";"";"Overig";"";"";"54"
"10/19/2020 12:00:00 AM";"05:00 - 05:59";"";"Overig";"";"";"326"
"10/19/2020 12:00:00 AM";"05:00 - 05:59";"[[ Onb";"[[ Onbekend ]]";"0.00000000";"0.00000000";"13"
"10/19/2020 12:00:00 AM";"05:00 - 05:59";"04267";"Schiphol Airport/Plaza";"4.76139455";"52.30887344";"49"
"10/19/2020 12:00:00 AM";"05:00 - 05:59";"04379";"Knooppunt Schiphol Nrd";"4.79320459";"52.32276196";"35"
"10/19/2020 12:00:00 AM";"05:00 - 05:59";"BMR";"Station Bijlmer ArenA";"4.94713474";"52.31193030";"24"
"10/19/2020 12:00:00 AM";"05:00 - 05:59";"CS";"Centraal Station";"4.90078150";"52.37749421";"38"
"10/19/2020 12:00:00 AM";"05:00 - 05:59";"WTC";"Station Zuid";"4.87509853";"52.33908015";"12"
"10/19/2020 12:00:00 AM";"06:00 - 06:59";"";"Overig";"";"";"1413"
"10/19/2020 12:00:00 AM";"06:00 - 06:59";"[[ Onb";"[[ Onbekend ]]";"0.00000000";"0.00000000";"140"
"10/19/2020 12:00:00 AM";"06:00 - 06:59";"00434";"Bijlmerplein";"4.95032022";"52.31457553";"10"
"10/19/2020 12:00:00 AM";"06:00 - 06:59";"00453";"Diemen Sniep";"4.96964866";"52.33644962";"32"
"10/19/2020 12:00:00 AM";"06:00 - 06:59";"00491";"Science Park Aer";"4.95218495";"52.35478458";"12"
"10/19/2020 12:00:00 AM";"06:00 - 06:59";"00561";"Station Bijlmer ArenA";"4.94741931";"52.31132918";"11"
"10/19/2020 12:00:00 AM";"06:00 - 06:59";"00562";"Station Bijlmer ArenA";"4.94736012";"52.31138289";"14"
"10/19/2020 12:00:00 AM";"06:00 - 06:59";"00902";"Stammerkamp";"4.98344083";"52.33320797";"12"
"10/19/2020 12:00:00 AM";"06:00 - 06:59";"02018";"Koivistokade";"4.87577082";"52.39789874";"14"
"10/19/2020 12:00:00 AM";"06:00 - 06:59";"02103";"Spaarndammerstraat";"4.87765867";"52.39216375";"12"
"10/19/2020 12:00:00 AM";"06:00 - 06:59";"02311";"Seineweg";"4.81857317";"52.38632242";"41"
"10/19/2020 12:00:00 AM";"06:00 - 06:59";"02312";"Seineweg";"4.81892292";"52.38653981";"11"
"10/19/2020 12:00:00 AM";"06:00 - 06:59";"02361";"Station Sloterdijk";"4.83931858";"52.38833460";"26"
"10/19/2020 12:00:00 AM";"06:00 - 06:59";"02367";"Station Sloterdijk";"4.83876429";"52.38801747";"10"
"10/19/2020 12:00:00 AM";"06:00 - 06:59";"02368";"Station Sloterdijk";"4.83877999";"52.38793665";"17"
"10/19/2020 12:00:00 AM";"06:00 - 06:59";"02370";"Station Sloterdijk";"4.83879745";"52.38771204";"11"
"10/19/2020 12:00:00 AM";"06:00 - 06:59";"04050";"Meer en Vaart";"4.80994403";"52.35636940";"15"
"10/19/2020 12:00:00 AM";"06:00 - 06:59";"04195";"Station Lelylaan";"4.83460082";"52.35788018";"19"
"10/19/2020 12:00:00 AM";"06:00 - 06:59";"04267";"Schiphol Airport/Plaza";"4.76139455";"52.30887344";"25"
"10/19/2020 12:00:00 AM";"06:00 - 06:59";"04379";"Knooppunt Schiphol Nrd";"4.79320459";"52.32276196";"22"
"10/19/2020 12:00:00 AM";"06:00 - 06:59";"04402";"Matterhorn";"4.77477998";"52.35372103";"10"
"10/19/2020 12:00:00 AM";"06:00 - 06:59";"05011";"Centraal Station";"4.89921803";"52.37810793";"34"
"10/19/2020 12:00:00 AM";"06:00 - 06:59";"05022";"Centraal Station";"4.90104337";"52.37771998";"18"
"10/19/2020 12:00:00 AM";"06:00 - 06:59";"05065";"Dam";"4.89079364";"52.37367792";"11"
"10/19/2020 12:00:00 AM";"06:00 - 06:59";"05066";"Dam";"4.89027056";"52.37318140";"17"
"10/19/2020 12:00:00 AM";"06:00 - 06:59";"05103";"Centraal Station";"4.90127481";"52.37938365";"15"
"10/19/2020 12:00:00 AM";"06:00 - 06:59";"06028";"Elandsgracht";"4.87741694";"52.36974738";"10"
"10/19/2020 12:00:00 AM";"06:00 - 06:59";"06061";"Leidseplein";"4.88339576";"52.36305015";"11"
"10/19/2020 12:00:00 AM";"06:00 - 06:59";"06063";"Leidseplein";"4.88064547";"52.36476406";"14"
"10/19/2020 12:00:00 AM";"06:00 - 06:59";"06075";"Koningsplein";"4.88942793";"52.36713812";"11"
"10/19/2020 12:00:00 AM";"06:00 - 06:59";"06089";"Leidseplein";"4.88085541";"52.36309324";"19"
"10/19/2020 12:00:00 AM";"06:00 - 06:59";"07007";"Museumplein";"4.87950215";"52.35690388";"12"
"10/19/2020 12:00:00 AM";"06:00 - 06:59";"07049";"Hoofddorpplein";"4.84958188";"52.35117239";"10"
"10/19/2020 12:00:00 AM";"06:00 - 06:59";"07266";"Station Zuid";"4.87252654";"52.34070477";"10"
"10/19/2020 12:00:00 AM";"06:00 - 06:59";"07303";"VU medisch centrum";"4.86097062";"52.33515342";"23"
"10/19/2020 12:00:00 AM";"06:00 - 06:59";"07419";"Van Boshuizenstraat";"4.86896941";"52.32487971";"10"
"10/19/2020 12:00:00 AM";"06:00 - 06:59";"08045";"Weesperplein";"4.91074647";"52.36172535";"11"
"10/19/2020 12:00:00 AM";"06:00 - 06:59";"08080";"Spiegelgracht";"4.88691222";"52.36106979";"12"
"10/19/2020 12:00:00 AM";"06:00 - 06:59";"08235";"Muziekgeb. Bimhuis";"4.91290020";"52.37723779";"16"
"10/19/2020 12:00:00 AM";"06:00 - 06:59";"08238";"Rietlandpark";"4.93350159";"52.37322013";"16"
"10/19/2020 12:00:00 AM";"06:00 - 06:59";"08239";"Rietlandpark";"4.93413567";"52.37296191";"12"
"10/19/2020 12:00:00 AM";"06:00 - 06:59";"08259";"1e Leeghwaterstraat";"4.93004964";"52.37047459";"13"
"10/19/2020 12:00:00 AM";"06:00 - 06:59";"ASA";"Amstelstation";"4.91751426";"52.34647326";"93"
"10/19/2020 12:00:00 AM";"06:00 - 06:59";"ASW";"Amstelveenseweg";"4.85798324";"52.33836671";"129"
"10/19/2020 12:00:00 AM";"06:00 - 06:59";"BLW";"Bullewijk";"4.95233581";"52.30642205";"33"
"10/19/2020 12:00:00 AM";"06:00 - 06:59";"BMR";"Station Bijlmer ArenA";"4.94713474";"52.31193030";"143"
"10/19/2020 12:00:00 AM";"06:00 - 06:59";"CLL";"Station Lelylaan";"4.83426589";"52.35766291";"27"
"10/19/2020 12:00:00 AM";"06:00 - 06:59";"CS";"Centraal Station";"4.90078150";"52.37749421";"306"
"10/19/2020 12:00:00 AM";"06:00 - 06:59";"DMZ";"Station Diemen-Zuid";"4.95713273";"52.33042795";"17"
"10/19/2020 12:00:00 AM";"06:00 - 06:59";"DPP";"De Pijp";"4.89101069";"52.35296212";"33"
"10/19/2020 12:00:00 AM";"06:00 - 06:59";"DVD";"Station Duivendrecht";"4.93678429";"52.32325190";"40"
"10/19/2020 12:00:00 AM";"06:00 - 06:59";"EPP";"Europaplein";"4.89138430";"52.34185482";"30"
"10/19/2020 12:00:00 AM";"06:00 - 06:59";"GN";"Gein";"4.98952268";"52.29627089";"10"
"10/19/2020 12:00:00 AM";"06:00 - 06:59";"HDS";"Heemstedestraat";"4.83421208";"52.35255760";"20"
"10/19/2020 12:00:00 AM";"06:00 - 06:59";"HLD";"Station Holendrecht";"4.96021904";"52.29780451";"98"
"10/19/2020 12:00:00 AM";"06:00 - 06:59";"HVW";"Henk Sneevlietweg";"4.83439318";"52.34626699";"50"
"10/19/2020 12:00:00 AM";"06:00 - 06:59";"ITW";"Isolatorweg";"4.85013475";"52.39523277";"16"
"10/19/2020 12:00:00 AM";"06:00 - 06:59";"JLS";"Jan v.Galenstraat";"4.83492461";"52.37196551";"55"
"10/19/2020 12:00:00 AM";"06:00 - 06:59";"MDW";"Van der Madeweg";"4.93048657";"52.32945629";"37"
"10/19/2020 12:00:00 AM";"06:00 - 06:59";"ND";"Noord";"4.93123182";"52.40117202";"53"
"10/19/2020 12:00:00 AM";"06:00 - 06:59";"NDP";"Noorderpark";"4.91789115";"52.38855518";"31"
"10/19/2020 12:00:00 AM";"06:00 - 06:59";"NMT";"Nieuwmarkt";"4.90123885";"52.37194169";"48"
"10/19/2020 12:00:00 AM";"06:00 - 06:59";"OAS";"Overamstel";"4.91815361";"52.33179879";"36"
"10/19/2020 12:00:00 AM";"06:00 - 06:59";"PJW";"Postjesweg";"4.83385543";"52.36468044";"11"
"10/19/2020 12:00:00 AM";"06:00 - 06:59";"RAI";"Station RAI";"4.88982004";"52.33739931";"46"
"10/19/2020 12:00:00 AM";"06:00 - 06:59";"RGB";"Reigersbos";"4.97473728";"52.29566301";"14"
"10/19/2020 12:00:00 AM";"06:00 - 06:59";"RKN";"Rokin";"4.89229651";"52.36928023";"80"
"10/19/2020 12:00:00 AM";"06:00 - 06:59";"SLW";"Spaklerweg";"4.92085640";"52.33986250";"33"
"10/19/2020 12:00:00 AM";"06:00 - 06:59";"STD";"Station Sloterdijk";"4.83878389";"52.38880848";"139"
"10/19/2020 12:00:00 AM";"06:00 - 06:59";"SVT";"Strandvliet";"4.94152820";"52.31825469";"15"
"10/19/2020 12:00:00 AM";"06:00 - 06:59";"VLN";"Burg.de Vlugtlaan";"4.83809109";"52.37951196";"10"
"10/19/2020 12:00:00 AM";"06:00 - 06:59";"VSW";"Verrijn Stuartweg";"4.96693669";"52.32844093";"23"
"10/19/2020 12:00:00 AM";"06:00 - 06:59";"VZG";"Vijzelgracht";"4.89072870";"52.35980061";"37"
"10/19/2020 12:00:00 AM";"06:00 - 06:59";"WBS";"Wibautstraat";"4.91202993";"52.35428867";"58"
"10/19/2020 12:00:00 AM";"06:00 - 06:59";"WLP";"Waterlooplein";"4.90298171";"52.36697862";"89"
"10/19/2020 12:00:00 AM";"06:00 - 06:59";"WPP";"Weesperplein";"4.90787469";"52.36120146";"99"
"10/19/2020 12:00:00 AM";"06:00 - 06:59";"WTC";"Station Zuid";"4.87509853";"52.33908015";"261"
"10/19/2020 12:00:00 AM";"07:00 - 07:59";"";"Overig";"";"";"2332"
"10/19/2020 12:00:00 AM";"07:00 - 07:59";"[[ Onb";"[[ Onbekend ]]";"0.00000000";"0.00000000";"271"
"10/19/2020 12:00:00 AM";"07:00 - 07:59";"00005";"Muiderpoortstation";"4.93280219";"52.36121887";"18"
"10/19/2020 12:00:00 AM";"07:00 - 07:59";"00007";"Muiderpoortstation";"4.93356602";"52.36117686";"11"
"10/19/2020 12:00:00 AM";"07:00 - 07:59";"00008";"Dapperstraat";"4.92977913";"52.36110836";"12"
"10/19/2020 12:00:00 AM";"07:00 - 07:59";"00018";"Diemerknoop";"5.00286153";"52.33537576";"16"
"10/19/2020 12:00:00 AM";"07:00 - 07:59";"00020";"Beukenweg";"4.91674979";"52.35906203";"18"
"10/19/2020 12:00:00 AM";"07:00 - 07:59";"00021";"Beukenweg";"4.91721293";"52.35829991";"33"
"10/19/2020 12:00:00 AM";"07:00 - 07:59";"00023";"Beukenplein";"4.91809259";"52.35701816";"17"
"10/19/2020 12:00:00 AM";"07:00 - 07:59";"00029";"Oostpoort";"4.92719316";"52.35707185";"25"
"10/19/2020 12:00:00 AM";"07:00 - 07:59";"00030";"Oostpoort";"4.92694026";"52.35739442";"13"
"10/19/2020 12:00:00 AM";"07:00 - 07:59";"00039";"Hogeweg";"4.93084015";"52.35358075";"10"
"10/19/2020 12:00:00 AM";"07:00 - 07:59";"00150";"Tulastraat";"4.96535973";"52.31994189";"11"
"10/19/2020 12:00:00 AM";"07:00 - 07:59";"00205";"Station Holendrecht";"4.95865657";"52.29716971";"21"
"10/19/2020 12:00:00 AM";"07:00 - 07:59";"00432";"Diemerbrug";"4.96142958";"52.33824484";"13"
"10/19/2020 12:00:00 AM";"07:00 - 07:59";"00434";"Bijlmerplein";"4.95032022";"52.31457553";"24"
"10/19/2020 12:00:00 AM";"07:00 - 07:59";"00444";"Linnaeusstraat";"4.92490296";"52.35991203";"13"
"10/19/2020 12:00:00 AM";"07:00 - 07:59";"00453";"Diemen Sniep";"4.96964866";"52.33644962";"50"
"10/19/2020 12:00:00 AM";"07:00 - 07:59";"00560";"Station Bijlmer ArenA";"4.94747867";"52.31125750";"15"
"10/19/2020 12:00:00 AM";"07:00 - 07:59";"00561";"Station Bijlmer ArenA";"4.94741931";"52.31132918";"45"
"10/19/2020 12:00:00 AM";"07:00 - 07:59";"00568";"Station Bijlmer ArenA";"4.94762664";"52.31112323";"10"
"10/19/2020 12:00:00 AM";"07:00 - 07:59";"00665";"Station Weesp";"5.04383463";"52.31145059";"13"
"10/19/2020 12:00:00 AM";"07:00 - 07:59";"00985";"Winkelcentrum";"4.96422695";"52.34186794";"10"
"10/19/2020 12:00:00 AM";"07:00 - 07:59";"00999";"Vinkenbrug";"4.97831599";"52.33370267";"13"
"10/19/2020 12:00:00 AM";"07:00 - 07:59";"01111";"Rode Kruisstraat";"4.92881363";"52.39488033";"15"
"10/19/2020 12:00:00 AM";"07:00 - 07:59";"01212";"Oostzanerdijk";"4.88149588";"52.42023965";"12"
"10/19/2020 12:00:00 AM";"07:00 - 07:59";"01315";"Station Noord";"4.93339740";"52.40206112";"20"
"10/19/2020 12:00:00 AM";"07:00 - 07:59";"01352";"Oosterlengte";"4.92206974";"52.40611555";"11"
"10/19/2020 12:00:00 AM";"07:00 - 07:59";"01365";"Atat?rk";"4.89794256";"52.40319625";"21"
"10/19/2020 12:00:00 AM";"07:00 - 07:59";"01422";"Noorderpark";"4.91956087";"52.38902016";"12"
"10/19/2020 12:00:00 AM";"07:00 - 07:59";"02103";"Spaarndammerstraat";"4.87765867";"52.39216375";"19"
"10/19/2020 12:00:00 AM";"07:00 - 07:59";"02114";"Haarlemmerplein";"4.88341252";"52.38484542";"23"
"10/19/2020 12:00:00 AM";"07:00 - 07:59";"02156";"Willem de Zwijgerlaan";"4.86425293";"52.37039101";"15"
"10/19/2020 12:00:00 AM";"07:00 - 07:59";"02158";"Adm. de Ruijterweg";"4.86096776";"52.37129320";"15"
"10/19/2020 12:00:00 AM";"07:00 - 07:59";"02170";"Spaarndammerstraat";"4.87723089";"52.39231470";"11"
"10/19/2020 12:00:00 AM";"07:00 - 07:59";"02311";"Seineweg";"4.81857317";"52.38632242";"20"
"10/19/2020 12:00:00 AM";"07:00 - 07:59";"02361";"Station Sloterdijk";"4.83931858";"52.38833460";"47"
"10/19/2020 12:00:00 AM";"07:00 - 07:59";"02366";"Station Sloterdijk";"4.83873347";"52.38813416";"10"
"10/19/2020 12:00:00 AM";"07:00 - 07:59";"02370";"Station Sloterdijk";"4.83879745";"52.38771204";"24"
"10/19/2020 12:00:00 AM";"07:00 - 07:59";"03010";"Witte de Withstraat";"4.85928290";"52.36480554";"14"
"10/19/2020 12:00:00 AM";"07:00 - 07:59";"03052";"Burg. Eliasstraat";"4.82565009";"52.38077481";"18"
"10/19/2020 12:00:00 AM";"07:00 - 07:59";"03076";"Jan Tooropstraat";"4.83810313";"52.37142305";"18"
"10/19/2020 12:00:00 AM";"07:00 - 07:59";"03087";"Plein '40 - '45";"4.82063128";"52.38159575";"11"
"10/19/2020 12:00:00 AM";"07:00 - 07:59";"03099";"Dr. H. Colijnstraat";"4.80672448";"52.37693566";"10"
"10/19/2020 12:00:00 AM";"07:00 - 07:59";"03125";"Anth. Moddermanstraat";"4.81338292";"52.38330447";"11"
"10/19/2020 12:00:00 AM";"07:00 - 07:59";"03129";"Plein '40 - '45";"4.82112672";"52.38075328";"11"
"10/19/2020 12:00:00 AM";"07:00 - 07:59";"03167";"Bos en Lommerplein";"4.84650668";"52.37709704";"14"
"10/19/2020 12:00:00 AM";"07:00 - 07:59";"04012";"Baden Powellweg";"4.79137362";"52.35646612";"12"
"10/19/2020 12:00:00 AM";"07:00 - 07:59";"04021";"Osdorpplein";"4.80322868";"52.35913166";"10"
"10/19/2020 12:00:00 AM";"07:00 - 07:59";"04050";"Meer en Vaart";"4.80994403";"52.35636940";"10"
"10/19/2020 12:00:00 AM";"07:00 - 07:59";"04061";"Derkinderenstraat";"4.84014895";"52.35794190";"11"
"10/19/2020 12:00:00 AM";"07:00 - 07:59";"04063";"Johan Huizingalaan";"4.82626398";"52.35778704";"13"
"10/19/2020 12:00:00 AM";"07:00 - 07:59";"04088";"Louwesweg";"4.82436420";"52.34669608";"14"
"10/19/2020 12:00:00 AM";"07:00 - 07:59";"04112";"Johan Huizingalaan";"4.82742878";"52.34923618";"28"
"10/19/2020 12:00:00 AM";"07:00 - 07:59";"04195";"Station Lelylaan";"4.83460082";"52.35788018";"43"
"10/19/2020 12:00:00 AM";"07:00 - 07:59";"04196";"Station Lelylaan";"4.83382251";"52.35790351";"31"
"10/19/2020 12:00:00 AM";"07:00 - 07:59";"04267";"Schiphol Airport/Plaza";"4.76139455";"52.30887344";"19"
"10/19/2020 12:00:00 AM";"07:00 - 07:59";"04379";"Knooppunt Schiphol Nrd";"4.79320459";"52.32276196";"31"
"10/19/2020 12:00:00 AM";"07:00 - 07:59";"04401";"Matterhorn";"4.77438097";"52.35391670";"10"
"10/19/2020 12:00:00 AM";"07:00 - 07:59";"04411";"Hoekenes";"4.80183430";"52.35243785";"11"
"10/19/2020 12:00:00 AM";"07:00 - 07:59";"04413";"Louis Davidsstraat";"4.80850916";"52.35383682";"18"
"10/19/2020 12:00:00 AM";"07:00 - 07:59";"05011";"Centraal Station";"4.89921803";"52.37810793";"91"
"10/19/2020 12:00:00 AM";"07:00 - 07:59";"05022";"Centraal Station";"4.90104337";"52.37771998";"54"
"10/19/2020 12:00:00 AM";"07:00 - 07:59";"05031";"Dam";"4.89348394";"52.37341055";"10"
"10/19/2020 12:00:00 AM";"07:00 - 07:59";"05062";"Spui";"4.88925912";"52.36909673";"16"
"10/19/2020 12:00:00 AM";"07:00 - 07:59";"05065";"Dam";"4.89079364";"52.37367792";"25"
"10/19/2020 12:00:00 AM";"07:00 - 07:59";"05066";"Dam";"4.89027056";"52.37318140";"27"
"10/19/2020 12:00:00 AM";"07:00 - 07:59";"05069";"Nieuwezijds Kolk";"4.89373093";"52.37628765";"14"
"10/19/2020 12:00:00 AM";"07:00 - 07:59";"05070";"Nieuwezijds Kolk";"4.89284106";"52.37575366";"11"
"10/19/2020 12:00:00 AM";"07:00 - 07:59";"05074";"Westermarkt";"4.88354950";"52.37407874";"22"
"10/19/2020 12:00:00 AM";"07:00 - 07:59";"05077";"Marnixstraat";"4.87615428";"52.37228546";"17"
"10/19/2020 12:00:00 AM";"07:00 - 07:59";"05097";"Centraal Station";"4.90087651";"52.37954379";"25"
"10/19/2020 12:00:00 AM";"07:00 - 07:59";"05103";"Centraal Station";"4.90127481";"52.37938365";"20"
"10/19/2020 12:00:00 AM";"07:00 - 07:59";"05105";"Centraal Station";"4.90187762";"52.37932321";"13"
"10/19/2020 12:00:00 AM";"07:00 - 07:59";"05107";"Centraal Station";"4.90195282";"52.37916174";"10"
"10/19/2020 12:00:00 AM";"07:00 - 07:59";"06001";"Surinameplein";"4.85252231";"52.35807034";"18"
"10/19/2020 12:00:00 AM";"07:00 - 07:59";"06020";"Ten Katestraat";"4.86773990";"52.36603832";"18"
"10/19/2020 12:00:00 AM";"07:00 - 07:59";"06028";"Elandsgracht";"4.87741694";"52.36974738";"23"
"10/19/2020 12:00:00 AM";"07:00 - 07:59";"06029";"Elandsgracht";"4.87684368";"52.36852258";"20"
"10/19/2020 12:00:00 AM";"07:00 - 07:59";"06030";"Rozengracht";"4.87590932";"52.37187996";"10"
"10/19/2020 12:00:00 AM";"07:00 - 07:59";"06034";"Bilderdijkstraat";"4.87082347";"52.37105798";"12"
"10/19/2020 12:00:00 AM";"07:00 - 07:59";"06037";"Bilderdijkstraat";"4.86985701";"52.37082906";"22"
"10/19/2020 12:00:00 AM";"07:00 - 07:59";"06045";"1e Con. Huygensstraat";"4.87399228";"52.36242556";"10"
"10/19/2020 12:00:00 AM";"07:00 - 07:59";"06048";"J.P. Heijestraat";"4.86585368";"52.36037674";"14"
"10/19/2020 12:00:00 AM";"07:00 - 07:59";"06049";"J.P. Heijestraat";"4.86671778";"52.36055131";"10"
"10/19/2020 12:00:00 AM";"07:00 - 07:59";"06061";"Leidseplein";"4.88339576";"52.36305015";"19"
"10/19/2020 12:00:00 AM";"07:00 - 07:59";"06063";"Leidseplein";"4.88064547";"52.36476406";"22"
"10/19/2020 12:00:00 AM";"07:00 - 07:59";"06072";"Prinsengracht";"4.88428435";"52.36495933";"11"
"10/19/2020 12:00:00 AM";"07:00 - 07:59";"06082";"Rhijnvis Feithstraat";"4.85967683";"52.35883943";"14"
"10/19/2020 12:00:00 AM";"07:00 - 07:59";"06089";"Leidseplein";"4.88085541";"52.36309324";"17"
"10/19/2020 12:00:00 AM";"07:00 - 07:59";"07006";"Museumplein";"4.87980116";"52.35642881";"14"
"10/19/2020 12:00:00 AM";"07:00 - 07:59";"07007";"Museumplein";"4.87950215";"52.35690388";"40"
"10/19/2020 12:00:00 AM";"07:00 - 07:59";"07016";"Roelof Hartplein";"4.88286688";"52.35274795";"13"
"10/19/2020 12:00:00 AM";"07:00 - 07:59";"07031";"Valeriusplein";"4.86374943";"52.35333004";"13"
"10/19/2020 12:00:00 AM";"07:00 - 07:59";"07032";"Valeriusplein";"4.86326678";"52.35318410";"11"
"10/19/2020 12:00:00 AM";"07:00 - 07:59";"07050";"Haarlemmermeerstation";"4.85744749";"52.34883508";"12"
"10/19/2020 12:00:00 AM";"07:00 - 07:59";"07084";"Gerrit v.d. Veenstraat";"4.87720177";"52.34886793";"22"
"10/19/2020 12:00:00 AM";"07:00 - 07:59";"07191";"Station Zuid";"4.87340673";"52.34072657";"14"
"10/19/2020 12:00:00 AM";"07:00 - 07:59";"07193";"Station Zuid";"4.87334616";"52.34088808";"11"
"10/19/2020 12:00:00 AM";"07:00 - 07:59";"07266";"Station Zuid";"4.87252654";"52.34070477";"14"
"10/19/2020 12:00:00 AM";"07:00 - 07:59";"07269";"Station Zuid";"4.87374306";"52.34082689";"20"
"10/19/2020 12:00:00 AM";"07:00 - 07:59";"07303";"VU medisch centrum";"4.86097062";"52.33515342";"44"
"10/19/2020 12:00:00 AM";"07:00 - 07:59";"07321";"Van Baerlestraat";"4.87895796";"52.35827667";"10"
"10/19/2020 12:00:00 AM";"07:00 - 07:59";"07322";"Van Baerlestraat";"4.87971942";"52.35844171";"14"
"10/19/2020 12:00:00 AM";"07:00 - 07:59";"07323";"Rijksmuseum";"4.88355043";"52.35977029";"19"
"10/19/2020 12:00:00 AM";"07:00 - 07:59";"07339";"Nieuw Herlaer";"4.88985946";"52.32602094";"21"
"10/19/2020 12:00:00 AM";"07:00 - 07:59";"07350";"VU medisch centrum";"4.86006046";"52.33519431";"11"
"10/19/2020 12:00:00 AM";"07:00 - 07:59";"07419";"Van Boshuizenstraat";"4.86896941";"52.32487971";"34"
"10/19/2020 12:00:00 AM";"07:00 - 07:59";"07439";"Oranjebaan";"4.87179001";"52.30302465";"11"
"10/19/2020 12:00:00 AM";"07:00 - 07:59";"07449";"A.J. Ernststraat";"4.86879476";"52.33230287";"11"
"10/19/2020 12:00:00 AM";"07:00 - 07:59";"07504";"Langerhuize";"4.87793694";"52.29501614";"10"
"10/19/2020 12:00:00 AM";"07:00 - 07:59";"07505";"Ziekenhuis";"4.87154263";"52.29401774";"24"
"10/19/2020 12:00:00 AM";"07:00 - 07:59";"07513";"Sacharovlaan";"4.83264484";"52.28179795";"15"
"10/19/2020 12:00:00 AM";"07:00 - 07:59";"07523";"Zagerij";"4.84179654";"52.28120238";"12"
"10/19/2020 12:00:00 AM";"07:00 - 07:59";"08034";"P. Hendrikkade (uitstaphalte)";"4.90238928";"52.37685369";"10"
"10/19/2020 12:00:00 AM";"07:00 - 07:59";"08045";"Weesperplein";"4.91074647";"52.36172535";"24"
"10/19/2020 12:00:00 AM";"07:00 - 07:59";"08051";"K. 's-Gravesandestr.";"4.91366120";"52.36235720";"15"
"10/19/2020 12:00:00 AM";"07:00 - 07:59";"08080";"Spiegelgracht";"4.88691222";"52.36106979";"20"
"10/19/2020 12:00:00 AM";"07:00 - 07:59";"08113";"Javaplein";"4.93949828";"52.36395867";"13"
"10/19/2020 12:00:00 AM";"07:00 - 07:59";"08120";"Insulindeweg";"4.94763926";"52.36469021";"17"
"10/19/2020 12:00:00 AM";"07:00 - 07:59";"08128";"Zuiderzeeweg";"4.96221150";"52.37305702";"10"
"10/19/2020 12:00:00 AM";"07:00 - 07:59";"08235";"Muziekgeb. Bimhuis";"4.91290020";"52.37723779";"36"
"10/19/2020 12:00:00 AM";"07:00 - 07:59";"08239";"Rietlandpark";"4.93413567";"52.37296191";"23"
"10/19/2020 12:00:00 AM";"07:00 - 07:59";"08241";"Zuiderzeeweg";"4.96185517";"52.37193228";"19"
"10/19/2020 12:00:00 AM";"07:00 - 07:59";"08251";"Lumi?restraat";"4.99942127";"52.35298044";"10"
"10/19/2020 12:00:00 AM";"07:00 - 07:59";"08257";"1e Coehoornstraat";"4.92618328";"52.36808685";"10"
"10/19/2020 12:00:00 AM";"07:00 - 07:59";"08262";"IJburg";"5.00486802";"52.35112872";"28"
"10/19/2020 12:00:00 AM";"07:00 - 07:59";"09023";"Camperstraat";"4.91383551";"52.35840330";"13"
"10/19/2020 12:00:00 AM";"07:00 - 07:59";"09083";"Waalstraat";"4.90032528";"52.34680824";"11"
"10/19/2020 12:00:00 AM";"07:00 - 07:59";"09097";"Van Woustraat";"4.90084070";"52.35468363";"10"
"10/19/2020 12:00:00 AM";"07:00 - 07:59";"09114";"De Pijp";"4.88948829";"52.35259622";"11"
"10/19/2020 12:00:00 AM";"07:00 - 07:59";"09120";"Cornelis Troostplein";"4.89161100";"52.35046604";"12"
"10/19/2020 12:00:00 AM";"07:00 - 07:59";"09176";"James Wattstraat";"4.92329155";"52.35116068";"15"
"10/19/2020 12:00:00 AM";"07:00 - 07:59";"ASA";"Amstelstation";"4.91751426";"52.34647326";"211"
"10/19/2020 12:00:00 AM";"07:00 - 07:59";"ASW";"Amstelveenseweg";"4.85798324";"52.33836671";"276"
"10/19/2020 12:00:00 AM";"07:00 - 07:59";"BLW";"Bullewijk";"4.95233581";"52.30642205";"82"
"10/19/2020 12:00:00 AM";"07:00 - 07:59";"BMR";"Station Bijlmer ArenA";"4.94713474";"52.31193030";"274"
"10/19/2020 12:00:00 AM";"07:00 - 07:59";"CLL";"Station Lelylaan";"4.83426589";"52.35766291";"83"
"10/19/2020 12:00:00 AM";"07:00 - 07:59";"CS";"Centraal Station";"4.90078150";"52.37749421";"394"
"10/19/2020 12:00:00 AM";"07:00 - 07:59";"DMZ";"Station Diemen-Zuid";"4.95713273";"52.33042795";"33"
"10/19/2020 12:00:00 AM";"07:00 - 07:59";"DPP";"De Pijp";"4.89101069";"52.35296212";"130"
"10/19/2020 12:00:00 AM";"07:00 - 07:59";"DVD";"Station Duivendrecht";"4.93678429";"52.32325190";"84"
"10/19/2020 12:00:00 AM";"07:00 - 07:59";"EPP";"Europaplein";"4.89138430";"52.34185482";"109"
"10/19/2020 12:00:00 AM";"07:00 - 07:59";"GN";"Gein";"4.98952268";"52.29627089";"44"
"10/19/2020 12:00:00 AM";"07:00 - 07:59";"GPP";"Gaasperplas";"4.98468551";"52.31080575";"21"
"10/19/2020 12:00:00 AM";"07:00 - 07:59";"GZH";"Station Ganzenhoef";"4.97323379";"52.32331315";"29"
"10/19/2020 12:00:00 AM";"07:00 - 07:59";"HDS";"Heemstedestraat";"4.83421208";"52.35255760";"60"
"10/19/2020 12:00:00 AM";"07:00 - 07:59";"HLD";"Station Holendrecht";"4.96021904";"52.29780451";"318"
"10/19/2020 12:00:00 AM";"07:00 - 07:59";"HVW";"Henk Sneevlietweg";"4.83439318";"52.34626699";"129"
"10/19/2020 12:00:00 AM";"07:00 - 07:59";"ITW";"Isolatorweg";"4.85013475";"52.39523277";"52"
"10/19/2020 12:00:00 AM";"07:00 - 07:59";"JLS";"Jan v.Galenstraat";"4.83492461";"52.37196551";"177"
"10/19/2020 12:00:00 AM";"07:00 - 07:59";"KEN";"Kraaienneststation";"4.97963450";"52.31632492";"24"
"10/19/2020 12:00:00 AM";"07:00 - 07:59";"MDW";"Van der Madeweg";"4.93048657";"52.32945629";"56"
"10/19/2020 12:00:00 AM";"07:00 - 07:59";"ND";"Noord";"4.93123182";"52.40117202";"130"
"10/19/2020 12:00:00 AM";"07:00 - 07:59";"NDP";"Noorderpark";"4.91789115";"52.38855518";"66"
"10/19/2020 12:00:00 AM";"07:00 - 07:59";"NMT";"Nieuwmarkt";"4.90123885";"52.37194169";"53"
"10/19/2020 12:00:00 AM";"07:00 - 07:59";"OAS";"Overamstel";"4.91815361";"52.33179879";"41"
"10/19/2020 12:00:00 AM";"07:00 - 07:59";"PJW";"Postjesweg";"4.83385543";"52.36468044";"39"
"10/19/2020 12:00:00 AM";"07:00 - 07:59";"RAI";"Station RAI";"4.88982004";"52.33739931";"111"
"10/19/2020 12:00:00 AM";"07:00 - 07:59";"RGB";"Reigersbos";"4.97473728";"52.29566301";"63"
"10/19/2020 12:00:00 AM";"07:00 - 07:59";"RKN";"Rokin";"4.89229651";"52.36928023";"138"
"10/19/2020 12:00:00 AM";"07:00 - 07:59";"SLW";"Spaklerweg";"4.92085640";"52.33986250";"72"
"10/19/2020 12:00:00 AM";"07:00 - 07:59";"STD";"Station Sloterdijk";"4.83878389";"52.38880848";"203"
"10/19/2020 12:00:00 AM";"07:00 - 07:59";"SVT";"Strandvliet";"4.94152820";"52.31825469";"47"
"10/19/2020 12:00:00 AM";"07:00 - 07:59";"VLN";"Burg.de Vlugtlaan";"4.83809109";"52.37951196";"26"
"10/19/2020 12:00:00 AM";"07:00 - 07:59";"VPD";"Venserpolder";"4.94665009";"52.32679428";"31"
"10/19/2020 12:00:00 AM";"07:00 - 07:59";"VSW";"Verrijn Stuartweg";"4.96693669";"52.32844093";"63"
"10/19/2020 12:00:00 AM";"07:00 - 07:59";"VZG";"Vijzelgracht";"4.89072870";"52.35980061";"67"
"10/19/2020 12:00:00 AM";"07:00 - 07:59";"WBS";"Wibautstraat";"4.91202993";"52.35428867";"161"
"10/19/2020 12:00:00 AM";"07:00 - 07:59";"WLP";"Waterlooplein";"4.90298171";"52.36697862";"103"
"10/19/2020 12:00:00 AM";"07:00 - 07:59";"WPP";"Weesperplein";"4.90787469";"52.36120146";"151"
"10/19/2020 12:00:00 AM";"07:00 - 07:59";"WTC";"Station Zuid";"4.87509853";"52.33908015";"397"
"10/19/2020 12:00:00 AM";"08:00 - 08:59";"";"Overig";"";"";"2444"
"10/19/2020 12:00:00 AM";"08:00 - 08:59";"[[ Onb";"[[ Onbekend ]]";"0.00000000";"0.00000000";"461"
"10/19/2020 12:00:00 AM";"08:00 - 08:59";"00005";"Muiderpoortstation";"4.93280219";"52.36121887";"56"
"10/19/2020 12:00:00 AM";"08:00 - 08:59";"00006";"Muiderpoortstation";"4.93368466";"52.36106048";"19"
"10/19/2020 12:00:00 AM";"08:00 - 08:59";"00007";"Muiderpoortstation";"4.93356602";"52.36117686";"24"
"10/19/2020 12:00:00 AM";"08:00 - 08:59";"00008";"Dapperstraat";"4.92977913";"52.36110836";"26"
"10/19/2020 12:00:00 AM";"08:00 - 08:59";"00010";"Dapperstraat";"4.92891486";"52.36092527";"29"
"10/19/2020 12:00:00 AM";"08:00 - 08:59";"00017";"Linnaeusstraat";"4.92573745";"52.36013099";"14"
"10/19/2020 12:00:00 AM";"08:00 - 08:59";"00020";"Beukenweg";"4.91674979";"52.35906203";"28"
"10/19/2020 12:00:00 AM";"08:00 - 08:59";"00021";"Beukenweg";"4.91721293";"52.35829991";"28"
"10/19/2020 12:00:00 AM";"08:00 - 08:59";"00023";"Beukenplein";"4.91809259";"52.35701816";"15"
"10/19/2020 12:00:00 AM";"08:00 - 08:59";"00029";"Oostpoort";"4.92719316";"52.35707185";"111"
"10/19/2020 12:00:00 AM";"08:00 - 08:59";"00030";"Oostpoort";"4.92694026";"52.35739442";"41"
"10/19/2020 12:00:00 AM";"08:00 - 08:59";"00039";"Hogeweg";"4.93084015";"52.35358075";"11"
"10/19/2020 12:00:00 AM";"08:00 - 08:59";"00053";"Kruislaan";"4.93967974";"52.34742196";"15"
"10/19/2020 12:00:00 AM";"08:00 - 08:59";"00059";"Radioweg";"4.93945830";"52.35337100";"31"
"10/19/2020 12:00:00 AM";"08:00 - 08:59";"00060";"Radioweg";"4.93979325";"52.35363291";"23"
"10/19/2020 12:00:00 AM";"08:00 - 08:59";"00065";"Hugo de Vrieslaan";"4.93487340";"52.35101676";"13"
"10/19/2020 12:00:00 AM";"08:00 - 08:59";"00066";"Hugo de Vrieslaan";"4.93540468";"52.35073118";"10"
"10/19/2020 12:00:00 AM";"08:00 - 08:59";"00070";"Kruislaan";"4.93993910";"52.34789929";"21"
"10/19/2020 12:00:00 AM";"08:00 - 08:59";"00114";"Dennenrode";"4.95213839";"52.32209601";"28"
"10/19/2020 12:00:00 AM";"08:00 - 08:59";"00116";"Station Ganzenhoef";"4.97272915";"52.32237665";"16"
"10/19/2020 12:00:00 AM";"08:00 - 08:59";"00134";"Koornhorst";"4.98400929";"52.31907218";"18"
"10/19/2020 12:00:00 AM";"08:00 - 08:59";"00135";"Koornhorst";"4.98396309";"52.31931470";"10"
"10/19/2020 12:00:00 AM";"08:00 - 08:59";"00141";"Kraaienneststation";"4.97868390";"52.31603403";"14"
"10/19/2020 12:00:00 AM";"08:00 - 08:59";"00146";"Gooioord";"4.96906535";"52.32048532";"13"
"10/19/2020 12:00:00 AM";"08:00 - 08:59";"00150";"Tulastraat";"4.96535973";"52.31994189";"114"
"10/19/2020 12:00:00 AM";"08:00 - 08:59";"00151";"Tulastraat";"4.96584458";"52.31985374";"76"
"10/19/2020 12:00:00 AM";"08:00 - 08:59";"00152";"Florijn";"4.95859163";"52.31758973";"14"
"10/19/2020 12:00:00 AM";"08:00 - 08:59";"00172";"Holendrechtplein";"4.96402882";"52.29952588";"13"
"10/19/2020 12:00:00 AM";"08:00 - 08:59";"00179";"Kelbergen";"4.97179997";"52.31351146";"14"
"10/19/2020 12:00:00 AM";"08:00 - 08:59";"00180";"Kelbergen";"4.97143303";"52.31354612";"11"
"10/19/2020 12:00:00 AM";"08:00 - 08:59";"00205";"Station Holendrecht";"4.95865657";"52.29716971";"11"
"10/19/2020 12:00:00 AM";"08:00 - 08:59";"00238";"Anton de Komplein";"4.95413359";"52.31603659";"16"
"10/19/2020 12:00:00 AM";"08:00 - 08:59";"00239";"Anton de Komplein";"4.95597669";"52.31652866";"18"
"10/19/2020 12:00:00 AM";"08:00 - 08:59";"00330";"Middenweg";"4.93455629";"52.35044932";"13"
"10/19/2020 12:00:00 AM";"08:00 - 08:59";"00331";"Station Reigersbos";"4.97350466";"52.29737537";"33"
"10/19/2020 12:00:00 AM";"08:00 - 08:59";"00351";"Dostojevskisingel";"4.94525272";"52.32275356";"37"
"10/19/2020 12:00:00 AM";"08:00 - 08:59";"00352";"Dostojevskisingel";"4.94457408";"52.32314649";"11"
"10/19/2020 12:00:00 AM";"08:00 - 08:59";"00434";"Bijlmerplein";"4.95032022";"52.31457553";"32"
"10/19/2020 12:00:00 AM";"08:00 - 08:59";"00444";"Linnaeusstraat";"4.92490296";"52.35991203";"72"
"10/19/2020 12:00:00 AM";"08:00 - 08:59";"00453";"Diemen Sniep";"4.96964866";"52.33644962";"11"
"10/19/2020 12:00:00 AM";"08:00 - 08:59";"00491";"Science Park Aer";"4.95218495";"52.35478458";"21"
"10/19/2020 12:00:00 AM";"08:00 - 08:59";"00518";"Foppingadreef";"4.94967889";"52.31268573";"11"
"10/19/2020 12:00:00 AM";"08:00 - 08:59";"00560";"Station Bijlmer ArenA";"4.94747867";"52.31125750";"20"
"10/19/2020 12:00:00 AM";"08:00 - 08:59";"00561";"Station Bijlmer ArenA";"4.94741931";"52.31132918";"50"
"10/19/2020 12:00:00 AM";"08:00 - 08:59";"00562";"Station Bijlmer ArenA";"4.94736012";"52.31138289";"12"
"10/19/2020 12:00:00 AM";"08:00 - 08:59";"00568";"Station Bijlmer ArenA";"4.94762664";"52.31112323";"10"
"10/19/2020 12:00:00 AM";"08:00 - 08:59";"00603";"V. Houten Ind.park";"5.03580865";"52.30648376";"22"
"10/19/2020 12:00:00 AM";"08:00 - 08:59";"00651";"Casparuslaan";"5.03531862";"52.30911571";"14"
"10/19/2020 12:00:00 AM";"08:00 - 08:59";"00985";"Winkelcentrum";"4.96422695";"52.34186794";"11"
"10/19/2020 12:00:00 AM";"08:00 - 08:59";"01076";"Waterlandplein";"4.95247364";"52.39274059";"16"
"10/19/2020 12:00:00 AM";"08:00 - 08:59";"01077";"Dijkmanshuizenstraat";"4.95440778";"52.39627083";"13"
"10/19/2020 12:00:00 AM";"08:00 - 08:59";"01078";"Dijkmanshuizenstraat";"4.95475323";"52.39549915";"23"
"10/19/2020 12:00:00 AM";"08:00 - 08:59";"01108";"J. Drijverweg";"4.94437079";"52.39943333";"11"
"10/19/2020 12:00:00 AM";"08:00 - 08:59";"01110";"Rode Kruisstraat";"4.92847908";"52.39455548";"34"
"10/19/2020 12:00:00 AM";"08:00 - 08:59";"01111";"Rode Kruisstraat";"4.92881363";"52.39488033";"58"
"10/19/2020 12:00:00 AM";"08:00 - 08:59";"01116";"Merelstraat";"4.92492850";"52.38986809";"16"
"10/19/2020 12:00:00 AM";"08:00 - 08:59";"01117";"Merelstraat";"4.92505977";"52.38995848";"21"
"10/19/2020 12:00:00 AM";"08:00 - 08:59";"01151";"Mosplein";"4.91407704";"52.39357310";"11"
"10/19/2020 12:00:00 AM";"08:00 - 08:59";"01155";"Mosplein";"4.91358361";"52.39300490";"12"
"10/19/2020 12:00:00 AM";"08:00 - 08:59";"01189";"Pinksterbloemstraat";"4.91221693";"52.39852684";"22"
"10/19/2020 12:00:00 AM";"08:00 - 08:59";"01191";"Pinksterbloemstraat";"4.91203754";"52.39881372";"40"
"10/19/2020 12:00:00 AM";"08:00 - 08:59";"01212";"Oostzanerdijk";"4.88149588";"52.42023965";"60"
"10/19/2020 12:00:00 AM";"08:00 - 08:59";"01237";"Beemsterstraat";"4.95210741";"52.39712521";"19"
"10/19/2020 12:00:00 AM";"08:00 - 08:59";"01278";"Statenjachtstraat";"4.91380643";"52.40790731";"11"
"10/19/2020 12:00:00 AM";"08:00 - 08:59";"01305";"Station Noord";"4.93215715";"52.40264056";"18"
"10/19/2020 12:00:00 AM";"08:00 - 08:59";"01315";"Station Noord";"4.93339740";"52.40206112";"36"
"10/19/2020 12:00:00 AM";"08:00 - 08:59";"01316";"Station Noord";"4.93336820";"52.40204304";"20"
"10/19/2020 12:00:00 AM";"08:00 - 08:59";"01347";"Nageljongenstraat";"4.89978361";"52.40815603";"12"
"10/19/2020 12:00:00 AM";"08:00 - 08:59";"01352";"Oosterlengte";"4.92206974";"52.40611555";"16"
"10/19/2020 12:00:00 AM";"08:00 - 08:59";"01365";"Atat?rk";"4.89794256";"52.40319625";"12"
"10/19/2020 12:00:00 AM";"08:00 - 08:59";"01414";"Olof Palmeplein";"4.94012168";"52.39679298";"15"
"10/19/2020 12:00:00 AM";"08:00 - 08:59";"01417";"Johan v.Hasseltweg";"4.92309870";"52.38784770";"13"
"10/19/2020 12:00:00 AM";"08:00 - 08:59";"01422";"Noorderpark";"4.91956087";"52.38902016";"34"
"10/19/2020 12:00:00 AM";"08:00 - 08:59";"01423";"Noorderpark";"4.91921998";"52.38930641";"12"
"10/19/2020 12:00:00 AM";"08:00 - 08:59";"01443";"Volendammerweg";"4.95697086";"52.39255928";"11"
"10/19/2020 12:00:00 AM";"08:00 - 08:59";"02018";"Koivistokade";"4.87577082";"52.39789874";"20"
"10/19/2020 12:00:00 AM";"08:00 - 08:59";"02019";"Koivistokade";"4.87537403";"52.39790601";"23"
"10/19/2020 12:00:00 AM";"08:00 - 08:59";"02064";"Kabelweg";"4.84827817";"52.39205168";"13"
"10/19/2020 12:00:00 AM";"08:00 - 08:59";"02081";"Haparandaweg";"4.87212228";"52.39451255";"47"
"10/19/2020 12:00:00 AM";"08:00 - 08:59";"02089";"Vredenhof";"4.86238820";"52.38527541";"10"
"10/19/2020 12:00:00 AM";"08:00 - 08:59";"02103";"Spaarndammerstraat";"4.87765867";"52.39216375";"30"
"10/19/2020 12:00:00 AM";"08:00 - 08:59";"02106";"Assendelftstraat";"4.87943840";"52.38941217";"10"
"10/19/2020 12:00:00 AM";"08:00 - 08:59";"02113";"Haarlemmerplein";"4.88371739";"52.38516129";"11"
"10/19/2020 12:00:00 AM";"08:00 - 08:59";"02114";"Haarlemmerplein";"4.88341252";"52.38484542";"28"
"10/19/2020 12:00:00 AM";"08:00 - 08:59";"02130";"Hugo de Grootplein";"4.87259092";"52.37439113";"18"
"10/19/2020 12:00:00 AM";"08:00 - 08:59";"02132";"Fred. Hendrikplants.";"4.87543499";"52.37862768";"35"
"10/19/2020 12:00:00 AM";"08:00 - 08:59";"02133";"Fred. Hendrikplants.";"4.87521709";"52.37842002";"17"
"10/19/2020 12:00:00 AM";"08:00 - 08:59";"02151";"De Wittenkade";"4.87695310";"52.38326290";"12"
"10/19/2020 12:00:00 AM";"08:00 - 08:59";"02153";"Nassaukade";"4.87920791";"52.38132226";"10"
"10/19/2020 12:00:00 AM";"08:00 - 08:59";"02155";"Willem de Zwijgerlaan";"4.86360306";"52.37071170";"19"
"10/19/2020 12:00:00 AM";"08:00 - 08:59";"02156";"Willem de Zwijgerlaan";"4.86425293";"52.37039101";"13"
"10/19/2020 12:00:00 AM";"08:00 - 08:59";"02157";"Adm. de Ruijterweg";"4.86009910";"52.37148707";"10"
"10/19/2020 12:00:00 AM";"08:00 - 08:59";"02158";"Adm. de Ruijterweg";"4.86096776";"52.37129320";"28"
"10/19/2020 12:00:00 AM";"08:00 - 08:59";"02160";"Haparandaweg";"4.87389760";"52.39471799";"17"
"10/19/2020 12:00:00 AM";"08:00 - 08:59";"02167";"Bos en Lommerweg";"4.85380049";"52.38118358";"17"
"10/19/2020 12:00:00 AM";"08:00 - 08:59";"02170";"Spaarndammerstraat";"4.87723089";"52.39231470";"12"
"10/19/2020 12:00:00 AM";"08:00 - 08:59";"02182";"Markthallen";"4.86695146";"52.37567869";"21"
"10/19/2020 12:00:00 AM";"08:00 - 08:59";"02183";"Markthallen";"4.86667150";"52.37575835";"21"
"10/19/2020 12:00:00 AM";"08:00 - 08:59";"02222";"Jan van Galenstraat";"4.85874763";"52.37399761";"21"
"10/19/2020 12:00:00 AM";"08:00 - 08:59";"02259";"Contactweg";"4.85657970";"52.39195435";"69"
"10/19/2020 12:00:00 AM";"08:00 - 08:59";"02260";"Contactweg";"4.85432952";"52.39215995";"34"
"10/19/2020 12:00:00 AM";"08:00 - 08:59";"02301";"Fred. Hendrikplants.";"4.87521585";"52.37852787";"33"
"10/19/2020 12:00:00 AM";"08:00 - 08:59";"02302";"Fred. Hendrikplants.";"4.87549415";"52.37859198";"26"
"10/19/2020 12:00:00 AM";"08:00 - 08:59";"02309";"Plesostraat";"4.82645527";"52.38795084";"16"
"10/19/2020 12:00:00 AM";"08:00 - 08:59";"02310";"Plesostraat";"4.82849791";"52.38788859";"15"
"10/19/2020 12:00:00 AM";"08:00 - 08:59";"02319";"Solebaystraat";"4.85540788";"52.38431853";"10"
"10/19/2020 12:00:00 AM";"08:00 - 08:59";"02321";"Van Hallstraat";"4.86864429";"52.38538386";"24"
"10/19/2020 12:00:00 AM";"08:00 - 08:59";"02361";"Station Sloterdijk";"4.83931858";"52.38833460";"49"
"10/19/2020 12:00:00 AM";"08:00 - 08:59";"02365";"Station Sloterdijk";"4.83873236";"52.38822404";"17"
"10/19/2020 12:00:00 AM";"08:00 - 08:59";"02366";"Station Sloterdijk";"4.83873347";"52.38813416";"17"
"10/19/2020 12:00:00 AM";"08:00 - 08:59";"02367";"Station Sloterdijk";"4.83876429";"52.38801747";"15"
"10/19/2020 12:00:00 AM";"08:00 - 08:59";"02368";"Station Sloterdijk";"4.83877999";"52.38793665";"10"
"10/19/2020 12:00:00 AM";"08:00 - 08:59";"02370";"Station Sloterdijk";"4.83879745";"52.38771204";"21"
"10/19/2020 12:00:00 AM";"08:00 - 08:59";"03009";"Witte de Withstraat";"4.85851970";"52.36478416";"14"
"10/19/2020 12:00:00 AM";"08:00 - 08:59";"03010";"Witte de Withstraat";"4.85928290";"52.36480554";"19"
"10/19/2020 12:00:00 AM";"08:00 - 08:59";"03012";"Hoofdweg";"4.85237353";"52.36432514";"10"
"10/19/2020 12:00:00 AM";"08:00 - 08:59";"03022";"Mercatorplein";"4.85070310";"52.37012367";"10"
"10/19/2020 12:00:00 AM";"08:00 - 08:59";"03034";"Erasmusgracht";"4.84691117";"52.37644278";"12"
"10/19/2020 12:00:00 AM";"08:00 - 08:59";"03052";"Burg. Eliasstraat";"4.82565009";"52.38077481";"37"
"10/19/2020 12:00:00 AM";"08:00 - 08:59";"03055";"Burg. Fockstraat";"4.83108040";"52.37991964";"11"
"10/19/2020 12:00:00 AM";"08:00 - 08:59";"03061";"Bos en Lommerplein";"4.84523530";"52.37778328";"17"
"10/19/2020 12:00:00 AM";"08:00 - 08:59";"03076";"Jan Tooropstraat";"4.83810313";"52.37142305";"14"
"10/19/2020 12:00:00 AM";"08:00 - 08:59";"03087";"Plein '40 - '45";"4.82063128";"52.38159575";"29"
"10/19/2020 12:00:00 AM";"08:00 - 08:59";"03090";"Slotermeerlaan";"4.81728149";"52.37596234";"10"
"10/19/2020 12:00:00 AM";"08:00 - 08:59";"03091";"Slotermeerlaan";"4.82076888";"52.37542183";"10"
"10/19/2020 12:00:00 AM";"08:00 - 08:59";"03097";"Burg. v. Leeuwenlaan";"4.81182601";"52.37651117";"10"
"10/19/2020 12:00:00 AM";"08:00 - 08:59";"03099";"Dr. H. Colijnstraat";"4.80672448";"52.37693566";"15"
"10/19/2020 12:00:00 AM";"08:00 - 08:59";"03108";"Herman Bonpad";"4.80080718";"52.36796367";"10"
"10/19/2020 12:00:00 AM";"08:00 - 08:59";"03117";"Sam van Houtenstraat";"4.79790430";"52.37868964";"12"
"10/19/2020 12:00:00 AM";"08:00 - 08:59";"03121";"Aalbersestraat";"4.79774249";"52.38202329";"12"
"10/19/2020 12:00:00 AM";"08:00 - 08:59";"03124";"Osdorper Ban";"4.80589840";"52.36265004";"14"
"10/19/2020 12:00:00 AM";"08:00 - 08:59";"03129";"Plein '40 - '45";"4.82112672";"52.38075328";"15"
"10/19/2020 12:00:00 AM";"08:00 - 08:59";"03157";"Lambertus Zijlplein";"4.80338637";"52.37726977";"15"
"10/19/2020 12:00:00 AM";"08:00 - 08:59";"03166";"Burg.de Vlugtlaan";"4.83871813";"52.37868800";"14"
"10/19/2020 12:00:00 AM";"08:00 - 08:59";"03167";"Bos en Lommerplein";"4.84650668";"52.37709704";"26"
"10/19/2020 12:00:00 AM";"08:00 - 08:59";"03168";"Mercatorplein";"4.85152392";"52.37024423";"19"
"10/19/2020 12:00:00 AM";"08:00 - 08:59";"03171";"Burg. Rendorpstraat";"4.82768433";"52.37436719";"25"
"10/19/2020 12:00:00 AM";"08:00 - 08:59";"03172";"Burg. Rendorpstraat";"4.82691962";"52.37445346";"40"
"10/19/2020 12:00:00 AM";"08:00 - 08:59";"03181";"Jan Voermanstraat";"4.83788946";"52.36970540";"11"
"10/19/2020 12:00:00 AM";"08:00 - 08:59";"04009";"Dijkgraafplein";"4.78689401";"52.35556268";"13"
"10/19/2020 12:00:00 AM";"08:00 - 08:59";"04012";"Baden Powellweg";"4.79137362";"52.35646612";"24"
"10/19/2020 12:00:00 AM";"08:00 - 08:59";"04016";"Hoekenes";"4.79854723";"52.35791310";"13"
"10/19/2020 12:00:00 AM";"08:00 - 08:59";"04021";"Osdorpplein";"4.80322868";"52.35913166";"18"
"10/19/2020 12:00:00 AM";"08:00 - 08:59";"04043";"Ruimzicht";"4.80749209";"52.35978176";"19"
"10/19/2020 12:00:00 AM";"08:00 - 08:59";"04049";"Meer en Vaart";"4.81058859";"52.35647140";"11"
"10/19/2020 12:00:00 AM";"08:00 - 08:59";"04050";"Meer en Vaart";"4.80994403";"52.35636940";"54"
"10/19/2020 12:00:00 AM";"08:00 - 08:59";"04060";"Derkinderenstraat";"4.83972293";"52.35796689";"11"
"10/19/2020 12:00:00 AM";"08:00 - 08:59";"04061";"Derkinderenstraat";"4.84014895";"52.35794190";"13"
"10/19/2020 12:00:00 AM";"08:00 - 08:59";"04062";"Johan Huizingalaan";"4.82582327";"52.35781191";"20"
"10/19/2020 12:00:00 AM";"08:00 - 08:59";"04063";"Johan Huizingalaan";"4.82626398";"52.35778704";"31"
"10/19/2020 12:00:00 AM";"08:00 - 08:59";"04088";"Louwesweg";"4.82436420";"52.34669608";"13"
"10/19/2020 12:00:00 AM";"08:00 - 08:59";"04110";"Westlandgracht";"4.84581964";"52.35156868";"15"
"10/19/2020 12:00:00 AM";"08:00 - 08:59";"04112";"Johan Huizingalaan";"4.82742878";"52.34923618";"31"
"10/19/2020 12:00:00 AM";"08:00 - 08:59";"04120";"Delflandlaan";"4.83969924";"52.35155850";"10"
"10/19/2020 12:00:00 AM";"08:00 - 08:59";"04133";"Robert Fruinlaan";"4.82910660";"52.36403799";"17"
"10/19/2020 12:00:00 AM";"08:00 - 08:59";"04140";"Sierplein";"4.82732630";"52.35503282";"17"
"10/19/2020 12:00:00 AM";"08:00 - 08:59";"04148";"Louis Davidsstraat";"4.80952552";"52.35356316";"52"
"10/19/2020 12:00:00 AM";"08:00 - 08:59";"04195";"Station Lelylaan";"4.83460082";"52.35788018";"128"
"10/19/2020 12:00:00 AM";"08:00 - 08:59";"04196";"Station Lelylaan";"4.83382251";"52.35790351";"65"
"10/19/2020 12:00:00 AM";"08:00 - 08:59";"04267";"Schiphol Airport/Plaza";"4.76139455";"52.30887344";"21"
"10/19/2020 12:00:00 AM";"08:00 - 08:59";"04277";"Laan v.Vlaanderen";"4.81642720";"52.34648730";"20"
"10/19/2020 12:00:00 AM";"08:00 - 08:59";"04279";"Kasterleepark";"4.81104243";"52.34638930";"13"
"10/19/2020 12:00:00 AM";"08:00 - 08:59";"04379";"Knooppunt Schiphol Nrd";"4.79320459";"52.32276196";"30"
"10/19/2020 12:00:00 AM";"08:00 - 08:59";"04402";"Matterhorn";"4.77477998";"52.35372103";"11"
"10/19/2020 12:00:00 AM";"08:00 - 08:59";"04407";"Ecuplein";"4.78817670";"52.34970912";"10"
"10/19/2020 12:00:00 AM";"08:00 - 08:59";"04409";"Baden Powellweg";"4.79441281";"52.35092691";"31"
"10/19/2020 12:00:00 AM";"08:00 - 08:59";"04411";"Hoekenes";"4.80183430";"52.35243785";"20"
"10/19/2020 12:00:00 AM";"08:00 - 08:59";"04413";"Louis Davidsstraat";"4.80850916";"52.35383682";"100"
"10/19/2020 12:00:00 AM";"08:00 - 08:59";"04414";"Louis Davidsstraat";"4.80910976";"52.35392963";"16"
"10/19/2020 12:00:00 AM";"08:00 - 08:59";"05011";"Centraal Station";"4.89921803";"52.37810793";"86"
"10/19/2020 12:00:00 AM";"08:00 - 08:59";"05022";"Centraal Station";"4.90104337";"52.37771998";"82"
"10/19/2020 12:00:00 AM";"08:00 - 08:59";"05031";"Dam";"4.89348394";"52.37341055";"22"
"10/19/2020 12:00:00 AM";"08:00 - 08:59";"05035";"Rokin";"4.89210433";"52.36939627";"13"
"10/19/2020 12:00:00 AM";"08:00 - 08:59";"05036";"Rokin";"4.89230478";"52.36985548";"15"
"10/19/2020 12:00:00 AM";"08:00 - 08:59";"05047";"Rembrandtplein";"4.89702882";"52.36623511";"24"
"10/19/2020 12:00:00 AM";"08:00 - 08:59";"05062";"Spui";"4.88925912";"52.36909673";"18"
"10/19/2020 12:00:00 AM";"08:00 - 08:59";"05065";"Dam";"4.89079364";"52.37367792";"24"
"10/19/2020 12:00:00 AM";"08:00 - 08:59";"05066";"Dam";"4.89027056";"52.37318140";"43"
"10/19/2020 12:00:00 AM";"08:00 - 08:59";"05069";"Nieuwezijds Kolk";"4.89373093";"52.37628765";"20"
"10/19/2020 12:00:00 AM";"08:00 - 08:59";"05070";"Nieuwezijds Kolk";"4.89284106";"52.37575366";"18"
"10/19/2020 12:00:00 AM";"08:00 - 08:59";"05073";"Westermarkt";"4.88453426";"52.37400204";"32"
"10/19/2020 12:00:00 AM";"08:00 - 08:59";"05074";"Westermarkt";"4.88354950";"52.37407874";"61"
"10/19/2020 12:00:00 AM";"08:00 - 08:59";"05077";"Marnixstraat";"4.87615428";"52.37228546";"18"
"10/19/2020 12:00:00 AM";"08:00 - 08:59";"05080";"Buiten Oranjestraat";"4.88782167";"52.38330923";"28"
"10/19/2020 12:00:00 AM";"08:00 - 08:59";"05097";"Centraal Station";"4.90087651";"52.37954379";"22"
"10/19/2020 12:00:00 AM";"08:00 - 08:59";"05103";"Centraal Station";"4.90127481";"52.37938365";"33"
"10/19/2020 12:00:00 AM";"08:00 - 08:59";"05104";"Centraal Station";"4.90164343";"52.37925034";"18"
"10/19/2020 12:00:00 AM";"08:00 - 08:59";"05105";"Centraal Station";"4.90187762";"52.37932321";"11"
"10/19/2020 12:00:00 AM";"08:00 - 08:59";"06001";"Surinameplein";"4.85252231";"52.35807034";"33"
"10/19/2020 12:00:00 AM";"08:00 - 08:59";"06002";"Surinameplein";"4.85090753";"52.35807202";"15"
"10/19/2020 12:00:00 AM";"08:00 - 08:59";"06016";"J.P. Heijestraat";"4.86239635";"52.36472951";"25"
"10/19/2020 12:00:00 AM";"08:00 - 08:59";"06019";"Ten Katestraat";"4.86737423";"52.36591988";"21"
"10/19/2020 12:00:00 AM";"08:00 - 08:59";"06020";"Ten Katestraat";"4.86773990";"52.36603832";"18"
"10/19/2020 12:00:00 AM";"08:00 - 08:59";"06021";"Bilderdijkstraat";"4.87176488";"52.36712545";"20"
"10/19/2020 12:00:00 AM";"08:00 - 08:59";"06023";"Bilderdijkstraat";"4.87254032";"52.36736251";"15"
"10/19/2020 12:00:00 AM";"08:00 - 08:59";"06024";"Kinkerstraat";"4.87230885";"52.36706491";"13"
"10/19/2020 12:00:00 AM";"08:00 - 08:59";"06027";"Elandsgracht";"4.87855189";"52.36808953";"32"
"10/19/2020 12:00:00 AM";"08:00 - 08:59";"06028";"Elandsgracht";"4.87741694";"52.36974738";"52"
"10/19/2020 12:00:00 AM";"08:00 - 08:59";"06029";"Elandsgracht";"4.87684368";"52.36852258";"56"
"10/19/2020 12:00:00 AM";"08:00 - 08:59";"06030";"Rozengracht";"4.87590932";"52.37187996";"11"
"10/19/2020 12:00:00 AM";"08:00 - 08:59";"06034";"Bilderdijkstraat";"4.87082347";"52.37105798";"10"
"10/19/2020 12:00:00 AM";"08:00 - 08:59";"06037";"Bilderdijkstraat";"4.86985701";"52.37082906";"33"
"10/19/2020 12:00:00 AM";"08:00 - 08:59";"06038";"De Clercqstraat";"4.87040279";"52.37061574";"11"
"10/19/2020 12:00:00 AM";"08:00 - 08:59";"06045";"1e Con. Huygensstraat";"4.87399228";"52.36242556";"16"
"10/19/2020 12:00:00 AM";"08:00 - 08:59";"06046";"1e Con. Huygensstraat";"4.87487082";"52.36262709";"20"
"10/19/2020 12:00:00 AM";"08:00 - 08:59";"06048";"J.P. Heijestraat";"4.86585368";"52.36037674";"19"
"10/19/2020 12:00:00 AM";"08:00 - 08:59";"06049";"J.P. Heijestraat";"4.86671778";"52.36055131";"21"
"10/19/2020 12:00:00 AM";"08:00 - 08:59";"06059";"Spiegelgracht";"4.88762090";"52.36071327";"12"
"10/19/2020 12:00:00 AM";"08:00 - 08:59";"06061";"Leidseplein";"4.88339576";"52.36305015";"43"
"10/19/2020 12:00:00 AM";"08:00 - 08:59";"06063";"Leidseplein";"4.88064547";"52.36476406";"29"
"10/19/2020 12:00:00 AM";"08:00 - 08:59";"06072";"Prinsengracht";"4.88428435";"52.36495933";"17"
"10/19/2020 12:00:00 AM";"08:00 - 08:59";"06074";"Keizersgracht";"4.88624128";"52.36588437";"14"
"10/19/2020 12:00:00 AM";"08:00 - 08:59";"06075";"Koningsplein";"4.88942793";"52.36713812";"10"
"10/19/2020 12:00:00 AM";"08:00 - 08:59";"06076";"Koningsplein";"4.88857910";"52.36689188";"38"
"10/19/2020 12:00:00 AM";"08:00 - 08:59";"06082";"Rhijnvis Feithstraat";"4.85967683";"52.35883943";"11"
"10/19/2020 12:00:00 AM";"08:00 - 08:59";"06089";"Leidseplein";"4.88085541";"52.36309324";"31"
"10/19/2020 12:00:00 AM";"08:00 - 08:59";"06114";"Hoofdweg";"4.85444451";"52.36425359";"21"
"10/19/2020 12:00:00 AM";"08:00 - 08:59";"07002";"Van Baerlestraat";"4.87836936";"52.35839997";"13"
"10/19/2020 12:00:00 AM";"08:00 - 08:59";"07006";"Museumplein";"4.87980116";"52.35642881";"48"
"10/19/2020 12:00:00 AM";"08:00 - 08:59";"07007";"Museumplein";"4.87950215";"52.35690388";"107"
"10/19/2020 12:00:00 AM";"08:00 - 08:59";"07015";"Roelof Hartplein";"4.88206971";"52.35314900";"29"
"10/19/2020 12:00:00 AM";"08:00 - 08:59";"07016";"Roelof Hartplein";"4.88286688";"52.35274795";"43"
"10/19/2020 12:00:00 AM";"08:00 - 08:59";"07017";"Roelof Hartplein";"4.88206086";"52.35263666";"14"
"10/19/2020 12:00:00 AM";"08:00 - 08:59";"07027";"Corn. Schuytstraat";"4.87051458";"52.35597520";"15"
"10/19/2020 12:00:00 AM";"08:00 - 08:59";"07031";"Valeriusplein";"4.86374943";"52.35333004";"24"
"10/19/2020 12:00:00 AM";"08:00 - 08:59";"07032";"Valeriusplein";"4.86326678";"52.35318410";"20"
"10/19/2020 12:00:00 AM";"08:00 - 08:59";"07033";"Amstelveenseweg";"4.85695925";"52.35161911";"10"
"10/19/2020 12:00:00 AM";"08:00 - 08:59";"07034";"Amstelveenseweg";"4.85596467";"52.35132704";"14"
"10/19/2020 12:00:00 AM";"08:00 - 08:59";"07035";"Zeilstraat";"4.85672894";"52.35124059";"15"
"10/19/2020 12:00:00 AM";"08:00 - 08:59";"07048";"Hoofddorpplein";"4.85010578";"52.35154327";"19"
"10/19/2020 12:00:00 AM";"08:00 - 08:59";"07049";"Hoofddorpplein";"4.84958188";"52.35117239";"28"
"10/19/2020 12:00:00 AM";"08:00 - 08:59";"07083";"Gerrit v.d. Veenstraat";"4.87735929";"52.34921014";"70"
"10/19/2020 12:00:00 AM";"08:00 - 08:59";"07084";"Gerrit v.d. Veenstraat";"4.87720177";"52.34886793";"45"
"10/19/2020 12:00:00 AM";"08:00 - 08:59";"07088";"Stadionweg";"4.87687497";"52.34665553";"21"
"10/19/2020 12:00:00 AM";"08:00 - 08:59";"07097";"Olympiaplein";"4.86582821";"52.34630180";"24"
"10/19/2020 12:00:00 AM";"08:00 - 08:59";"07130";"Pr. Irenestraat";"4.86819699";"52.34202504";"13"
"10/19/2020 12:00:00 AM";"08:00 - 08:59";"07131";"Pr. Irenestraat";"4.86833196";"52.34303226";"15"
"10/19/2020 12:00:00 AM";"08:00 - 08:59";"07157";"Van Heenvlietlaan";"4.88302129";"52.32494043";"15"
"10/19/2020 12:00:00 AM";"08:00 - 08:59";"07186";"Pr. Irenestraat";"4.87677483";"52.34260161";"14"
"10/19/2020 12:00:00 AM";"08:00 - 08:59";"07187";"Pr. Irenestraat";"4.87678341";"52.34313193";"10"
"10/19/2020 12:00:00 AM";"08:00 - 08:59";"07190";"Station Zuid";"4.87352214";"52.34089784";"20"
"10/19/2020 12:00:00 AM";"08:00 - 08:59";"07193";"Station Zuid";"4.87334616";"52.34088808";"19"
"10/19/2020 12:00:00 AM";"08:00 - 08:59";"07195";"Oranjebaan";"4.87311228";"52.30278774";"19"
"10/19/2020 12:00:00 AM";"08:00 - 08:59";"07198";"Oranjebaan";"4.87333874";"52.30348977";"22"
"10/19/2020 12:00:00 AM";"08:00 - 08:59";"07207";"IJsbaanpad";"4.85756146";"52.34051291";"12"
"10/19/2020 12:00:00 AM";"08:00 - 08:59";"07266";"Station Zuid";"4.87252654";"52.34070477";"20"
"10/19/2020 12:00:00 AM";"08:00 - 08:59";"07268";"Station Zuid";"4.87428608";"52.34082026";"10"
"10/19/2020 12:00:00 AM";"08:00 - 08:59";"07269";"Station Zuid";"4.87374306";"52.34082689";"31"
"10/19/2020 12:00:00 AM";"08:00 - 08:59";"07303";"VU medisch centrum";"4.86097062";"52.33515342";"35"
"10/19/2020 12:00:00 AM";"08:00 - 08:59";"07307";"Beethovenstraat";"4.87820649";"52.34700280";"15"
"10/19/2020 12:00:00 AM";"08:00 - 08:59";"07309";"Apollolaan";"4.88187688";"52.34816896";"13"
"10/19/2020 12:00:00 AM";"08:00 - 08:59";"07321";"Van Baerlestraat";"4.87895796";"52.35827667";"20"
"10/19/2020 12:00:00 AM";"08:00 - 08:59";"07322";"Van Baerlestraat";"4.87971942";"52.35844171";"38"
"10/19/2020 12:00:00 AM";"08:00 - 08:59";"07323";"Rijksmuseum";"4.88355043";"52.35977029";"28"
"10/19/2020 12:00:00 AM";"08:00 - 08:59";"07324";"Rijksmuseum";"4.88332565";"52.36017378";"15"
"10/19/2020 12:00:00 AM";"08:00 - 08:59";"07339";"Nieuw Herlaer";"4.88985946";"52.32602094";"12"
"10/19/2020 12:00:00 AM";"08:00 - 08:59";"07391";"Kronenburg";"4.87070592";"52.31556694";"26"
"10/19/2020 12:00:00 AM";"08:00 - 08:59";"07418";"Van Boshuizenstraat";"4.86902148";"52.32544617";"11"
"10/19/2020 12:00:00 AM";"08:00 - 08:59";"07419";"Van Boshuizenstraat";"4.86896941";"52.32487971";"177"
"10/19/2020 12:00:00 AM";"08:00 - 08:59";"07423";"Uilenstede";"4.86910951";"52.32167168";"17"
"10/19/2020 12:00:00 AM";"08:00 - 08:59";"07435";"Onderuit";"4.87243689";"52.30793483";"14"
"10/19/2020 12:00:00 AM";"08:00 - 08:59";"07439";"Oranjebaan";"4.87179001";"52.30302465";"19"
"10/19/2020 12:00:00 AM";"08:00 - 08:59";"07442";"Zonnestein";"4.87236664";"52.31146674";"12"
"10/19/2020 12:00:00 AM";"08:00 - 08:59";"07445";"Amstelveen Stadshart";"4.86751502";"52.30124433";"24"
"10/19/2020 12:00:00 AM";"08:00 - 08:59";"07448";"A.J. Ernststraat";"4.86887597";"52.33288743";"16"
"10/19/2020 12:00:00 AM";"08:00 - 08:59";"07449";"A.J. Ernststraat";"4.86879476";"52.33230287";"24"
"10/19/2020 12:00:00 AM";"08:00 - 08:59";"07504";"Langerhuize";"4.87793694";"52.29501614";"12"
"10/19/2020 12:00:00 AM";"08:00 - 08:59";"07505";"Ziekenhuis";"4.87154263";"52.29401774";"12"
"10/19/2020 12:00:00 AM";"08:00 - 08:59";"07506";"Groenhof";"4.86811736";"52.28858308";"14"
"10/19/2020 12:00:00 AM";"08:00 - 08:59";"07509";"Praam";"4.85570317";"52.27999842";"15"
"10/19/2020 12:00:00 AM";"08:00 - 08:59";"07513";"Sacharovlaan";"4.83264484";"52.28179795";"16"
"10/19/2020 12:00:00 AM";"08:00 - 08:59";"07523";"Zagerij";"4.84179654";"52.28120238";"16"
"10/19/2020 12:00:00 AM";"08:00 - 08:59";"08007";"Bob Haarmslaan";"4.96921237";"52.36876786";"29"
"10/19/2020 12:00:00 AM";"08:00 - 08:59";"08009";"Bob Haarmslaan";"4.96859205";"52.36915214";"57"
"10/19/2020 12:00:00 AM";"08:00 - 08:59";"08011";"C. van Eesterenlaan";"4.93855181";"52.37334722";"10"
"10/19/2020 12:00:00 AM";"08:00 - 08:59";"08014";"Azartplein";"4.93735640";"52.37682991";"10"
"10/19/2020 12:00:00 AM";"08:00 - 08:59";"08034";"P. Hendrikkade (uitstaphalte)";"4.90238928";"52.37685369";"12"
"10/19/2020 12:00:00 AM";"08:00 - 08:59";"08045";"Weesperplein";"4.91074647";"52.36172535";"54"
"10/19/2020 12:00:00 AM";"08:00 - 08:59";"08057";"Frederiksplein";"4.90024241";"52.35971430";"53"
"10/19/2020 12:00:00 AM";"08:00 - 08:59";"08058";"Veelaan";"4.93961588";"52.36830916";"12"
"10/19/2020 12:00:00 AM";"08:00 - 08:59";"08059";"Veelaan";"4.93944523";"52.36776026";"13"
"10/19/2020 12:00:00 AM";"08:00 - 08:59";"08066";"Frederiksplein";"4.89751569";"52.35937050";"15"
"10/19/2020 12:00:00 AM";"08:00 - 08:59";"08072";"Vijzelgracht";"4.89159781";"52.35953462";"19"
"10/19/2020 12:00:00 AM";"08:00 - 08:59";"08073";"Vijzelgracht";"4.89227386";"52.35946554";"17"
"10/19/2020 12:00:00 AM";"08:00 - 08:59";"08080";"Spiegelgracht";"4.88691222";"52.36106979";"34"
"10/19/2020 12:00:00 AM";"08:00 - 08:59";"08095";"Alexanderplein";"4.91969863";"52.36341478";"13"
"10/19/2020 12:00:00 AM";"08:00 - 08:59";"08113";"Javaplein";"4.93949828";"52.36395867";"27"
"10/19/2020 12:00:00 AM";"08:00 - 08:59";"08114";"Javaplein";"4.93955537";"52.36412066";"19"
"10/19/2020 12:00:00 AM";"08:00 - 08:59";"08120";"Insulindeweg";"4.94763926";"52.36469021";"11"
"10/19/2020 12:00:00 AM";"08:00 - 08:59";"08124";"Soembawastraat";"4.94346569";"52.36214910";"26"
"10/19/2020 12:00:00 AM";"08:00 - 08:59";"08127";"Zuiderzeeweg";"4.96256021";"52.37344474";"31"
"10/19/2020 12:00:00 AM";"08:00 - 08:59";"08128";"Zuiderzeeweg";"4.96221150";"52.37305702";"23"
"10/19/2020 12:00:00 AM";"08:00 - 08:59";"08129";"Molukkenstraat";"4.93861286";"52.36150167";"42"
"10/19/2020 12:00:00 AM";"08:00 - 08:59";"08190";"Molukkenstraat";"4.93934614";"52.36157635";"18"
"10/19/2020 12:00:00 AM";"08:00 - 08:59";"08195";"Oostenburgergracht";"4.92452709";"52.36780177";"15"
"10/19/2020 12:00:00 AM";"08:00 - 08:59";"08235";"Muziekgeb. Bimhuis";"4.91290020";"52.37723779";"14"
"10/19/2020 12:00:00 AM";"08:00 - 08:59";"08237";"Kattenburgerstraat";"4.92126795";"52.37614755";"21"
"10/19/2020 12:00:00 AM";"08:00 - 08:59";"08238";"Rietlandpark";"4.93350159";"52.37322013";"28"
"10/19/2020 12:00:00 AM";"08:00 - 08:59";"08239";"Rietlandpark";"4.93413567";"52.37296191";"42"
"10/19/2020 12:00:00 AM";"08:00 - 08:59";"08241";"Zuiderzeeweg";"4.96185517";"52.37193228";"26"
"10/19/2020 12:00:00 AM";"08:00 - 08:59";"08244";"Steigereiland";"4.98083725";"52.36280456";"14"
"10/19/2020 12:00:00 AM";"08:00 - 08:59";"08245";"Steigereiland";"4.98012952";"52.36313467";"29"
"10/19/2020 12:00:00 AM";"08:00 - 08:59";"08247";"Vennepluimstraat";"4.99057242";"52.35769662";"26"
"10/19/2020 12:00:00 AM";"08:00 - 08:59";"08249";"Diemerparklaan";"4.99499716";"52.35532962";"28"
"10/19/2020 12:00:00 AM";"08:00 - 08:59";"08251";"Lumi?restraat";"4.99942127";"52.35298044";"16"
"10/19/2020 12:00:00 AM";"08:00 - 08:59";"08262";"IJburg";"5.00486802";"52.35112872";"152"
"10/19/2020 12:00:00 AM";"08:00 - 08:59";"08300";"P.Oosterhuisstraat";"5.00693059";"52.35193526";"46"
"10/19/2020 12:00:00 AM";"08:00 - 08:59";"09003";"Dintelstraat";"4.89289498";"52.34192405";"18"
"10/19/2020 12:00:00 AM";"08:00 - 08:59";"09013";"Amstelstation";"4.91790223";"52.34725673";"13"
"10/19/2020 12:00:00 AM";"08:00 - 08:59";"09016";"Amstelstation";"4.91953925";"52.34649925";"14"
"10/19/2020 12:00:00 AM";"08:00 - 08:59";"09023";"Camperstraat";"4.91383551";"52.35840330";"12"
"10/19/2020 12:00:00 AM";"08:00 - 08:59";"09024";"Camperstraat";"4.91339591";"52.35832964";"18"
"10/19/2020 12:00:00 AM";"08:00 - 08:59";"09027";"Wibautstraat";"4.90986831";"52.35738074";"13"
"10/19/2020 12:00:00 AM";"08:00 - 08:59";"09049";"Victorieplein";"4.90570139";"52.34637186";"26"
"10/19/2020 12:00:00 AM";"08:00 - 08:59";"09051";"Victorieplein";"4.90653699";"52.34645615";"13"
"10/19/2020 12:00:00 AM";"08:00 - 08:59";"09060";"Waalstraat";"4.90103893";"52.34462715";"12"
"10/19/2020 12:00:00 AM";"08:00 - 08:59";"09074";"Scheldestraat";"4.89116002";"52.34748022";"11"
"10/19/2020 12:00:00 AM";"08:00 - 08:59";"09079";"Maasstraat";"4.89545003";"52.34706671";"14"
"10/19/2020 12:00:00 AM";"08:00 - 08:59";"09082";"Waalstraat";"4.89974094";"52.34656317";"44"
"10/19/2020 12:00:00 AM";"08:00 - 08:59";"09083";"Waalstraat";"4.90032528";"52.34680824";"61"
"10/19/2020 12:00:00 AM";"08:00 - 08:59";"09091";"Lutmastraat";"4.90313216";"52.35184391";"11"
"10/19/2020 12:00:00 AM";"08:00 - 08:59";"09096";"Van Woustraat";"4.90163035";"52.35495650";"17"
"10/19/2020 12:00:00 AM";"08:00 - 08:59";"09097";"Van Woustraat";"4.90084070";"52.35468363";"43"
"10/19/2020 12:00:00 AM";"08:00 - 08:59";"09108";"2e v.d.Helststraat";"4.89423729";"52.35319131";"11"
"10/19/2020 12:00:00 AM";"08:00 - 08:59";"09109";"2e v.d.Helststraat";"4.89488170";"52.35331982";"19"
"10/19/2020 12:00:00 AM";"08:00 - 08:59";"09111";"De Pijp";"4.89073444";"52.35272728";"31"
"10/19/2020 12:00:00 AM";"08:00 - 08:59";"09114";"De Pijp";"4.88948829";"52.35259622";"32"
"10/19/2020 12:00:00 AM";"08:00 - 08:59";"09120";"Cornelis Troostplein";"4.89161100";"52.35046604";"31"
"10/19/2020 12:00:00 AM";"08:00 - 08:59";"09175";"James Wattstraat";"4.92275924";"52.35153607";"10"
"10/19/2020 12:00:00 AM";"08:00 - 08:59";"09176";"James Wattstraat";"4.92329155";"52.35116068";"39"
"10/19/2020 12:00:00 AM";"08:00 - 08:59";"ASA";"Amstelstation";"4.91751426";"52.34647326";"328"
"10/19/2020 12:00:00 AM";"08:00 - 08:59";"ASW";"Amstelveenseweg";"4.85798324";"52.33836671";"381"
"10/19/2020 12:00:00 AM";"08:00 - 08:59";"BLW";"Bullewijk";"4.95233581";"52.30642205";"109"
"10/19/2020 12:00:00 AM";"08:00 - 08:59";"BMR";"Station Bijlmer ArenA";"4.94713474";"52.31193030";"416"
"10/19/2020 12:00:00 AM";"08:00 - 08:59";"CLL";"Station Lelylaan";"4.83426589";"52.35766291";"270"
"10/19/2020 12:00:00 AM";"08:00 - 08:59";"CS";"Centraal Station";"4.90078150";"52.37749421";"504"
"10/19/2020 12:00:00 AM";"08:00 - 08:59";"DMZ";"Station Diemen-Zuid";"4.95713273";"52.33042795";"37"
"10/19/2020 12:00:00 AM";"08:00 - 08:59";"DPP";"De Pijp";"4.89101069";"52.35296212";"387"
"10/19/2020 12:00:00 AM";"08:00 - 08:59";"DVD";"Station Duivendrecht";"4.93678429";"52.32325190";"86"
"10/19/2020 12:00:00 AM";"08:00 - 08:59";"EPP";"Europaplein";"4.89138430";"52.34185482";"405"
"10/19/2020 12:00:00 AM";"08:00 - 08:59";"GN";"Gein";"4.98952268";"52.29627089";"81"
"10/19/2020 12:00:00 AM";"08:00 - 08:59";"GPP";"Gaasperplas";"4.98468551";"52.31080575";"30"
"10/19/2020 12:00:00 AM";"08:00 - 08:59";"GZH";"Station Ganzenhoef";"4.97323379";"52.32331315";"73"
"10/19/2020 12:00:00 AM";"08:00 - 08:59";"HDS";"Heemstedestraat";"4.83421208";"52.35255760";"93"
"10/19/2020 12:00:00 AM";"08:00 - 08:59";"HLD";"Station Holendrecht";"4.96021904";"52.29780451";"380"
"10/19/2020 12:00:00 AM";"08:00 - 08:59";"HVW";"Henk Sneevlietweg";"4.83439318";"52.34626699";"476"
"10/19/2020 12:00:00 AM";"08:00 - 08:59";"ITW";"Isolatorweg";"4.85013475";"52.39523277";"285"
"10/19/2020 12:00:00 AM";"08:00 - 08:59";"JLS";"Jan v.Galenstraat";"4.83492461";"52.37196551";"290"
"10/19/2020 12:00:00 AM";"08:00 - 08:59";"KEN";"Kraaienneststation";"4.97963450";"52.31632492";"43"
"10/19/2020 12:00:00 AM";"08:00 - 08:59";"MDW";"Van der Madeweg";"4.93048657";"52.32945629";"113"
"10/19/2020 12:00:00 AM";"08:00 - 08:59";"ND";"Noord";"4.93123182";"52.40117202";"189"
"10/19/2020 12:00:00 AM";"08:00 - 08:59";"NDP";"Noorderpark";"4.91789115";"52.38855518";"214"
"10/19/2020 12:00:00 AM";"08:00 - 08:59";"NMT";"Nieuwmarkt";"4.90123885";"52.37194169";"96"
"10/19/2020 12:00:00 AM";"08:00 - 08:59";"OAS";"Overamstel";"4.91815361";"52.33179879";"104"
"10/19/2020 12:00:00 AM";"08:00 - 08:59";"PJW";"Postjesweg";"4.83385543";"52.36468044";"228"
"10/19/2020 12:00:00 AM";"08:00 - 08:59";"RAI";"Station RAI";"4.88982004";"52.33739931";"311"
"10/19/2020 12:00:00 AM";"08:00 - 08:59";"RGB";"Reigersbos";"4.97473728";"52.29566301";"229"
"10/19/2020 12:00:00 AM";"08:00 - 08:59";"RKN";"Rokin";"4.89229651";"52.36928023";"273"
"10/19/2020 12:00:00 AM";"08:00 - 08:59";"SLW";"Spaklerweg";"4.92085640";"52.33986250";"90"
"10/19/2020 12:00:00 AM";"08:00 - 08:59";"STD";"Station Sloterdijk";"4.83878389";"52.38880848";"266"
"10/19/2020 12:00:00 AM";"08:00 - 08:59";"SVT";"Strandvliet";"4.94152820";"52.31825469";"113"
"10/19/2020 12:00:00 AM";"08:00 - 08:59";"VLN";"Burg.de Vlugtlaan";"4.83809109";"52.37951196";"69"
"10/19/2020 12:00:00 AM";"08:00 - 08:59";"VPD";"Venserpolder";"4.94665009";"52.32679428";"93"
"10/19/2020 12:00:00 AM";"08:00 - 08:59";"VSW";"Verrijn Stuartweg";"4.96693669";"52.32844093";"32"
"10/19/2020 12:00:00 AM";"08:00 - 08:59";"VZG";"Vijzelgracht";"4.89072870";"52.35980061";"177"
"10/19/2020 12:00:00 AM";"08:00 - 08:59";"WBS";"Wibautstraat";"4.91202993";"52.35428867";"226"
"10/19/2020 12:00:00 AM";"08:00 - 08:59";"WLP";"Waterlooplein";"4.90298171";"52.36697862";"222"
"10/19/2020 12:00:00 AM";"08:00 - 08:59";"WPP";"Weesperplein";"4.90787469";"52.36120146";"364"
"10/19/2020 12:00:00 AM";"08:00 - 08:59";"WTC";"Station Zuid";"4.87509853";"52.33908015";"761"
"10/19/2020 12:00:00 AM";"09:00 - 09:59";"";"Overig";"";"";"2524"
"10/19/2020 12:00:00 AM";"09:00 - 09:59";"[[ Onb";"[[ Onbekend ]]";"0.00000000";"0.00000000";"354"
"10/19/2020 12:00:00 AM";"09:00 - 09:59";"00005";"Muiderpoortstation";"4.93280219";"52.36121887";"26"
"10/19/2020 12:00:00 AM";"09:00 - 09:59";"00007";"Muiderpoortstation";"4.93356602";"52.36117686";"16"
"10/19/2020 12:00:00 AM";"09:00 - 09:59";"00008";"Dapperstraat";"4.92977913";"52.36110836";"37"
"10/19/2020 12:00:00 AM";"09:00 - 09:59";"00010";"Dapperstraat";"4.92891486";"52.36092527";"16"
"10/19/2020 12:00:00 AM";"09:00 - 09:59";"00017";"Linnaeusstraat";"4.92573745";"52.36013099";"11"
"10/19/2020 12:00:00 AM";"09:00 - 09:59";"00020";"Beukenweg";"4.91674979";"52.35906203";"22"
"10/19/2020 12:00:00 AM";"09:00 - 09:59";"00021";"Beukenweg";"4.91721293";"52.35829991";"40"
"10/19/2020 12:00:00 AM";"09:00 - 09:59";"00029";"Oostpoort";"4.92719316";"52.35707185";"36"
"10/19/2020 12:00:00 AM";"09:00 - 09:59";"00030";"Oostpoort";"4.92694026";"52.35739442";"17"
"10/19/2020 12:00:00 AM";"09:00 - 09:59";"00039";"Hogeweg";"4.93084015";"52.35358075";"15"
"10/19/2020 12:00:00 AM";"09:00 - 09:59";"00040";"Hogeweg";"4.93135765";"52.35321425";"15"
"10/19/2020 12:00:00 AM";"09:00 - 09:59";"00051";"Pekelharingstraat";"4.93652909";"52.34551360";"12"
"10/19/2020 12:00:00 AM";"09:00 - 09:59";"00059";"Radioweg";"4.93945830";"52.35337100";"12"
"10/19/2020 12:00:00 AM";"09:00 - 09:59";"00070";"Kruislaan";"4.93993910";"52.34789929";"16"
"10/19/2020 12:00:00 AM";"09:00 - 09:59";"00074";"Brinkstraat";"4.94797289";"52.34285131";"10"
"10/19/2020 12:00:00 AM";"09:00 - 09:59";"00141";"Kraaienneststation";"4.97868390";"52.31603403";"14"
"10/19/2020 12:00:00 AM";"09:00 - 09:59";"00150";"Tulastraat";"4.96535973";"52.31994189";"43"
"10/19/2020 12:00:00 AM";"09:00 - 09:59";"00151";"Tulastraat";"4.96584458";"52.31985374";"24"
"10/19/2020 12:00:00 AM";"09:00 - 09:59";"00197";"Annie Romeinplein";"4.97162041";"52.32173463";"13"
"10/19/2020 12:00:00 AM";"09:00 - 09:59";"00238";"Anton de Komplein";"4.95413359";"52.31603659";"27"
"10/19/2020 12:00:00 AM";"09:00 - 09:59";"00239";"Anton de Komplein";"4.95597669";"52.31652866";"12"
"10/19/2020 12:00:00 AM";"09:00 - 09:59";"00345";"Station Gein";"4.98911240";"52.29625153";"17"
"10/19/2020 12:00:00 AM";"09:00 - 09:59";"00351";"Dostojevskisingel";"4.94525272";"52.32275356";"18"
"10/19/2020 12:00:00 AM";"09:00 - 09:59";"00432";"Diemerbrug";"4.96142958";"52.33824484";"10"
"10/19/2020 12:00:00 AM";"09:00 - 09:59";"00434";"Bijlmerplein";"4.95032022";"52.31457553";"27"
"10/19/2020 12:00:00 AM";"09:00 - 09:59";"00441";"Muiderpoortstation";"4.93254137";"52.36088532";"11"
"10/19/2020 12:00:00 AM";"09:00 - 09:59";"00444";"Linnaeusstraat";"4.92490296";"52.35991203";"32"
"10/19/2020 12:00:00 AM";"09:00 - 09:59";"00453";"Diemen Sniep";"4.96964866";"52.33644962";"13"
"10/19/2020 12:00:00 AM";"09:00 - 09:59";"00505";"Arent Krijtsstraat";"4.95469645";"52.33956859";"11"
"10/19/2020 12:00:00 AM";"09:00 - 09:59";"00560";"Station Bijlmer ArenA";"4.94747867";"52.31125750";"10"
"10/19/2020 12:00:00 AM";"09:00 - 09:59";"00561";"Station Bijlmer ArenA";"4.94741931";"52.31132918";"23"
"10/19/2020 12:00:00 AM";"09:00 - 09:59";"00568";"Station Bijlmer ArenA";"4.94762664";"52.31112323";"11"
"10/19/2020 12:00:00 AM";"09:00 - 09:59";"00603";"V. Houten Ind.park";"5.03580865";"52.30648376";"10"
"10/19/2020 12:00:00 AM";"09:00 - 09:59";"01076";"Waterlandplein";"4.95247364";"52.39274059";"12"
"10/19/2020 12:00:00 AM";"09:00 - 09:59";"01110";"Rode Kruisstraat";"4.92847908";"52.39455548";"16"
"10/19/2020 12:00:00 AM";"09:00 - 09:59";"01111";"Rode Kruisstraat";"4.92881363";"52.39488033";"27"
"10/19/2020 12:00:00 AM";"09:00 - 09:59";"01117";"Merelstraat";"4.92505977";"52.38995848";"10"
"10/19/2020 12:00:00 AM";"09:00 - 09:59";"01155";"Mosplein";"4.91358361";"52.39300490";"10"
"10/19/2020 12:00:00 AM";"09:00 - 09:59";"01189";"Pinksterbloemstraat";"4.91221693";"52.39852684";"18"
"10/19/2020 12:00:00 AM";"09:00 - 09:59";"01191";"Pinksterbloemstraat";"4.91203754";"52.39881372";"26"
"10/19/2020 12:00:00 AM";"09:00 - 09:59";"01315";"Station Noord";"4.93339740";"52.40206112";"23"
"10/19/2020 12:00:00 AM";"09:00 - 09:59";"01316";"Station Noord";"4.93336820";"52.40204304";"13"
"10/19/2020 12:00:00 AM";"09:00 - 09:59";"01352";"Oosterlengte";"4.92206974";"52.40611555";"12"
"10/19/2020 12:00:00 AM";"09:00 - 09:59";"01363";"Buikslotermeerplein";"4.93968364";"52.39943369";"11"
"10/19/2020 12:00:00 AM";"09:00 - 09:59";"01365";"Atat?rk";"4.89794256";"52.40319625";"10"
"10/19/2020 12:00:00 AM";"09:00 - 09:59";"01414";"Olof Palmeplein";"4.94012168";"52.39679298";"15"
"10/19/2020 12:00:00 AM";"09:00 - 09:59";"01417";"Johan v.Hasseltweg";"4.92309870";"52.38784770";"13"
"10/19/2020 12:00:00 AM";"09:00 - 09:59";"01422";"Noorderpark";"4.91956087";"52.38902016";"11"
"10/19/2020 12:00:00 AM";"09:00 - 09:59";"02019";"Koivistokade";"4.87537403";"52.39790601";"14"
"10/19/2020 12:00:00 AM";"09:00 - 09:59";"02103";"Spaarndammerstraat";"4.87765867";"52.39216375";"22"
"10/19/2020 12:00:00 AM";"09:00 - 09:59";"02113";"Haarlemmerplein";"4.88371739";"52.38516129";"13"
"10/19/2020 12:00:00 AM";"09:00 - 09:59";"02114";"Haarlemmerplein";"4.88341252";"52.38484542";"33"
"10/19/2020 12:00:00 AM";"09:00 - 09:59";"02132";"Fred. Hendrikplants.";"4.87543499";"52.37862768";"30"
"10/19/2020 12:00:00 AM";"09:00 - 09:59";"02156";"Willem de Zwijgerlaan";"4.86425293";"52.37039101";"11"
"10/19/2020 12:00:00 AM";"09:00 - 09:59";"02157";"Adm. de Ruijterweg";"4.86009910";"52.37148707";"12"
"10/19/2020 12:00:00 AM";"09:00 - 09:59";"02167";"Bos en Lommerweg";"4.85380049";"52.38118358";"14"
"10/19/2020 12:00:00 AM";"09:00 - 09:59";"02169";"Wiltzanghlaan";"4.85218893";"52.38206609";"12"
"10/19/2020 12:00:00 AM";"09:00 - 09:59";"02170";"Spaarndammerstraat";"4.87723089";"52.39231470";"14"
"10/19/2020 12:00:00 AM";"09:00 - 09:59";"02171";"Wiltzanghlaan";"4.85060722";"52.38290378";"12"
"10/19/2020 12:00:00 AM";"09:00 - 09:59";"02177";"Bos en Lommerweg";"4.85521256";"52.38101018";"12"
"10/19/2020 12:00:00 AM";"09:00 - 09:59";"02182";"Markthallen";"4.86695146";"52.37567869";"47"
"10/19/2020 12:00:00 AM";"09:00 - 09:59";"02193";"Marnixplein";"4.87844490";"52.37741832";"36"
"10/19/2020 12:00:00 AM";"09:00 - 09:59";"02199";"Eerste Marnixdwarsstraat";"4.88203787";"52.38302405";"10"
"10/19/2020 12:00:00 AM";"09:00 - 09:59";"02259";"Contactweg";"4.85657970";"52.39195435";"58"
"10/19/2020 12:00:00 AM";"09:00 - 09:59";"02260";"Contactweg";"4.85432952";"52.39215995";"28"
"10/19/2020 12:00:00 AM";"09:00 - 09:59";"02301";"Fred. Hendrikplants.";"4.87521585";"52.37852787";"21"
"10/19/2020 12:00:00 AM";"09:00 - 09:59";"02302";"Fred. Hendrikplants.";"4.87549415";"52.37859198";"14"
"10/19/2020 12:00:00 AM";"09:00 - 09:59";"02309";"Plesostraat";"4.82645527";"52.38795084";"34"
"10/19/2020 12:00:00 AM";"09:00 - 09:59";"02310";"Plesostraat";"4.82849791";"52.38788859";"23"
"10/19/2020 12:00:00 AM";"09:00 - 09:59";"02319";"Solebaystraat";"4.85540788";"52.38431853";"11"
"10/19/2020 12:00:00 AM";"09:00 - 09:59";"02321";"Van Hallstraat";"4.86864429";"52.38538386";"16"
"10/19/2020 12:00:00 AM";"09:00 - 09:59";"02361";"Station Sloterdijk";"4.83931858";"52.38833460";"30"
"10/19/2020 12:00:00 AM";"09:00 - 09:59";"02365";"Station Sloterdijk";"4.83873236";"52.38822404";"16"
"10/19/2020 12:00:00 AM";"09:00 - 09:59";"02367";"Station Sloterdijk";"4.83876429";"52.38801747";"16"
"10/19/2020 12:00:00 AM";"09:00 - 09:59";"02368";"Station Sloterdijk";"4.83877999";"52.38793665";"12"
"10/19/2020 12:00:00 AM";"09:00 - 09:59";"02370";"Station Sloterdijk";"4.83879745";"52.38771204";"21"
"10/19/2020 12:00:00 AM";"09:00 - 09:59";"03009";"Witte de Withstraat";"4.85851970";"52.36478416";"18"
"10/19/2020 12:00:00 AM";"09:00 - 09:59";"03010";"Witte de Withstraat";"4.85928290";"52.36480554";"12"
"10/19/2020 12:00:00 AM";"09:00 - 09:59";"03012";"Hoofdweg";"4.85237353";"52.36432514";"10"
"10/19/2020 12:00:00 AM";"09:00 - 09:59";"03024";"Marco Polostraat";"4.85546532";"52.37095405";"13"
"10/19/2020 12:00:00 AM";"09:00 - 09:59";"03028";"Jan van Galenstraat";"4.84921138";"52.37204926";"11"
"10/19/2020 12:00:00 AM";"09:00 - 09:59";"03052";"Burg. Eliasstraat";"4.82565009";"52.38077481";"23"
"10/19/2020 12:00:00 AM";"09:00 - 09:59";"03061";"Bos en Lommerplein";"4.84523530";"52.37778328";"15"
"10/19/2020 12:00:00 AM";"09:00 - 09:59";"03076";"Jan Tooropstraat";"4.83810313";"52.37142305";"24"
"10/19/2020 12:00:00 AM";"09:00 - 09:59";"03077";"Jan Tooropstraat";"4.83817288";"52.37171997";"15"
"10/19/2020 12:00:00 AM";"09:00 - 09:59";"03087";"Plein '40 - '45";"4.82063128";"52.38159575";"17"
"10/19/2020 12:00:00 AM";"09:00 - 09:59";"03108";"Herman Bonpad";"4.80080718";"52.36796367";"67"
"10/19/2020 12:00:00 AM";"09:00 - 09:59";"03109";"Herman Bonpad";"4.80064754";"52.36893356";"11"
"10/19/2020 12:00:00 AM";"09:00 - 09:59";"03117";"Sam van Houtenstraat";"4.79790430";"52.37868964";"11"
"10/19/2020 12:00:00 AM";"09:00 - 09:59";"03121";"Aalbersestraat";"4.79774249";"52.38202329";"10"
"10/19/2020 12:00:00 AM";"09:00 - 09:59";"03129";"Plein '40 - '45";"4.82112672";"52.38075328";"11"
"10/19/2020 12:00:00 AM";"09:00 - 09:59";"03150";"Mercatorplein";"4.85011339";"52.37031872";"10"
"10/19/2020 12:00:00 AM";"09:00 - 09:59";"03167";"Bos en Lommerplein";"4.84650668";"52.37709704";"27"
"10/19/2020 12:00:00 AM";"09:00 - 09:59";"03168";"Mercatorplein";"4.85152392";"52.37024423";"15"
"10/19/2020 12:00:00 AM";"09:00 - 09:59";"03169";"Jan v.Galenstraat";"4.83601291";"52.37301316";"22"
"10/19/2020 12:00:00 AM";"09:00 - 09:59";"03172";"Burg. Rendorpstraat";"4.82691962";"52.37445346";"10"
"10/19/2020 12:00:00 AM";"09:00 - 09:59";"04016";"Hoekenes";"4.79854723";"52.35791310";"17"
"10/19/2020 12:00:00 AM";"09:00 - 09:59";"04021";"Osdorpplein";"4.80322868";"52.35913166";"30"
"10/19/2020 12:00:00 AM";"09:00 - 09:59";"04043";"Ruimzicht";"4.80749209";"52.35978176";"22"
"10/19/2020 12:00:00 AM";"09:00 - 09:59";"04050";"Meer en Vaart";"4.80994403";"52.35636940";"29"
"10/19/2020 12:00:00 AM";"09:00 - 09:59";"04060";"Derkinderenstraat";"4.83972293";"52.35796689";"10"
"10/19/2020 12:00:00 AM";"09:00 - 09:59";"04062";"Johan Huizingalaan";"4.82582327";"52.35781191";"10"
"10/19/2020 12:00:00 AM";"09:00 - 09:59";"04063";"Johan Huizingalaan";"4.82626398";"52.35778704";"20"
"10/19/2020 12:00:00 AM";"09:00 - 09:59";"04112";"Johan Huizingalaan";"4.82742878";"52.34923618";"14"
"10/19/2020 12:00:00 AM";"09:00 - 09:59";"04133";"Robert Fruinlaan";"4.82910660";"52.36403799";"17"
"10/19/2020 12:00:00 AM";"09:00 - 09:59";"04148";"Louis Davidsstraat";"4.80952552";"52.35356316";"25"
"10/19/2020 12:00:00 AM";"09:00 - 09:59";"04195";"Station Lelylaan";"4.83460082";"52.35788018";"40"
"10/19/2020 12:00:00 AM";"09:00 - 09:59";"04196";"Station Lelylaan";"4.83382251";"52.35790351";"54"
"10/19/2020 12:00:00 AM";"09:00 - 09:59";"04267";"Schiphol Airport/Plaza";"4.76139455";"52.30887344";"11"
"10/19/2020 12:00:00 AM";"09:00 - 09:59";"04279";"Kasterleepark";"4.81104243";"52.34638930";"11"
"10/19/2020 12:00:00 AM";"09:00 - 09:59";"04407";"Ecuplein";"4.78817670";"52.34970912";"10"
"10/19/2020 12:00:00 AM";"09:00 - 09:59";"04409";"Baden Powellweg";"4.79441281";"52.35092691";"33"
"10/19/2020 12:00:00 AM";"09:00 - 09:59";"04411";"Hoekenes";"4.80183430";"52.35243785";"12"
"10/19/2020 12:00:00 AM";"09:00 - 09:59";"04413";"Louis Davidsstraat";"4.80850916";"52.35383682";"18"
"10/19/2020 12:00:00 AM";"09:00 - 09:59";"05011";"Centraal Station";"4.89921803";"52.37810793";"80"
"10/19/2020 12:00:00 AM";"09:00 - 09:59";"05022";"Centraal Station";"4.90104337";"52.37771998";"83"
"10/19/2020 12:00:00 AM";"09:00 - 09:59";"05031";"Dam";"4.89348394";"52.37341055";"14"
"10/19/2020 12:00:00 AM";"09:00 - 09:59";"05032";"Dam";"4.89549360";"52.37492885";"19"
"10/19/2020 12:00:00 AM";"09:00 - 09:59";"05035";"Rokin";"4.89210433";"52.36939627";"14"
"10/19/2020 12:00:00 AM";"09:00 - 09:59";"05036";"Rokin";"4.89230478";"52.36985548";"16"
"10/19/2020 12:00:00 AM";"09:00 - 09:59";"05046";"Rembrandtplein";"4.89627976";"52.36625897";"11"
"10/19/2020 12:00:00 AM";"09:00 - 09:59";"05047";"Rembrandtplein";"4.89702882";"52.36623511";"15"
"10/19/2020 12:00:00 AM";"09:00 - 09:59";"05062";"Spui";"4.88925912";"52.36909673";"16"
"10/19/2020 12:00:00 AM";"09:00 - 09:59";"05063";"Dam";"4.89064590";"52.37244599";"23"
"10/19/2020 12:00:00 AM";"09:00 - 09:59";"05065";"Dam";"4.89079364";"52.37367792";"31"
"10/19/2020 12:00:00 AM";"09:00 - 09:59";"05066";"Dam";"4.89027056";"52.37318140";"55"
"10/19/2020 12:00:00 AM";"09:00 - 09:59";"05070";"Nieuwezijds Kolk";"4.89284106";"52.37575366";"15"
"10/19/2020 12:00:00 AM";"09:00 - 09:59";"05073";"Westermarkt";"4.88453426";"52.37400204";"18"
"10/19/2020 12:00:00 AM";"09:00 - 09:59";"05074";"Westermarkt";"4.88354950";"52.37407874";"43"
"10/19/2020 12:00:00 AM";"09:00 - 09:59";"05077";"Marnixstraat";"4.87615428";"52.37228546";"29"
"10/19/2020 12:00:00 AM";"09:00 - 09:59";"05080";"Buiten Oranjestraat";"4.88782167";"52.38330923";"15"
"10/19/2020 12:00:00 AM";"09:00 - 09:59";"05097";"Centraal Station";"4.90087651";"52.37954379";"24"
"10/19/2020 12:00:00 AM";"09:00 - 09:59";"05103";"Centraal Station";"4.90127481";"52.37938365";"19"
"10/19/2020 12:00:00 AM";"09:00 - 09:59";"05104";"Centraal Station";"4.90164343";"52.37925034";"12"
"10/19/2020 12:00:00 AM";"09:00 - 09:59";"05154";"Marnixstraat";"4.87536375";"52.37207533";"17"
"10/19/2020 12:00:00 AM";"09:00 - 09:59";"06001";"Surinameplein";"4.85252231";"52.35807034";"25"
"10/19/2020 12:00:00 AM";"09:00 - 09:59";"06002";"Surinameplein";"4.85090753";"52.35807202";"14"
"10/19/2020 12:00:00 AM";"09:00 - 09:59";"06016";"J.P. Heijestraat";"4.86239635";"52.36472951";"25"
"10/19/2020 12:00:00 AM";"09:00 - 09:59";"06017";"J.P. Heijestraat";"4.86292316";"52.36487565";"13"
"10/19/2020 12:00:00 AM";"09:00 - 09:59";"06019";"Ten Katestraat";"4.86737423";"52.36591988";"22"
"10/19/2020 12:00:00 AM";"09:00 - 09:59";"06020";"Ten Katestraat";"4.86773990";"52.36603832";"41"
"10/19/2020 12:00:00 AM";"09:00 - 09:59";"06021";"Bilderdijkstraat";"4.87176488";"52.36712545";"23"
"10/19/2020 12:00:00 AM";"09:00 - 09:59";"06023";"Bilderdijkstraat";"4.87254032";"52.36736251";"34"
"10/19/2020 12:00:00 AM";"09:00 - 09:59";"06024";"Kinkerstraat";"4.87230885";"52.36706491";"14"
"10/19/2020 12:00:00 AM";"09:00 - 09:59";"06027";"Elandsgracht";"4.87855189";"52.36808953";"20"
"10/19/2020 12:00:00 AM";"09:00 - 09:59";"06028";"Elandsgracht";"4.87741694";"52.36974738";"40"
"10/19/2020 12:00:00 AM";"09:00 - 09:59";"06029";"Elandsgracht";"4.87684368";"52.36852258";"64"
"10/19/2020 12:00:00 AM";"09:00 - 09:59";"06034";"Bilderdijkstraat";"4.87082347";"52.37105798";"12"
"10/19/2020 12:00:00 AM";"09:00 - 09:59";"06037";"Bilderdijkstraat";"4.86985701";"52.37082906";"29"
"10/19/2020 12:00:00 AM";"09:00 - 09:59";"06043";"Overtoom";"4.87510145";"52.36299659";"10"
"10/19/2020 12:00:00 AM";"09:00 - 09:59";"06045";"1e Con. Huygensstraat";"4.87399228";"52.36242556";"14"
"10/19/2020 12:00:00 AM";"09:00 - 09:59";"06046";"1e Con. Huygensstraat";"4.87487082";"52.36262709";"21"
"10/19/2020 12:00:00 AM";"09:00 - 09:59";"06048";"J.P. Heijestraat";"4.86585368";"52.36037674";"25"
"10/19/2020 12:00:00 AM";"09:00 - 09:59";"06049";"J.P. Heijestraat";"4.86671778";"52.36055131";"12"
"10/19/2020 12:00:00 AM";"09:00 - 09:59";"06059";"Spiegelgracht";"4.88762090";"52.36071327";"12"
"10/19/2020 12:00:00 AM";"09:00 - 09:59";"06061";"Leidseplein";"4.88339576";"52.36305015";"54"
"10/19/2020 12:00:00 AM";"09:00 - 09:59";"06063";"Leidseplein";"4.88064547";"52.36476406";"30"
"10/19/2020 12:00:00 AM";"09:00 - 09:59";"06067";"Leidseplein";"4.88301434";"52.36431580";"14"
"10/19/2020 12:00:00 AM";"09:00 - 09:59";"06072";"Prinsengracht";"4.88428435";"52.36495933";"18"
"10/19/2020 12:00:00 AM";"09:00 - 09:59";"06073";"Keizersgracht";"4.88666521";"52.36604795";"12"
"10/19/2020 12:00:00 AM";"09:00 - 09:59";"06074";"Keizersgracht";"4.88624128";"52.36588437";"17"
"10/19/2020 12:00:00 AM";"09:00 - 09:59";"06075";"Koningsplein";"4.88942793";"52.36713812";"14"
"10/19/2020 12:00:00 AM";"09:00 - 09:59";"06076";"Koningsplein";"4.88857910";"52.36689188";"27"
"10/19/2020 12:00:00 AM";"09:00 - 09:59";"06081";"Rhijnvis Feithstraat";"4.86039355";"52.35905833";"16"
"10/19/2020 12:00:00 AM";"09:00 - 09:59";"06082";"Rhijnvis Feithstraat";"4.85967683";"52.35883943";"12"
"10/19/2020 12:00:00 AM";"09:00 - 09:59";"06089";"Leidseplein";"4.88085541";"52.36309324";"55"
"10/19/2020 12:00:00 AM";"09:00 - 09:59";"06114";"Hoofdweg";"4.85444451";"52.36425359";"21"
"10/19/2020 12:00:00 AM";"09:00 - 09:59";"07002";"Van Baerlestraat";"4.87836936";"52.35839997";"12"
"10/19/2020 12:00:00 AM";"09:00 - 09:59";"07006";"Museumplein";"4.87980116";"52.35642881";"51"
"10/19/2020 12:00:00 AM";"09:00 - 09:59";"07007";"Museumplein";"4.87950215";"52.35690388";"99"
"10/19/2020 12:00:00 AM";"09:00 - 09:59";"07015";"Roelof Hartplein";"4.88206971";"52.35314900";"42"
"10/19/2020 12:00:00 AM";"09:00 - 09:59";"07016";"Roelof Hartplein";"4.88286688";"52.35274795";"50"
"10/19/2020 12:00:00 AM";"09:00 - 09:59";"07017";"Roelof Hartplein";"4.88206086";"52.35263666";"13"
"10/19/2020 12:00:00 AM";"09:00 - 09:59";"07027";"Corn. Schuytstraat";"4.87051458";"52.35597520";"24"
"10/19/2020 12:00:00 AM";"09:00 - 09:59";"07028";"Corn. Schuytstraat";"4.87088070";"52.35604870";"16"
"10/19/2020 12:00:00 AM";"09:00 - 09:59";"07031";"Valeriusplein";"4.86374943";"52.35333004";"23"
"10/19/2020 12:00:00 AM";"09:00 - 09:59";"07032";"Valeriusplein";"4.86326678";"52.35318410";"13"
"10/19/2020 12:00:00 AM";"09:00 - 09:59";"07033";"Amstelveenseweg";"4.85695925";"52.35161911";"12"
"10/19/2020 12:00:00 AM";"09:00 - 09:59";"07034";"Amstelveenseweg";"4.85596467";"52.35132704";"14"
"10/19/2020 12:00:00 AM";"09:00 - 09:59";"07048";"Hoofddorpplein";"4.85010578";"52.35154327";"13"
"10/19/2020 12:00:00 AM";"09:00 - 09:59";"07049";"Hoofddorpplein";"4.84958188";"52.35117239";"13"
"10/19/2020 12:00:00 AM";"09:00 - 09:59";"07050";"Haarlemmermeerstation";"4.85744749";"52.34883508";"10"
"10/19/2020 12:00:00 AM";"09:00 - 09:59";"07083";"Gerrit v.d. Veenstraat";"4.87735929";"52.34921014";"29"
"10/19/2020 12:00:00 AM";"09:00 - 09:59";"07084";"Gerrit v.d. Veenstraat";"4.87720177";"52.34886793";"25"
"10/19/2020 12:00:00 AM";"09:00 - 09:59";"07088";"Stadionweg";"4.87687497";"52.34665553";"12"
"10/19/2020 12:00:00 AM";"09:00 - 09:59";"07097";"Olympiaplein";"4.86582821";"52.34630180";"16"
"10/19/2020 12:00:00 AM";"09:00 - 09:59";"07120";"Olympiaweg";"4.85834130";"52.34526195";"10"
"10/19/2020 12:00:00 AM";"09:00 - 09:59";"07193";"Station Zuid";"4.87334616";"52.34088808";"10"
"10/19/2020 12:00:00 AM";"09:00 - 09:59";"07195";"Oranjebaan";"4.87311228";"52.30278774";"37"
"10/19/2020 12:00:00 AM";"09:00 - 09:59";"07268";"Station Zuid";"4.87428608";"52.34082026";"14"
"10/19/2020 12:00:00 AM";"09:00 - 09:59";"07269";"Station Zuid";"4.87374306";"52.34082689";"16"
"10/19/2020 12:00:00 AM";"09:00 - 09:59";"07270";"Parnassusweg";"4.86874218";"52.33806382";"17"
"10/19/2020 12:00:00 AM";"09:00 - 09:59";"07303";"VU medisch centrum";"4.86097062";"52.33515342";"21"
"10/19/2020 12:00:00 AM";"09:00 - 09:59";"07321";"Van Baerlestraat";"4.87895796";"52.35827667";"29"
"10/19/2020 12:00:00 AM";"09:00 - 09:59";"07322";"Van Baerlestraat";"4.87971942";"52.35844171";"46"
"10/19/2020 12:00:00 AM";"09:00 - 09:59";"07323";"Rijksmuseum";"4.88355043";"52.35977029";"29"
"10/19/2020 12:00:00 AM";"09:00 - 09:59";"07324";"Rijksmuseum";"4.88332565";"52.36017378";"11"
"10/19/2020 12:00:00 AM";"09:00 - 09:59";"07391";"Kronenburg";"4.87070592";"52.31556694";"12"
"10/19/2020 12:00:00 AM";"09:00 - 09:59";"07419";"Van Boshuizenstraat";"4.86896941";"52.32487971";"129"
"10/19/2020 12:00:00 AM";"09:00 - 09:59";"07423";"Uilenstede";"4.86910951";"52.32167168";"24"
"10/19/2020 12:00:00 AM";"09:00 - 09:59";"07439";"Oranjebaan";"4.87179001";"52.30302465";"15"
"10/19/2020 12:00:00 AM";"09:00 - 09:59";"07442";"Zonnestein";"4.87236664";"52.31146674";"13"
"10/19/2020 12:00:00 AM";"09:00 - 09:59";"07445";"Amstelveen Stadshart";"4.86751502";"52.30124433";"25"
"10/19/2020 12:00:00 AM";"09:00 - 09:59";"07449";"A.J. Ernststraat";"4.86879476";"52.33230287";"23"
"10/19/2020 12:00:00 AM";"09:00 - 09:59";"07505";"Ziekenhuis";"4.87154263";"52.29401774";"10"
"10/19/2020 12:00:00 AM";"09:00 - 09:59";"07509";"Praam";"4.85570317";"52.27999842";"12"
"10/19/2020 12:00:00 AM";"09:00 - 09:59";"08011";"C. van Eesterenlaan";"4.93855181";"52.37334722";"13"
"10/19/2020 12:00:00 AM";"09:00 - 09:59";"08014";"Azartplein";"4.93735640";"52.37682991";"14"
"10/19/2020 12:00:00 AM";"09:00 - 09:59";"08041";"Kattenburgerstraat";"4.91934651";"52.37313808";"14"
"10/19/2020 12:00:00 AM";"09:00 - 09:59";"08043";"Artis";"4.91141423";"52.36653646";"17"
"10/19/2020 12:00:00 AM";"09:00 - 09:59";"08045";"Weesperplein";"4.91074647";"52.36172535";"42"
"10/19/2020 12:00:00 AM";"09:00 - 09:59";"08051";"K. 's-Gravesandestr.";"4.91366120";"52.36235720";"12"
"10/19/2020 12:00:00 AM";"09:00 - 09:59";"08053";"Weesperplein";"4.90655690";"52.36088154";"11"
"10/19/2020 12:00:00 AM";"09:00 - 09:59";"08057";"Frederiksplein";"4.90024241";"52.35971430";"26"
"10/19/2020 12:00:00 AM";"09:00 - 09:59";"08058";"Veelaan";"4.93961588";"52.36830916";"14"
"10/19/2020 12:00:00 AM";"09:00 - 09:59";"08066";"Frederiksplein";"4.89751569";"52.35937050";"19"
"10/19/2020 12:00:00 AM";"09:00 - 09:59";"08072";"Vijzelgracht";"4.89159781";"52.35953462";"24"
"10/19/2020 12:00:00 AM";"09:00 - 09:59";"08073";"Vijzelgracht";"4.89227386";"52.35946554";"31"
"10/19/2020 12:00:00 AM";"09:00 - 09:59";"08080";"Spiegelgracht";"4.88691222";"52.36106979";"34"
"10/19/2020 12:00:00 AM";"09:00 - 09:59";"08095";"Alexanderplein";"4.91969863";"52.36341478";"10"
"10/19/2020 12:00:00 AM";"09:00 - 09:59";"08096";"Alexanderplein";"4.91931589";"52.36351213";"20"
"10/19/2020 12:00:00 AM";"09:00 - 09:59";"08113";"Javaplein";"4.93949828";"52.36395867";"11"
"10/19/2020 12:00:00 AM";"09:00 - 09:59";"08114";"Javaplein";"4.93955537";"52.36412066";"11"
"10/19/2020 12:00:00 AM";"09:00 - 09:59";"08120";"Insulindeweg";"4.94763926";"52.36469021";"20"
"10/19/2020 12:00:00 AM";"09:00 - 09:59";"08129";"Molukkenstraat";"4.93861286";"52.36150167";"11"
"10/19/2020 12:00:00 AM";"09:00 - 09:59";"08179";"K. 's-Gravesandestr.";"4.91480799";"52.36220000";"10"
"10/19/2020 12:00:00 AM";"09:00 - 09:59";"08233";"C. van Eesterenlaan";"4.93812487";"52.37345346";"11"
"10/19/2020 12:00:00 AM";"09:00 - 09:59";"08235";"Muziekgeb. Bimhuis";"4.91290020";"52.37723779";"19"
"10/19/2020 12:00:00 AM";"09:00 - 09:59";"08237";"Kattenburgerstraat";"4.92126795";"52.37614755";"22"
"10/19/2020 12:00:00 AM";"09:00 - 09:59";"08238";"Rietlandpark";"4.93350159";"52.37322013";"10"
"10/19/2020 12:00:00 AM";"09:00 - 09:59";"08239";"Rietlandpark";"4.93413567";"52.37296191";"20"
"10/19/2020 12:00:00 AM";"09:00 - 09:59";"08241";"Zuiderzeeweg";"4.96185517";"52.37193228";"17"
"10/19/2020 12:00:00 AM";"09:00 - 09:59";"08245";"Steigereiland";"4.98012952";"52.36313467";"24"
"10/19/2020 12:00:00 AM";"09:00 - 09:59";"08247";"Vennepluimstraat";"4.99057242";"52.35769662";"18"
"10/19/2020 12:00:00 AM";"09:00 - 09:59";"08249";"Diemerparklaan";"4.99499716";"52.35532962";"18"
"10/19/2020 12:00:00 AM";"09:00 - 09:59";"08251";"Lumi?restraat";"4.99942127";"52.35298044";"13"
"10/19/2020 12:00:00 AM";"09:00 - 09:59";"08259";"1e Leeghwaterstraat";"4.93004964";"52.37047459";"11"
"10/19/2020 12:00:00 AM";"09:00 - 09:59";"08262";"IJburg";"5.00486802";"52.35112872";"58"
"10/19/2020 12:00:00 AM";"09:00 - 09:59";"09003";"Dintelstraat";"4.89289498";"52.34192405";"22"
"10/19/2020 12:00:00 AM";"09:00 - 09:59";"09013";"Amstelstation";"4.91790223";"52.34725673";"11"
"10/19/2020 12:00:00 AM";"09:00 - 09:59";"09027";"Wibautstraat";"4.90986831";"52.35738074";"11"
"10/19/2020 12:00:00 AM";"09:00 - 09:59";"09049";"Victorieplein";"4.90570139";"52.34637186";"14"
"10/19/2020 12:00:00 AM";"09:00 - 09:59";"09051";"Victorieplein";"4.90653699";"52.34645615";"19"
"10/19/2020 12:00:00 AM";"09:00 - 09:59";"09082";"Waalstraat";"4.89974094";"52.34656317";"17"
"10/19/2020 12:00:00 AM";"09:00 - 09:59";"09083";"Waalstraat";"4.90032528";"52.34680824";"38"
"10/19/2020 12:00:00 AM";"09:00 - 09:59";"09096";"Van Woustraat";"4.90163035";"52.35495650";"15"
"10/19/2020 12:00:00 AM";"09:00 - 09:59";"09097";"Van Woustraat";"4.90084070";"52.35468363";"26"
"10/19/2020 12:00:00 AM";"09:00 - 09:59";"09109";"2e v.d.Helststraat";"4.89488170";"52.35331982";"10"
"10/19/2020 12:00:00 AM";"09:00 - 09:59";"09111";"De Pijp";"4.89073444";"52.35272728";"46"
"10/19/2020 12:00:00 AM";"09:00 - 09:59";"09114";"De Pijp";"4.88948829";"52.35259622";"36"
"10/19/2020 12:00:00 AM";"09:00 - 09:59";"09120";"Cornelis Troostplein";"4.89161100";"52.35046604";"19"
"10/19/2020 12:00:00 AM";"09:00 - 09:59";"09140";"Amsteldijk";"4.91055179";"52.34704760";"11"
"10/19/2020 12:00:00 AM";"09:00 - 09:59";"09176";"James Wattstraat";"4.92329155";"52.35116068";"12"
"10/19/2020 12:00:00 AM";"09:00 - 09:59";"09178";"Krugerplein";"4.92080670";"52.35297542";"10"
"10/19/2020 12:00:00 AM";"09:00 - 09:59";"ASA";"Amstelstation";"4.91751426";"52.34647326";"261"
"10/19/2020 12:00:00 AM";"09:00 - 09:59";"ASW";"Amstelveenseweg";"4.85798324";"52.33836671";"260"
"10/19/2020 12:00:00 AM";"09:00 - 09:59";"BLW";"Bullewijk";"4.95233581";"52.30642205";"75"
"10/19/2020 12:00:00 AM";"09:00 - 09:59";"BMR";"Station Bijlmer ArenA";"4.94713474";"52.31193030";"326"
"10/19/2020 12:00:00 AM";"09:00 - 09:59";"CLL";"Station Lelylaan";"4.83426589";"52.35766291";"118"
"10/19/2020 12:00:00 AM";"09:00 - 09:59";"CS";"Centraal Station";"4.90078150";"52.37749421";"430"
"10/19/2020 12:00:00 AM";"09:00 - 09:59";"DMZ";"Station Diemen-Zuid";"4.95713273";"52.33042795";"28"
"10/19/2020 12:00:00 AM";"09:00 - 09:59";"DPP";"De Pijp";"4.89101069";"52.35296212";"346"
"10/19/2020 12:00:00 AM";"09:00 - 09:59";"DVD";"Station Duivendrecht";"4.93678429";"52.32325190";"39"
"10/19/2020 12:00:00 AM";"09:00 - 09:59";"EPP";"Europaplein";"4.89138430";"52.34185482";"193"
"10/19/2020 12:00:00 AM";"09:00 - 09:59";"GN";"Gein";"4.98952268";"52.29627089";"56"
"10/19/2020 12:00:00 AM";"09:00 - 09:59";"GPP";"Gaasperplas";"4.98468551";"52.31080575";"15"
"10/19/2020 12:00:00 AM";"09:00 - 09:59";"GZH";"Station Ganzenhoef";"4.97323379";"52.32331315";"49"
"10/19/2020 12:00:00 AM";"09:00 - 09:59";"HDS";"Heemstedestraat";"4.83421208";"52.35255760";"58"
"10/19/2020 12:00:00 AM";"09:00 - 09:59";"HLD";"Station Holendrecht";"4.96021904";"52.29780451";"287"
"10/19/2020 12:00:00 AM";"09:00 - 09:59";"HVW";"Henk Sneevlietweg";"4.83439318";"52.34626699";"178"
"10/19/2020 12:00:00 AM";"09:00 - 09:59";"ITW";"Isolatorweg";"4.85013475";"52.39523277";"107"
"10/19/2020 12:00:00 AM";"09:00 - 09:59";"JLS";"Jan v.Galenstraat";"4.83492461";"52.37196551";"226"
"10/19/2020 12:00:00 AM";"09:00 - 09:59";"KEN";"Kraaienneststation";"4.97963450";"52.31632492";"41"
"10/19/2020 12:00:00 AM";"09:00 - 09:59";"MDW";"Van der Madeweg";"4.93048657";"52.32945629";"59"
"10/19/2020 12:00:00 AM";"09:00 - 09:59";"ND";"Noord";"4.93123182";"52.40117202";"184"
"10/19/2020 12:00:00 AM";"09:00 - 09:59";"NDP";"Noorderpark";"4.91789115";"52.38855518";"172"
"10/19/2020 12:00:00 AM";"09:00 - 09:59";"NMT";"Nieuwmarkt";"4.90123885";"52.37194169";"109"
"10/19/2020 12:00:00 AM";"09:00 - 09:59";"OAS";"Overamstel";"4.91815361";"52.33179879";"50"
"10/19/2020 12:00:00 AM";"09:00 - 09:59";"PJW";"Postjesweg";"4.83385543";"52.36468044";"96"
"10/19/2020 12:00:00 AM";"09:00 - 09:59";"RAI";"Station RAI";"4.88982004";"52.33739931";"185"
"10/19/2020 12:00:00 AM";"09:00 - 09:59";"RGB";"Reigersbos";"4.97473728";"52.29566301";"124"
"10/19/2020 12:00:00 AM";"09:00 - 09:59";"RKN";"Rokin";"4.89229651";"52.36928023";"290"
"10/19/2020 12:00:00 AM";"09:00 - 09:59";"SLW";"Spaklerweg";"4.92085640";"52.33986250";"56"
"10/19/2020 12:00:00 AM";"09:00 - 09:59";"STD";"Station Sloterdijk";"4.83878389";"52.38880848";"157"
"10/19/2020 12:00:00 AM";"09:00 - 09:59";"SVT";"Strandvliet";"4.94152820";"52.31825469";"56"
"10/19/2020 12:00:00 AM";"09:00 - 09:59";"VLN";"Burg.de Vlugtlaan";"4.83809109";"52.37951196";"54"
"10/19/2020 12:00:00 AM";"09:00 - 09:59";"VPD";"Venserpolder";"4.94665009";"52.32679428";"49"
"10/19/2020 12:00:00 AM";"09:00 - 09:59";"VSW";"Verrijn Stuartweg";"4.96693669";"52.32844093";"46"
"10/19/2020 12:00:00 AM";"09:00 - 09:59";"VZG";"Vijzelgracht";"4.89072870";"52.35980061";"128"
"10/19/2020 12:00:00 AM";"09:00 - 09:59";"WBS";"Wibautstraat";"4.91202993";"52.35428867";"135"
"10/19/2020 12:00:00 AM";"09:00 - 09:59";"WLP";"Waterlooplein";"4.90298171";"52.36697862";"231"
"10/19/2020 12:00:00 AM";"09:00 - 09:59";"WPP";"Weesperplein";"4.90787469";"52.36120146";"286"
"10/19/2020 12:00:00 AM";"09:00 - 09:59";"WTC";"Station Zuid";"4.87509853";"52.33908015";"434"
"10/19/2020 12:00:00 AM";"10:00 - 10:59";"";"Overig";"";"";"2395"
"10/19/2020 12:00:00 AM";"10:00 - 10:59";"[[ Onb";"[[ Onbekend ]]";"0.00000000";"0.00000000";"335"
"10/19/2020 12:00:00 AM";"10:00 - 10:59";"00005";"Muiderpoortstation";"4.93280219";"52.36121887";"20"
"10/19/2020 12:00:00 AM";"10:00 - 10:59";"00007";"Muiderpoortstation";"4.93356602";"52.36117686";"14"
"10/19/2020 12:00:00 AM";"10:00 - 10:59";"00008";"Dapperstraat";"4.92977913";"52.36110836";"51"
"10/19/2020 12:00:00 AM";"10:00 - 10:59";"00010";"Dapperstraat";"4.92891486";"52.36092527";"28"
"10/19/2020 12:00:00 AM";"10:00 - 10:59";"00014";"Wijttenbachstraat";"4.92507537";"52.36027221";"12"
"10/19/2020 12:00:00 AM";"10:00 - 10:59";"00017";"Linnaeusstraat";"4.92573745";"52.36013099";"10"
"10/19/2020 12:00:00 AM";"10:00 - 10:59";"00020";"Beukenweg";"4.91674979";"52.35906203";"12"
"10/19/2020 12:00:00 AM";"10:00 - 10:59";"00021";"Beukenweg";"4.91721293";"52.35829991";"27"
"10/19/2020 12:00:00 AM";"10:00 - 10:59";"00029";"Oostpoort";"4.92719316";"52.35707185";"24"
"10/19/2020 12:00:00 AM";"10:00 - 10:59";"00030";"Oostpoort";"4.92694026";"52.35739442";"18"
"10/19/2020 12:00:00 AM";"10:00 - 10:59";"00059";"Radioweg";"4.93945830";"52.35337100";"15"
"10/19/2020 12:00:00 AM";"10:00 - 10:59";"00070";"Kruislaan";"4.93993910";"52.34789929";"27"
"10/19/2020 12:00:00 AM";"10:00 - 10:59";"00074";"Brinkstraat";"4.94797289";"52.34285131";"13"
"10/19/2020 12:00:00 AM";"10:00 - 10:59";"00116";"Station Ganzenhoef";"4.97272915";"52.32237665";"11"
"10/19/2020 12:00:00 AM";"10:00 - 10:59";"00141";"Kraaienneststation";"4.97868390";"52.31603403";"21"
"10/19/2020 12:00:00 AM";"10:00 - 10:59";"00150";"Tulastraat";"4.96535973";"52.31994189";"15"
"10/19/2020 12:00:00 AM";"10:00 - 10:59";"00151";"Tulastraat";"4.96584458";"52.31985374";"14"
"10/19/2020 12:00:00 AM";"10:00 - 10:59";"00152";"Florijn";"4.95859163";"52.31758973";"12"
"10/19/2020 12:00:00 AM";"10:00 - 10:59";"00153";"Florijn";"4.95971907";"52.31778255";"10"
"10/19/2020 12:00:00 AM";"10:00 - 10:59";"00197";"Annie Romeinplein";"4.97162041";"52.32173463";"18"
"10/19/2020 12:00:00 AM";"10:00 - 10:59";"00238";"Anton de Komplein";"4.95413359";"52.31603659";"42"
"10/19/2020 12:00:00 AM";"10:00 - 10:59";"00239";"Anton de Komplein";"4.95597669";"52.31652866";"20"
"10/19/2020 12:00:00 AM";"10:00 - 10:59";"00345";"Station Gein";"4.98911240";"52.29625153";"11"
"10/19/2020 12:00:00 AM";"10:00 - 10:59";"00444";"Linnaeusstraat";"4.92490296";"52.35991203";"32"
"10/19/2020 12:00:00 AM";"10:00 - 10:59";"00491";"Science Park Aer";"4.95218495";"52.35478458";"10"
"10/19/2020 12:00:00 AM";"10:00 - 10:59";"00494";"Science Park Aqua";"4.95416922";"52.35601419";"10"
"10/19/2020 12:00:00 AM";"10:00 - 10:59";"00518";"Foppingadreef";"4.94967889";"52.31268573";"24"
"10/19/2020 12:00:00 AM";"10:00 - 10:59";"00561";"Station Bijlmer ArenA";"4.94741931";"52.31132918";"20"
"10/19/2020 12:00:00 AM";"10:00 - 10:59";"01151";"Mosplein";"4.91407704";"52.39357310";"10"
"10/19/2020 12:00:00 AM";"10:00 - 10:59";"01191";"Pinksterbloemstraat";"4.91203754";"52.39881372";"17"
"10/19/2020 12:00:00 AM";"10:00 - 10:59";"01278";"Statenjachtstraat";"4.91380643";"52.40790731";"11"
"10/19/2020 12:00:00 AM";"10:00 - 10:59";"01305";"Station Noord";"4.93215715";"52.40264056";"17"
"10/19/2020 12:00:00 AM";"10:00 - 10:59";"01315";"Station Noord";"4.93339740";"52.40206112";"17"
"10/19/2020 12:00:00 AM";"10:00 - 10:59";"01316";"Station Noord";"4.93336820";"52.40204304";"14"
"10/19/2020 12:00:00 AM";"10:00 - 10:59";"01414";"Olof Palmeplein";"4.94012168";"52.39679298";"12"
"10/19/2020 12:00:00 AM";"10:00 - 10:59";"02103";"Spaarndammerstraat";"4.87765867";"52.39216375";"20"
"10/19/2020 12:00:00 AM";"10:00 - 10:59";"02113";"Haarlemmerplein";"4.88371739";"52.38516129";"11"
"10/19/2020 12:00:00 AM";"10:00 - 10:59";"02114";"Haarlemmerplein";"4.88341252";"52.38484542";"15"
"10/19/2020 12:00:00 AM";"10:00 - 10:59";"02130";"Hugo de Grootplein";"4.87259092";"52.37439113";"12"
"10/19/2020 12:00:00 AM";"10:00 - 10:59";"02132";"Fred. Hendrikplants.";"4.87543499";"52.37862768";"26"
"10/19/2020 12:00:00 AM";"10:00 - 10:59";"02133";"Fred. Hendrikplants.";"4.87521709";"52.37842002";"11"
"10/19/2020 12:00:00 AM";"10:00 - 10:59";"02153";"Nassaukade";"4.87920791";"52.38132226";"13"
"10/19/2020 12:00:00 AM";"10:00 - 10:59";"02155";"Willem de Zwijgerlaan";"4.86360306";"52.37071170";"11"
"10/19/2020 12:00:00 AM";"10:00 - 10:59";"02156";"Willem de Zwijgerlaan";"4.86425293";"52.37039101";"11"
"10/19/2020 12:00:00 AM";"10:00 - 10:59";"02157";"Adm. de Ruijterweg";"4.86009910";"52.37148707";"11"
"10/19/2020 12:00:00 AM";"10:00 - 10:59";"02167";"Bos en Lommerweg";"4.85380049";"52.38118358";"13"
"10/19/2020 12:00:00 AM";"10:00 - 10:59";"02182";"Markthallen";"4.86695146";"52.37567869";"30"
"10/19/2020 12:00:00 AM";"10:00 - 10:59";"02184";"Jan v.Galenstraat";"4.86033817";"52.37484954";"12"
"10/19/2020 12:00:00 AM";"10:00 - 10:59";"02193";"Marnixplein";"4.87844490";"52.37741832";"41"
"10/19/2020 12:00:00 AM";"10:00 - 10:59";"02222";"Jan van Galenstraat";"4.85874763";"52.37399761";"13"
"10/19/2020 12:00:00 AM";"10:00 - 10:59";"02259";"Contactweg";"4.85657970";"52.39195435";"15"
"10/19/2020 12:00:00 AM";"10:00 - 10:59";"02301";"Fred. Hendrikplants.";"4.87521585";"52.37852787";"12"
"10/19/2020 12:00:00 AM";"10:00 - 10:59";"02302";"Fred. Hendrikplants.";"4.87549415";"52.37859198";"24"
"10/19/2020 12:00:00 AM";"10:00 - 10:59";"02309";"Plesostraat";"4.82645527";"52.38795084";"23"
"10/19/2020 12:00:00 AM";"10:00 - 10:59";"02310";"Plesostraat";"4.82849791";"52.38788859";"10"
"10/19/2020 12:00:00 AM";"10:00 - 10:59";"02321";"Van Hallstraat";"4.86864429";"52.38538386";"12"
"10/19/2020 12:00:00 AM";"10:00 - 10:59";"02361";"Station Sloterdijk";"4.83931858";"52.38833460";"45"
"10/19/2020 12:00:00 AM";"10:00 - 10:59";"02365";"Station Sloterdijk";"4.83873236";"52.38822404";"13"
"10/19/2020 12:00:00 AM";"10:00 - 10:59";"02366";"Station Sloterdijk";"4.83873347";"52.38813416";"11"
"10/19/2020 12:00:00 AM";"10:00 - 10:59";"02367";"Station Sloterdijk";"4.83876429";"52.38801747";"18"
"10/19/2020 12:00:00 AM";"10:00 - 10:59";"02368";"Station Sloterdijk";"4.83877999";"52.38793665";"15"
"10/19/2020 12:00:00 AM";"10:00 - 10:59";"02370";"Station Sloterdijk";"4.83879745";"52.38771204";"27"
"10/19/2020 12:00:00 AM";"10:00 - 10:59";"03009";"Witte de Withstraat";"4.85851970";"52.36478416";"10"
"10/19/2020 12:00:00 AM";"10:00 - 10:59";"03010";"Witte de Withstraat";"4.85928290";"52.36480554";"13"
"10/19/2020 12:00:00 AM";"10:00 - 10:59";"03052";"Burg. Eliasstraat";"4.82565009";"52.38077481";"12"
"10/19/2020 12:00:00 AM";"10:00 - 10:59";"03061";"Bos en Lommerplein";"4.84523530";"52.37778328";"13"
"10/19/2020 12:00:00 AM";"10:00 - 10:59";"03090";"Slotermeerlaan";"4.81728149";"52.37596234";"13"
"10/19/2020 12:00:00 AM";"10:00 - 10:59";"03101";"Lambertus Zijlplein";"4.80300456";"52.37726788";"11"
"10/19/2020 12:00:00 AM";"10:00 - 10:59";"03108";"Herman Bonpad";"4.80080718";"52.36796367";"33"
"10/19/2020 12:00:00 AM";"10:00 - 10:59";"03129";"Plein '40 - '45";"4.82112672";"52.38075328";"20"
"10/19/2020 12:00:00 AM";"10:00 - 10:59";"03157";"Lambertus Zijlplein";"4.80338637";"52.37726977";"10"
"10/19/2020 12:00:00 AM";"10:00 - 10:59";"03167";"Bos en Lommerplein";"4.84650668";"52.37709704";"19"
"10/19/2020 12:00:00 AM";"10:00 - 10:59";"03168";"Mercatorplein";"4.85152392";"52.37024423";"11"
"10/19/2020 12:00:00 AM";"10:00 - 10:59";"03178";"Mercatorplein";"4.84991664";"52.37080317";"10"
"10/19/2020 12:00:00 AM";"10:00 - 10:59";"03180";"Adm. Helfrichstraat";"4.84458860";"52.36942172";"11"
"10/19/2020 12:00:00 AM";"10:00 - 10:59";"03198";"W. Schoutenstraat";"4.85259061";"52.36702245";"10"
"10/19/2020 12:00:00 AM";"10:00 - 10:59";"04009";"Dijkgraafplein";"4.78689401";"52.35556268";"12"
"10/19/2020 12:00:00 AM";"10:00 - 10:59";"04012";"Baden Powellweg";"4.79137362";"52.35646612";"21"
"10/19/2020 12:00:00 AM";"10:00 - 10:59";"04021";"Osdorpplein";"4.80322868";"52.35913166";"25"
"10/19/2020 12:00:00 AM";"10:00 - 10:59";"04043";"Ruimzicht";"4.80749209";"52.35978176";"20"
"10/19/2020 12:00:00 AM";"10:00 - 10:59";"04050";"Meer en Vaart";"4.80994403";"52.35636940";"22"
"10/19/2020 12:00:00 AM";"10:00 - 10:59";"04063";"Johan Huizingalaan";"4.82626398";"52.35778704";"20"
"10/19/2020 12:00:00 AM";"10:00 - 10:59";"04112";"Johan Huizingalaan";"4.82742878";"52.34923618";"15"
"10/19/2020 12:00:00 AM";"10:00 - 10:59";"04148";"Louis Davidsstraat";"4.80952552";"52.35356316";"14"
"10/19/2020 12:00:00 AM";"10:00 - 10:59";"04195";"Station Lelylaan";"4.83460082";"52.35788018";"27"
"10/19/2020 12:00:00 AM";"10:00 - 10:59";"04196";"Station Lelylaan";"4.83382251";"52.35790351";"34"
"10/19/2020 12:00:00 AM";"10:00 - 10:59";"04279";"Kasterleepark";"4.81104243";"52.34638930";"12"
"10/19/2020 12:00:00 AM";"10:00 - 10:59";"04409";"Baden Powellweg";"4.79441281";"52.35092691";"22"
"10/19/2020 12:00:00 AM";"10:00 - 10:59";"04411";"Hoekenes";"4.80183430";"52.35243785";"21"
"10/19/2020 12:00:00 AM";"10:00 - 10:59";"04413";"Louis Davidsstraat";"4.80850916";"52.35383682";"32"
"10/19/2020 12:00:00 AM";"10:00 - 10:59";"05011";"Centraal Station";"4.89921803";"52.37810793";"86"
"10/19/2020 12:00:00 AM";"10:00 - 10:59";"05022";"Centraal Station";"4.90104337";"52.37771998";"88"
"10/19/2020 12:00:00 AM";"10:00 - 10:59";"05031";"Dam";"4.89348394";"52.37341055";"22"
"10/19/2020 12:00:00 AM";"10:00 - 10:59";"05032";"Dam";"4.89549360";"52.37492885";"30"
"10/19/2020 12:00:00 AM";"10:00 - 10:59";"05036";"Rokin";"4.89230478";"52.36985548";"15"
"10/19/2020 12:00:00 AM";"10:00 - 10:59";"05046";"Rembrandtplein";"4.89627976";"52.36625897";"17"
"10/19/2020 12:00:00 AM";"10:00 - 10:59";"05062";"Spui";"4.88925912";"52.36909673";"14"
