"Datum";"UurgroepOmschrijving (van aankomst)";"AankomstHalteCode";"AankomstHalteNaam";"AankomstLat";"AankomstLon";"AantalReizen"
"1/25/2021 12:00:00 AM";"01:00 - 01:59";"";"Overig";"";"";"7"
"1/25/2021 12:00:00 AM";"02:00 - 02:59";"";"Overig";"";"";"11"
"1/25/2021 12:00:00 AM";"03:00 - 03:59";"";"Overig";"";"";"4"
"1/25/2021 12:00:00 AM";"04:00 - 04:59";"";"Overig";"";"";"43"
"1/25/2021 12:00:00 AM";"05:00 - 05:59";"";"Overig";"";"";"260"
"1/25/2021 12:00:00 AM";"05:00 - 05:59";"[[ Onb";"[[ Onbekend ]]";"0.00000000";"0.00000000";"16"
"1/25/2021 12:00:00 AM";"05:00 - 05:59";"04267";"Schiphol Airport/Plaza";"4.76139455";"52.30887344";"39"
"1/25/2021 12:00:00 AM";"05:00 - 05:59";"04379";"Knooppunt Schiphol Nrd";"4.79320459";"52.32276196";"33"
"1/25/2021 12:00:00 AM";"05:00 - 05:59";"BMR";"Station Bijlmer ArenA";"4.94713474";"52.31193030";"26"
"1/25/2021 12:00:00 AM";"05:00 - 05:59";"CS";"Centraal Station";"4.90078150";"52.37749421";"29"
"1/25/2021 12:00:00 AM";"05:00 - 05:59";"WTC";"Station Zuid";"4.87509853";"52.33908015";"18"
"1/25/2021 12:00:00 AM";"06:00 - 06:59";"";"Overig";"";"";"1338"
"1/25/2021 12:00:00 AM";"06:00 - 06:59";"[[ Onb";"[[ Onbekend ]]";"0.00000000";"0.00000000";"64"
"1/25/2021 12:00:00 AM";"06:00 - 06:59";"00020";"Beukenweg";"4.91674979";"52.35906203";"15"
"1/25/2021 12:00:00 AM";"06:00 - 06:59";"00434";"Bijlmerplein";"4.95032022";"52.31457553";"24"
"1/25/2021 12:00:00 AM";"06:00 - 06:59";"00453";"Diemen Sniep";"4.96964866";"52.33644962";"45"
"1/25/2021 12:00:00 AM";"06:00 - 06:59";"00561";"Station Bijlmer ArenA";"4.94741931";"52.31132918";"35"
"1/25/2021 12:00:00 AM";"06:00 - 06:59";"00902";"Stammerkamp";"4.98344083";"52.33320797";"16"
"1/25/2021 12:00:00 AM";"06:00 - 06:59";"01168";"Tjalkstraat";"4.91116991";"52.40572174";"11"
"1/25/2021 12:00:00 AM";"06:00 - 06:59";"02018";"Koivistokade";"4.87577082";"52.39789874";"13"
"1/25/2021 12:00:00 AM";"06:00 - 06:59";"02103";"Spaarndammerstraat";"4.87765867";"52.39216375";"14"
"1/25/2021 12:00:00 AM";"06:00 - 06:59";"02170";"Spaarndammerstraat";"4.87723089";"52.39231470";"10"
"1/25/2021 12:00:00 AM";"06:00 - 06:59";"02273";"La Guardiaweg";"4.84036631";"52.39152109";"13"
"1/25/2021 12:00:00 AM";"06:00 - 06:59";"02311";"Seineweg";"4.81857317";"52.38632242";"54"
"1/25/2021 12:00:00 AM";"06:00 - 06:59";"02360";"Station Sloterdijk";"4.83827278";"52.38856344";"11"
"1/25/2021 12:00:00 AM";"06:00 - 06:59";"02361";"Station Sloterdijk";"4.83931858";"52.38833460";"24"
"1/25/2021 12:00:00 AM";"06:00 - 06:59";"02378";"Station Sloterdijk";"4.83809796";"52.38844579";"18"
"1/25/2021 12:00:00 AM";"06:00 - 06:59";"04112";"Johan Huizingalaan";"4.82742878";"52.34923618";"12"
"1/25/2021 12:00:00 AM";"06:00 - 06:59";"04195";"Station Lelylaan";"4.83460082";"52.35788018";"22"
"1/25/2021 12:00:00 AM";"06:00 - 06:59";"04196";"Station Lelylaan";"4.83382251";"52.35790351";"14"
"1/25/2021 12:00:00 AM";"06:00 - 06:59";"04267";"Schiphol Airport/Plaza";"4.76139455";"52.30887344";"24"
"1/25/2021 12:00:00 AM";"06:00 - 06:59";"04379";"Knooppunt Schiphol Nrd";"4.79320459";"52.32276196";"22"
"1/25/2021 12:00:00 AM";"06:00 - 06:59";"05011";"Centraal Station";"4.89921803";"52.37810793";"31"
"1/25/2021 12:00:00 AM";"06:00 - 06:59";"05022";"Centraal Station";"4.90104337";"52.37771998";"37"
"1/25/2021 12:00:00 AM";"06:00 - 06:59";"05066";"Dam";"4.89027056";"52.37318140";"19"
"1/25/2021 12:00:00 AM";"06:00 - 06:59";"05074";"Westermarkt";"4.88354950";"52.37407874";"11"
"1/25/2021 12:00:00 AM";"06:00 - 06:59";"05097";"Centraal Station";"4.90087651";"52.37954379";"34"
"1/25/2021 12:00:00 AM";"06:00 - 06:59";"06028";"Elandsgracht";"4.87741694";"52.36974738";"12"
"1/25/2021 12:00:00 AM";"06:00 - 06:59";"06061";"Leidseplein";"4.88339576";"52.36305015";"15"
"1/25/2021 12:00:00 AM";"06:00 - 06:59";"06063";"Leidseplein";"4.88064547";"52.36476406";"15"
"1/25/2021 12:00:00 AM";"06:00 - 06:59";"07050";"Haarlemmermeerstation";"4.85744749";"52.34883508";"14"
"1/25/2021 12:00:00 AM";"06:00 - 06:59";"07133";"De Boelelaan";"4.86754589";"52.33496677";"13"
"1/25/2021 12:00:00 AM";"06:00 - 06:59";"07187";"Pr. Irenestraat";"4.87678341";"52.34313193";"12"
"1/25/2021 12:00:00 AM";"06:00 - 06:59";"07193";"Station Zuid";"4.87334616";"52.34088808";"14"
"1/25/2021 12:00:00 AM";"06:00 - 06:59";"07303";"VU medisch centrum";"4.86097062";"52.33515342";"29"
"1/25/2021 12:00:00 AM";"06:00 - 06:59";"07419";"Van Boshuizenstraat";"4.86896941";"52.32487971";"11"
"1/25/2021 12:00:00 AM";"06:00 - 06:59";"08054";"Weesperplein";"4.90941338";"52.36145933";"11"
"1/25/2021 12:00:00 AM";"06:00 - 06:59";"08239";"Rietlandpark";"4.93413567";"52.37296191";"13"
"1/25/2021 12:00:00 AM";"06:00 - 06:59";"08259";"1e Leeghwaterstraat";"4.93004964";"52.37047459";"14"
"1/25/2021 12:00:00 AM";"06:00 - 06:59";"ASA";"Amstelstation";"4.91751426";"52.34647326";"85"
"1/25/2021 12:00:00 AM";"06:00 - 06:59";"ASW";"Amstelveenseweg";"4.85798324";"52.33836671";"126"
"1/25/2021 12:00:00 AM";"06:00 - 06:59";"BLW";"Bullewijk";"4.95233581";"52.30642205";"37"
"1/25/2021 12:00:00 AM";"06:00 - 06:59";"BMR";"Station Bijlmer ArenA";"4.94713474";"52.31193030";"156"
"1/25/2021 12:00:00 AM";"06:00 - 06:59";"CLL";"Station Lelylaan";"4.83426589";"52.35766291";"34"
"1/25/2021 12:00:00 AM";"06:00 - 06:59";"CS";"Centraal Station";"4.90078150";"52.37749421";"277"
"1/25/2021 12:00:00 AM";"06:00 - 06:59";"DMZ";"Station Diemen-Zuid";"4.95713273";"52.33042795";"15"
"1/25/2021 12:00:00 AM";"06:00 - 06:59";"DPP";"De Pijp";"4.89101069";"52.35296212";"30"
"1/25/2021 12:00:00 AM";"06:00 - 06:59";"DVD";"Station Duivendrecht";"4.93678429";"52.32325190";"31"
"1/25/2021 12:00:00 AM";"06:00 - 06:59";"EPP";"Europaplein";"4.89138430";"52.34185482";"22"
"1/25/2021 12:00:00 AM";"06:00 - 06:59";"GN";"Gein";"4.98952268";"52.29627089";"10"
"1/25/2021 12:00:00 AM";"06:00 - 06:59";"GZH";"Station Ganzenhoef";"4.97323379";"52.32331315";"13"
"1/25/2021 12:00:00 AM";"06:00 - 06:59";"HDS";"Heemstedestraat";"4.83421208";"52.35255760";"19"
"1/25/2021 12:00:00 AM";"06:00 - 06:59";"HLD";"Station Holendrecht";"4.96021904";"52.29780451";"127"
"1/25/2021 12:00:00 AM";"06:00 - 06:59";"HVW";"Henk Sneevlietweg";"4.83439318";"52.34626699";"50"
"1/25/2021 12:00:00 AM";"06:00 - 06:59";"ITW";"Isolatorweg";"4.85013475";"52.39523277";"18"
"1/25/2021 12:00:00 AM";"06:00 - 06:59";"JLS";"Jan v.Galenstraat";"4.83492461";"52.37196551";"48"
"1/25/2021 12:00:00 AM";"06:00 - 06:59";"MDW";"Van der Madeweg";"4.93048657";"52.32945629";"33"
"1/25/2021 12:00:00 AM";"06:00 - 06:59";"ND";"Noord";"4.93123182";"52.40117202";"58"
"1/25/2021 12:00:00 AM";"06:00 - 06:59";"NDP";"Noorderpark";"4.91789115";"52.38855518";"37"
"1/25/2021 12:00:00 AM";"06:00 - 06:59";"NMT";"Nieuwmarkt";"4.90123885";"52.37194169";"29"
"1/25/2021 12:00:00 AM";"06:00 - 06:59";"OAS";"Overamstel";"4.91815361";"52.33179879";"33"
"1/25/2021 12:00:00 AM";"06:00 - 06:59";"PJW";"Postjesweg";"4.83385543";"52.36468044";"11"
"1/25/2021 12:00:00 AM";"06:00 - 06:59";"RAI";"Station RAI";"4.88982004";"52.33739931";"55"
"1/25/2021 12:00:00 AM";"06:00 - 06:59";"RGB";"Reigersbos";"4.97473728";"52.29566301";"17"
"1/25/2021 12:00:00 AM";"06:00 - 06:59";"RKN";"Rokin";"4.89229651";"52.36928023";"73"
"1/25/2021 12:00:00 AM";"06:00 - 06:59";"SLW";"Spaklerweg";"4.92085640";"52.33986250";"27"
"1/25/2021 12:00:00 AM";"06:00 - 06:59";"STD";"Station Sloterdijk";"4.83878389";"52.38880848";"133"
"1/25/2021 12:00:00 AM";"06:00 - 06:59";"SVT";"Strandvliet";"4.94152820";"52.31825469";"13"
"1/25/2021 12:00:00 AM";"06:00 - 06:59";"VLN";"Burg.de Vlugtlaan";"4.83809109";"52.37951196";"11"
"1/25/2021 12:00:00 AM";"06:00 - 06:59";"VSW";"Verrijn Stuartweg";"4.96693669";"52.32844093";"32"
"1/25/2021 12:00:00 AM";"06:00 - 06:59";"VZG";"Vijzelgracht";"4.89072870";"52.35980061";"24"
"1/25/2021 12:00:00 AM";"06:00 - 06:59";"WBS";"Wibautstraat";"4.91202993";"52.35428867";"53"
"1/25/2021 12:00:00 AM";"06:00 - 06:59";"WLP";"Waterlooplein";"4.90298171";"52.36697862";"63"
"1/25/2021 12:00:00 AM";"06:00 - 06:59";"WPP";"Weesperplein";"4.90787469";"52.36120146";"83"
"1/25/2021 12:00:00 AM";"06:00 - 06:59";"WTC";"Station Zuid";"4.87509853";"52.33908015";"256"
"1/25/2021 12:00:00 AM";"07:00 - 07:59";"";"Overig";"";"";"2152"
"1/25/2021 12:00:00 AM";"07:00 - 07:59";"[[ Onb";"[[ Onbekend ]]";"0.00000000";"0.00000000";"100"
"1/25/2021 12:00:00 AM";"07:00 - 07:59";"00018";"Diemerknoop";"5.00286153";"52.33537576";"13"
"1/25/2021 12:00:00 AM";"07:00 - 07:59";"00020";"Beukenweg";"4.91674979";"52.35906203";"36"
"1/25/2021 12:00:00 AM";"07:00 - 07:59";"00021";"Beukenweg";"4.91721293";"52.35829991";"29"
"1/25/2021 12:00:00 AM";"07:00 - 07:59";"00030";"Oostpoort";"4.92694026";"52.35739442";"16"
"1/25/2021 12:00:00 AM";"07:00 - 07:59";"00205";"Station Holendrecht";"4.95865657";"52.29716971";"16"
"1/25/2021 12:00:00 AM";"07:00 - 07:59";"00434";"Bijlmerplein";"4.95032022";"52.31457553";"18"
"1/25/2021 12:00:00 AM";"07:00 - 07:59";"00441";"Muiderpoortstation";"4.93254137";"52.36088532";"12"
"1/25/2021 12:00:00 AM";"07:00 - 07:59";"00453";"Diemen Sniep";"4.96964866";"52.33644962";"56"
"1/25/2021 12:00:00 AM";"07:00 - 07:59";"00560";"Station Bijlmer ArenA";"4.94747867";"52.31125750";"23"
"1/25/2021 12:00:00 AM";"07:00 - 07:59";"00561";"Station Bijlmer ArenA";"4.94741931";"52.31132918";"58"
"1/25/2021 12:00:00 AM";"07:00 - 07:59";"00568";"Station Bijlmer ArenA";"4.94762664";"52.31112323";"11"
"1/25/2021 12:00:00 AM";"07:00 - 07:59";"00999";"Vinkenbrug";"4.97831599";"52.33370267";"11"
"1/25/2021 12:00:00 AM";"07:00 - 07:59";"01078";"Dijkmanshuizenstraat";"4.95475323";"52.39549915";"10"
"1/25/2021 12:00:00 AM";"07:00 - 07:59";"01352";"Oosterlengte";"4.92206974";"52.40611555";"13"
"1/25/2021 12:00:00 AM";"07:00 - 07:59";"01365";"Atat?rk";"4.89794256";"52.40319625";"16"
"1/25/2021 12:00:00 AM";"07:00 - 07:59";"02103";"Spaarndammerstraat";"4.87765867";"52.39216375";"15"
"1/25/2021 12:00:00 AM";"07:00 - 07:59";"02106";"Assendelftstraat";"4.87943840";"52.38941217";"12"
"1/25/2021 12:00:00 AM";"07:00 - 07:59";"02114";"Haarlemmerplein";"4.88341252";"52.38484542";"23"
"1/25/2021 12:00:00 AM";"07:00 - 07:59";"02222";"Jan van Galenstraat";"4.85874763";"52.37399761";"12"
"1/25/2021 12:00:00 AM";"07:00 - 07:59";"02273";"La Guardiaweg";"4.84036631";"52.39152109";"13"
"1/25/2021 12:00:00 AM";"07:00 - 07:59";"02301";"Fred. Hendrikplants.";"4.87521585";"52.37852787";"11"
"1/25/2021 12:00:00 AM";"07:00 - 07:59";"02311";"Seineweg";"4.81857317";"52.38632242";"16"
"1/25/2021 12:00:00 AM";"07:00 - 07:59";"02333";"Herwijk";"4.78729047";"52.39572206";"12"
"1/25/2021 12:00:00 AM";"07:00 - 07:59";"02361";"Station Sloterdijk";"4.83931858";"52.38833460";"50"
"1/25/2021 12:00:00 AM";"07:00 - 07:59";"02366";"Station Sloterdijk";"4.83873347";"52.38813416";"12"
"1/25/2021 12:00:00 AM";"07:00 - 07:59";"02378";"Station Sloterdijk";"4.83809796";"52.38844579";"30"
"1/25/2021 12:00:00 AM";"07:00 - 07:59";"03061";"Bos en Lommerplein";"4.84523530";"52.37778328";"13"
"1/25/2021 12:00:00 AM";"07:00 - 07:59";"03076";"Jan Tooropstraat";"4.83810313";"52.37142305";"15"
"1/25/2021 12:00:00 AM";"07:00 - 07:59";"03087";"Plein '40 - '45";"4.82063128";"52.38159575";"11"
"1/25/2021 12:00:00 AM";"07:00 - 07:59";"03129";"Plein '40 - '45";"4.82112672";"52.38075328";"15"
"1/25/2021 12:00:00 AM";"07:00 - 07:59";"04050";"Meer en Vaart";"4.80994403";"52.35636940";"11"
"1/25/2021 12:00:00 AM";"07:00 - 07:59";"04060";"Derkinderenstraat";"4.83972293";"52.35796689";"11"
"1/25/2021 12:00:00 AM";"07:00 - 07:59";"04112";"Johan Huizingalaan";"4.82742878";"52.34923618";"29"
"1/25/2021 12:00:00 AM";"07:00 - 07:59";"04195";"Station Lelylaan";"4.83460082";"52.35788018";"39"
"1/25/2021 12:00:00 AM";"07:00 - 07:59";"04196";"Station Lelylaan";"4.83382251";"52.35790351";"35"
"1/25/2021 12:00:00 AM";"07:00 - 07:59";"04267";"Schiphol Airport/Plaza";"4.76139455";"52.30887344";"16"
"1/25/2021 12:00:00 AM";"07:00 - 07:59";"04379";"Knooppunt Schiphol Nrd";"4.79320459";"52.32276196";"21"
"1/25/2021 12:00:00 AM";"07:00 - 07:59";"04402";"Matterhorn";"4.77477998";"52.35372103";"13"
"1/25/2021 12:00:00 AM";"07:00 - 07:59";"04413";"Louis Davidsstraat";"4.80850916";"52.35383682";"10"
"1/25/2021 12:00:00 AM";"07:00 - 07:59";"05011";"Centraal Station";"4.89921803";"52.37810793";"77"
"1/25/2021 12:00:00 AM";"07:00 - 07:59";"05022";"Centraal Station";"4.90104337";"52.37771998";"82"
"1/25/2021 12:00:00 AM";"07:00 - 07:59";"05047";"Rembrandtplein";"4.89702882";"52.36623511";"12"
"1/25/2021 12:00:00 AM";"07:00 - 07:59";"05063";"Dam";"4.89064590";"52.37244599";"11"
"1/25/2021 12:00:00 AM";"07:00 - 07:59";"05065";"Dam";"4.89079364";"52.37367792";"11"
"1/25/2021 12:00:00 AM";"07:00 - 07:59";"05066";"Dam";"4.89027056";"52.37318140";"19"
"1/25/2021 12:00:00 AM";"07:00 - 07:59";"05073";"Westermarkt";"4.88453426";"52.37400204";"10"
"1/25/2021 12:00:00 AM";"07:00 - 07:59";"05074";"Westermarkt";"4.88354950";"52.37407874";"12"
"1/25/2021 12:00:00 AM";"07:00 - 07:59";"05077";"Marnixstraat";"4.87615428";"52.37228546";"13"
"1/25/2021 12:00:00 AM";"07:00 - 07:59";"05097";"Centraal Station";"4.90087651";"52.37954379";"25"
"1/25/2021 12:00:00 AM";"07:00 - 07:59";"05101";"Centraal Station";"4.90105195";"52.37961641";"14"
"1/25/2021 12:00:00 AM";"07:00 - 07:59";"05103";"Centraal Station";"4.90127481";"52.37938365";"23"
"1/25/2021 12:00:00 AM";"07:00 - 07:59";"05104";"Centraal Station";"4.90164343";"52.37925034";"12"
"1/25/2021 12:00:00 AM";"07:00 - 07:59";"06001";"Surinameplein";"4.85252231";"52.35807034";"13"
"1/25/2021 12:00:00 AM";"07:00 - 07:59";"06015";"Postjesweg";"4.85316124";"52.36352879";"10"
"1/25/2021 12:00:00 AM";"07:00 - 07:59";"06019";"Ten Katestraat";"4.86737423";"52.36591988";"13"
"1/25/2021 12:00:00 AM";"07:00 - 07:59";"06020";"Ten Katestraat";"4.86773990";"52.36603832";"13"
"1/25/2021 12:00:00 AM";"07:00 - 07:59";"06021";"Bilderdijkstraat";"4.87176488";"52.36712545";"10"
"1/25/2021 12:00:00 AM";"07:00 - 07:59";"06028";"Elandsgracht";"4.87741694";"52.36974738";"15"
"1/25/2021 12:00:00 AM";"07:00 - 07:59";"06029";"Elandsgracht";"4.87684368";"52.36852258";"18"
"1/25/2021 12:00:00 AM";"07:00 - 07:59";"06034";"Bilderdijkstraat";"4.87082347";"52.37105798";"15"
"1/25/2021 12:00:00 AM";"07:00 - 07:59";"06037";"Bilderdijkstraat";"4.86985701";"52.37082906";"20"
"1/25/2021 12:00:00 AM";"07:00 - 07:59";"06046";"1e Con. Huygensstraat";"4.87487082";"52.36262709";"10"
"1/25/2021 12:00:00 AM";"07:00 - 07:59";"06048";"J.P. Heijestraat";"4.86585368";"52.36037674";"19"
"1/25/2021 12:00:00 AM";"07:00 - 07:59";"06061";"Leidseplein";"4.88339576";"52.36305015";"18"
"1/25/2021 12:00:00 AM";"07:00 - 07:59";"06063";"Leidseplein";"4.88064547";"52.36476406";"12"
"1/25/2021 12:00:00 AM";"07:00 - 07:59";"06076";"Koningsplein";"4.88857910";"52.36689188";"10"
"1/25/2021 12:00:00 AM";"07:00 - 07:59";"06089";"Leidseplein";"4.88085541";"52.36309324";"26"
"1/25/2021 12:00:00 AM";"07:00 - 07:59";"07006";"Museumplein";"4.87980116";"52.35642881";"13"
"1/25/2021 12:00:00 AM";"07:00 - 07:59";"07007";"Museumplein";"4.87950215";"52.35690388";"25"
"1/25/2021 12:00:00 AM";"07:00 - 07:59";"07016";"Roelof Hartplein";"4.88286688";"52.35274795";"11"
"1/25/2021 12:00:00 AM";"07:00 - 07:59";"07031";"Valeriusplein";"4.86374943";"52.35333004";"15"
"1/25/2021 12:00:00 AM";"07:00 - 07:59";"07049";"Hoofddorpplein";"4.84958188";"52.35117239";"10"
"1/25/2021 12:00:00 AM";"07:00 - 07:59";"07050";"Haarlemmermeerstation";"4.85744749";"52.34883508";"11"
"1/25/2021 12:00:00 AM";"07:00 - 07:59";"07187";"Pr. Irenestraat";"4.87678341";"52.34313193";"17"
"1/25/2021 12:00:00 AM";"07:00 - 07:59";"07193";"Station Zuid";"4.87334616";"52.34088808";"28"
"1/25/2021 12:00:00 AM";"07:00 - 07:59";"07269";"Station Zuid";"4.87374306";"52.34082689";"13"
"1/25/2021 12:00:00 AM";"07:00 - 07:59";"07270";"Parnassusweg";"4.86874218";"52.33806382";"11"
"1/25/2021 12:00:00 AM";"07:00 - 07:59";"07303";"VU medisch centrum";"4.86097062";"52.33515342";"41"
"1/25/2021 12:00:00 AM";"07:00 - 07:59";"07322";"Van Baerlestraat";"4.87971942";"52.35844171";"12"
"1/25/2021 12:00:00 AM";"07:00 - 07:59";"07323";"Rijksmuseum";"4.88355043";"52.35977029";"13"
"1/25/2021 12:00:00 AM";"07:00 - 07:59";"07339";"Nieuw Herlaer";"4.88985946";"52.32602094";"17"
"1/25/2021 12:00:00 AM";"07:00 - 07:59";"07419";"Van Boshuizenstraat";"4.86896941";"52.32487971";"14"
"1/25/2021 12:00:00 AM";"07:00 - 07:59";"07449";"A.J. Ernststraat";"4.86879476";"52.33230287";"10"
"1/25/2021 12:00:00 AM";"07:00 - 07:59";"08054";"Weesperplein";"4.90941338";"52.36145933";"23"
"1/25/2021 12:00:00 AM";"07:00 - 07:59";"08057";"Frederiksplein";"4.90024241";"52.35971430";"16"
"1/25/2021 12:00:00 AM";"07:00 - 07:59";"08080";"Spiegelgracht";"4.88691222";"52.36106979";"19"
"1/25/2021 12:00:00 AM";"07:00 - 07:59";"08098";"1e v.Swindenstraat";"4.92386708";"52.36210997";"12"
"1/25/2021 12:00:00 AM";"07:00 - 07:59";"08120";"Insulindeweg";"4.94763926";"52.36469021";"15"
"1/25/2021 12:00:00 AM";"07:00 - 07:59";"08237";"Kattenburgerstraat";"4.92126795";"52.37614755";"10"
"1/25/2021 12:00:00 AM";"07:00 - 07:59";"08239";"Rietlandpark";"4.93413567";"52.37296191";"15"
"1/25/2021 12:00:00 AM";"07:00 - 07:59";"08245";"Steigereiland";"4.98012952";"52.36313467";"13"
"1/25/2021 12:00:00 AM";"07:00 - 07:59";"08247";"Vennepluimstraat";"4.99057242";"52.35769662";"14"
"1/25/2021 12:00:00 AM";"07:00 - 07:59";"08249";"Diemerparklaan";"4.99499716";"52.35532962";"12"
"1/25/2021 12:00:00 AM";"07:00 - 07:59";"08255";"Hoogte Kadijk";"4.92483038";"52.36687722";"11"
"1/25/2021 12:00:00 AM";"07:00 - 07:59";"08262";"IJburg";"5.00486802";"52.35112872";"26"
"1/25/2021 12:00:00 AM";"07:00 - 07:59";"09023";"Camperstraat";"4.91383551";"52.35840330";"13"
"1/25/2021 12:00:00 AM";"07:00 - 07:59";"ASA";"Amstelstation";"4.91751426";"52.34647326";"154"
"1/25/2021 12:00:00 AM";"07:00 - 07:59";"ASW";"Amstelveenseweg";"4.85798324";"52.33836671";"254"
"1/25/2021 12:00:00 AM";"07:00 - 07:59";"BLW";"Bullewijk";"4.95233581";"52.30642205";"91"
"1/25/2021 12:00:00 AM";"07:00 - 07:59";"BMR";"Station Bijlmer ArenA";"4.94713474";"52.31193030";"227"
"1/25/2021 12:00:00 AM";"07:00 - 07:59";"CLL";"Station Lelylaan";"4.83426589";"52.35766291";"64"
"1/25/2021 12:00:00 AM";"07:00 - 07:59";"CS";"Centraal Station";"4.90078150";"52.37749421";"327"
"1/25/2021 12:00:00 AM";"07:00 - 07:59";"DMZ";"Station Diemen-Zuid";"4.95713273";"52.33042795";"25"
"1/25/2021 12:00:00 AM";"07:00 - 07:59";"DPP";"De Pijp";"4.89101069";"52.35296212";"85"
"1/25/2021 12:00:00 AM";"07:00 - 07:59";"DVD";"Station Duivendrecht";"4.93678429";"52.32325190";"68"
"1/25/2021 12:00:00 AM";"07:00 - 07:59";"EPP";"Europaplein";"4.89138430";"52.34185482";"87"
"1/25/2021 12:00:00 AM";"07:00 - 07:59";"GN";"Gein";"4.98952268";"52.29627089";"24"
"1/25/2021 12:00:00 AM";"07:00 - 07:59";"GPP";"Gaasperplas";"4.98468551";"52.31080575";"19"
"1/25/2021 12:00:00 AM";"07:00 - 07:59";"GZH";"Station Ganzenhoef";"4.97323379";"52.32331315";"28"
"1/25/2021 12:00:00 AM";"07:00 - 07:59";"HDS";"Heemstedestraat";"4.83421208";"52.35255760";"63"
"1/25/2021 12:00:00 AM";"07:00 - 07:59";"HLD";"Station Holendrecht";"4.96021904";"52.29780451";"340"
"1/25/2021 12:00:00 AM";"07:00 - 07:59";"HVW";"Henk Sneevlietweg";"4.83439318";"52.34626699";"105"
"1/25/2021 12:00:00 AM";"07:00 - 07:59";"ITW";"Isolatorweg";"4.85013475";"52.39523277";"44"
"1/25/2021 12:00:00 AM";"07:00 - 07:59";"JLS";"Jan v.Galenstraat";"4.83492461";"52.37196551";"155"
"1/25/2021 12:00:00 AM";"07:00 - 07:59";"KEN";"Kraaienneststation";"4.97963450";"52.31632492";"20"
"1/25/2021 12:00:00 AM";"07:00 - 07:59";"MDW";"Van der Madeweg";"4.93048657";"52.32945629";"48"
"1/25/2021 12:00:00 AM";"07:00 - 07:59";"ND";"Noord";"4.93123182";"52.40117202";"124"
"1/25/2021 12:00:00 AM";"07:00 - 07:59";"NDP";"Noorderpark";"4.91789115";"52.38855518";"83"
"1/25/2021 12:00:00 AM";"07:00 - 07:59";"NMT";"Nieuwmarkt";"4.90123885";"52.37194169";"52"
"1/25/2021 12:00:00 AM";"07:00 - 07:59";"OAS";"Overamstel";"4.91815361";"52.33179879";"38"
"1/25/2021 12:00:00 AM";"07:00 - 07:59";"PJW";"Postjesweg";"4.83385543";"52.36468044";"30"
"1/25/2021 12:00:00 AM";"07:00 - 07:59";"RAI";"Station RAI";"4.88982004";"52.33739931";"90"
"1/25/2021 12:00:00 AM";"07:00 - 07:59";"RGB";"Reigersbos";"4.97473728";"52.29566301";"36"
"1/25/2021 12:00:00 AM";"07:00 - 07:59";"RKN";"Rokin";"4.89229651";"52.36928023";"115"
"1/25/2021 12:00:00 AM";"07:00 - 07:59";"SLW";"Spaklerweg";"4.92085640";"52.33986250";"53"
"1/25/2021 12:00:00 AM";"07:00 - 07:59";"STD";"Station Sloterdijk";"4.83878389";"52.38880848";"160"
"1/25/2021 12:00:00 AM";"07:00 - 07:59";"SVT";"Strandvliet";"4.94152820";"52.31825469";"31"
"1/25/2021 12:00:00 AM";"07:00 - 07:59";"VLN";"Burg.de Vlugtlaan";"4.83809109";"52.37951196";"29"
"1/25/2021 12:00:00 AM";"07:00 - 07:59";"VPD";"Venserpolder";"4.94665009";"52.32679428";"24"
"1/25/2021 12:00:00 AM";"07:00 - 07:59";"VSW";"Verrijn Stuartweg";"4.96693669";"52.32844093";"27"
"1/25/2021 12:00:00 AM";"07:00 - 07:59";"VZG";"Vijzelgracht";"4.89072870";"52.35980061";"61"
"1/25/2021 12:00:00 AM";"07:00 - 07:59";"WBS";"Wibautstraat";"4.91202993";"52.35428867";"169"
"1/25/2021 12:00:00 AM";"07:00 - 07:59";"WLP";"Waterlooplein";"4.90298171";"52.36697862";"83"
"1/25/2021 12:00:00 AM";"07:00 - 07:59";"WPP";"Weesperplein";"4.90787469";"52.36120146";"106"
"1/25/2021 12:00:00 AM";"07:00 - 07:59";"WTC";"Station Zuid";"4.87509853";"52.33908015";"458"
"1/25/2021 12:00:00 AM";"08:00 - 08:59";"";"Overig";"";"";"2262"
"1/25/2021 12:00:00 AM";"08:00 - 08:59";"[[ Onb";"[[ Onbekend ]]";"0.00000000";"0.00000000";"242"
"1/25/2021 12:00:00 AM";"08:00 - 08:59";"00007";"Muiderpoortstation";"4.93356602";"52.36117686";"18"
"1/25/2021 12:00:00 AM";"08:00 - 08:59";"00014";"Wijttenbachstraat";"4.92507537";"52.36027221";"16"
"1/25/2021 12:00:00 AM";"08:00 - 08:59";"00020";"Beukenweg";"4.91674979";"52.35906203";"29"
"1/25/2021 12:00:00 AM";"08:00 - 08:59";"00021";"Beukenweg";"4.91721293";"52.35829991";"49"
"1/25/2021 12:00:00 AM";"08:00 - 08:59";"00029";"Oostpoort";"4.92719316";"52.35707185";"22"
"1/25/2021 12:00:00 AM";"08:00 - 08:59";"00030";"Oostpoort";"4.92694026";"52.35739442";"39"
"1/25/2021 12:00:00 AM";"08:00 - 08:59";"00040";"Hogeweg";"4.93135765";"52.35321425";"10"
"1/25/2021 12:00:00 AM";"08:00 - 08:59";"00065";"Hugo de Vrieslaan";"4.93487340";"52.35101676";"10"
"1/25/2021 12:00:00 AM";"08:00 - 08:59";"00074";"Brinkstraat";"4.94797289";"52.34285131";"12"
"1/25/2021 12:00:00 AM";"08:00 - 08:59";"00114";"Dennenrode";"4.95213839";"52.32209601";"10"
"1/25/2021 12:00:00 AM";"08:00 - 08:59";"00134";"Koornhorst";"4.98400929";"52.31907218";"13"
"1/25/2021 12:00:00 AM";"08:00 - 08:59";"00144";"Kikkenstein";"4.97237050";"52.31680298";"11"
"1/25/2021 12:00:00 AM";"08:00 - 08:59";"00150";"Tulastraat";"4.96535973";"52.31994189";"32"
"1/25/2021 12:00:00 AM";"08:00 - 08:59";"00151";"Tulastraat";"4.96584458";"52.31985374";"22"
"1/25/2021 12:00:00 AM";"08:00 - 08:59";"00152";"Florijn";"4.95859163";"52.31758973";"20"
"1/25/2021 12:00:00 AM";"08:00 - 08:59";"00172";"Holendrechtplein";"4.96402882";"52.29952588";"10"
"1/25/2021 12:00:00 AM";"08:00 - 08:59";"00238";"Anton de Komplein";"4.95413359";"52.31603659";"20"
"1/25/2021 12:00:00 AM";"08:00 - 08:59";"00239";"Anton de Komplein";"4.95597669";"52.31652866";"10"
"1/25/2021 12:00:00 AM";"08:00 - 08:59";"00330";"Middenweg";"4.93455629";"52.35044932";"14"
"1/25/2021 12:00:00 AM";"08:00 - 08:59";"00351";"Dostojevskisingel";"4.94525272";"52.32275356";"12"
"1/25/2021 12:00:00 AM";"08:00 - 08:59";"00434";"Bijlmerplein";"4.95032022";"52.31457553";"28"
"1/25/2021 12:00:00 AM";"08:00 - 08:59";"00441";"Muiderpoortstation";"4.93254137";"52.36088532";"14"
"1/25/2021 12:00:00 AM";"08:00 - 08:59";"00444";"Linnaeusstraat";"4.92490296";"52.35991203";"27"
"1/25/2021 12:00:00 AM";"08:00 - 08:59";"00453";"Diemen Sniep";"4.96964866";"52.33644962";"23"
"1/25/2021 12:00:00 AM";"08:00 - 08:59";"00494";"Science Park Aqua";"4.95416922";"52.35601419";"27"
"1/25/2021 12:00:00 AM";"08:00 - 08:59";"00518";"Foppingadreef";"4.94967889";"52.31268573";"12"
"1/25/2021 12:00:00 AM";"08:00 - 08:59";"00538";"Station Science Park";"4.94808393";"52.35239669";"11"
"1/25/2021 12:00:00 AM";"08:00 - 08:59";"00560";"Station Bijlmer ArenA";"4.94747867";"52.31125750";"14"
"1/25/2021 12:00:00 AM";"08:00 - 08:59";"00561";"Station Bijlmer ArenA";"4.94741931";"52.31132918";"36"
"1/25/2021 12:00:00 AM";"08:00 - 08:59";"00985";"Winkelcentrum";"4.96422695";"52.34186794";"10"
"1/25/2021 12:00:00 AM";"08:00 - 08:59";"01076";"Waterlandplein";"4.95247364";"52.39274059";"12"
"1/25/2021 12:00:00 AM";"08:00 - 08:59";"01078";"Dijkmanshuizenstraat";"4.95475323";"52.39549915";"12"
"1/25/2021 12:00:00 AM";"08:00 - 08:59";"01111";"Rode Kruisstraat";"4.92881363";"52.39488033";"20"
"1/25/2021 12:00:00 AM";"08:00 - 08:59";"01168";"Tjalkstraat";"4.91116991";"52.40572174";"12"
"1/25/2021 12:00:00 AM";"08:00 - 08:59";"01212";"Oostzanerdijk";"4.88149588";"52.42023965";"11"
"1/25/2021 12:00:00 AM";"08:00 - 08:59";"01237";"Beemsterstraat";"4.95210741";"52.39712521";"11"
"1/25/2021 12:00:00 AM";"08:00 - 08:59";"01278";"Statenjachtstraat";"4.91380643";"52.40790731";"10"
"1/25/2021 12:00:00 AM";"08:00 - 08:59";"01305";"Station Noord";"4.93215715";"52.40264056";"13"
"1/25/2021 12:00:00 AM";"08:00 - 08:59";"01316";"Station Noord";"4.93336820";"52.40204304";"17"
"1/25/2021 12:00:00 AM";"08:00 - 08:59";"01365";"Atat?rk";"4.89794256";"52.40319625";"12"
"1/25/2021 12:00:00 AM";"08:00 - 08:59";"01402";"Floraweg";"4.90614362";"52.39899665";"22"
"1/25/2021 12:00:00 AM";"08:00 - 08:59";"01414";"Olof Palmeplein";"4.94012168";"52.39679298";"14"
"1/25/2021 12:00:00 AM";"08:00 - 08:59";"01422";"Noorderpark";"4.91956087";"52.38902016";"15"
"1/25/2021 12:00:00 AM";"08:00 - 08:59";"01443";"Volendammerweg";"4.95697086";"52.39255928";"12"
"1/25/2021 12:00:00 AM";"08:00 - 08:59";"02019";"Koivistokade";"4.87537403";"52.39790601";"32"
"1/25/2021 12:00:00 AM";"08:00 - 08:59";"02064";"Kabelweg";"4.84827817";"52.39205168";"16"
"1/25/2021 12:00:00 AM";"08:00 - 08:59";"02066";"La Guardiaweg";"4.84008244";"52.39190625";"11"
"1/25/2021 12:00:00 AM";"08:00 - 08:59";"02103";"Spaarndammerstraat";"4.87765867";"52.39216375";"21"
"1/25/2021 12:00:00 AM";"08:00 - 08:59";"02106";"Assendelftstraat";"4.87943840";"52.38941217";"11"
"1/25/2021 12:00:00 AM";"08:00 - 08:59";"02113";"Haarlemmerplein";"4.88371739";"52.38516129";"14"
"1/25/2021 12:00:00 AM";"08:00 - 08:59";"02114";"Haarlemmerplein";"4.88341252";"52.38484542";"32"
"1/25/2021 12:00:00 AM";"08:00 - 08:59";"02126";"Bloemgracht";"4.87658402";"52.37449829";"11"
"1/25/2021 12:00:00 AM";"08:00 - 08:59";"02156";"Willem de Zwijgerlaan";"4.86425293";"52.37039101";"14"
"1/25/2021 12:00:00 AM";"08:00 - 08:59";"02157";"Adm. de Ruijterweg";"4.86009910";"52.37148707";"11"
"1/25/2021 12:00:00 AM";"08:00 - 08:59";"02158";"Adm. de Ruijterweg";"4.86096776";"52.37129320";"11"
"1/25/2021 12:00:00 AM";"08:00 - 08:59";"02160";"Haparandaweg";"4.87389760";"52.39471799";"16"
"1/25/2021 12:00:00 AM";"08:00 - 08:59";"02170";"Spaarndammerstraat";"4.87723089";"52.39231470";"14"
"1/25/2021 12:00:00 AM";"08:00 - 08:59";"02177";"Bos en Lommerweg";"4.85521256";"52.38101018";"11"
"1/25/2021 12:00:00 AM";"08:00 - 08:59";"02222";"Jan van Galenstraat";"4.85874763";"52.37399761";"14"
"1/25/2021 12:00:00 AM";"08:00 - 08:59";"02259";"Contactweg";"4.85657970";"52.39195435";"17"
"1/25/2021 12:00:00 AM";"08:00 - 08:59";"02260";"Contactweg";"4.85432952";"52.39215995";"14"
"1/25/2021 12:00:00 AM";"08:00 - 08:59";"02273";"La Guardiaweg";"4.84036631";"52.39152109";"14"
"1/25/2021 12:00:00 AM";"08:00 - 08:59";"02301";"Fred. Hendrikplants.";"4.87521585";"52.37852787";"12"
"1/25/2021 12:00:00 AM";"08:00 - 08:59";"02319";"Solebaystraat";"4.85540788";"52.38431853";"12"
"1/25/2021 12:00:00 AM";"08:00 - 08:59";"02321";"Van Hallstraat";"4.86864429";"52.38538386";"17"
"1/25/2021 12:00:00 AM";"08:00 - 08:59";"02361";"Station Sloterdijk";"4.83931858";"52.38833460";"49"
"1/25/2021 12:00:00 AM";"08:00 - 08:59";"02365";"Station Sloterdijk";"4.83873236";"52.38822404";"14"
"1/25/2021 12:00:00 AM";"08:00 - 08:59";"02366";"Station Sloterdijk";"4.83873347";"52.38813416";"16"
"1/25/2021 12:00:00 AM";"08:00 - 08:59";"02367";"Station Sloterdijk";"4.83876429";"52.38801747";"25"
"1/25/2021 12:00:00 AM";"08:00 - 08:59";"02378";"Station Sloterdijk";"4.83809796";"52.38844579";"34"
"1/25/2021 12:00:00 AM";"08:00 - 08:59";"03009";"Witte de Withstraat";"4.85851970";"52.36478416";"23"
"1/25/2021 12:00:00 AM";"08:00 - 08:59";"03010";"Witte de Withstraat";"4.85928290";"52.36480554";"20"
"1/25/2021 12:00:00 AM";"08:00 - 08:59";"03022";"Mercatorplein";"4.85070310";"52.37012367";"12"
"1/25/2021 12:00:00 AM";"08:00 - 08:59";"03023";"Marco Polostraat";"4.85520189";"52.37088096";"25"
"1/25/2021 12:00:00 AM";"08:00 - 08:59";"03034";"Erasmusgracht";"4.84691117";"52.37644278";"12"
"1/25/2021 12:00:00 AM";"08:00 - 08:59";"03052";"Burg. Eliasstraat";"4.82565009";"52.38077481";"14"
"1/25/2021 12:00:00 AM";"08:00 - 08:59";"03055";"Burg. Fockstraat";"4.83108040";"52.37991964";"10"
"1/25/2021 12:00:00 AM";"08:00 - 08:59";"03060";"Bos en Lommerplein";"4.84718407";"52.37815169";"20"
"1/25/2021 12:00:00 AM";"08:00 - 08:59";"03061";"Bos en Lommerplein";"4.84523530";"52.37778328";"40"
"1/25/2021 12:00:00 AM";"08:00 - 08:59";"03076";"Jan Tooropstraat";"4.83810313";"52.37142305";"18"
"1/25/2021 12:00:00 AM";"08:00 - 08:59";"03087";"Plein '40 - '45";"4.82063128";"52.38159575";"18"
"1/25/2021 12:00:00 AM";"08:00 - 08:59";"03090";"Slotermeerlaan";"4.81728149";"52.37596234";"13"
"1/25/2021 12:00:00 AM";"08:00 - 08:59";"03097";"Burg. v. Leeuwenlaan";"4.81182601";"52.37651117";"10"
"1/25/2021 12:00:00 AM";"08:00 - 08:59";"03099";"Dr. H. Colijnstraat";"4.80672448";"52.37693566";"12"
"1/25/2021 12:00:00 AM";"08:00 - 08:59";"03121";"Aalbersestraat";"4.79774249";"52.38202329";"13"
"1/25/2021 12:00:00 AM";"08:00 - 08:59";"03129";"Plein '40 - '45";"4.82112672";"52.38075328";"11"
"1/25/2021 12:00:00 AM";"08:00 - 08:59";"03130";"Plein '40 - '45";"4.82267774";"52.38121007";"15"
"1/25/2021 12:00:00 AM";"08:00 - 08:59";"03132";"Burg. R?ellstraat";"4.81950345";"52.37676393";"11"
"1/25/2021 12:00:00 AM";"08:00 - 08:59";"03145";"J. Cabeliaustraat";"4.80409638";"52.38246819";"13"
"1/25/2021 12:00:00 AM";"08:00 - 08:59";"03150";"Mercatorplein";"4.85011339";"52.37031872";"17"
"1/25/2021 12:00:00 AM";"08:00 - 08:59";"03157";"Lambertus Zijlplein";"4.80338637";"52.37726977";"10"
"1/25/2021 12:00:00 AM";"08:00 - 08:59";"03167";"Bos en Lommerplein";"4.84650668";"52.37709704";"20"
"1/25/2021 12:00:00 AM";"08:00 - 08:59";"03168";"Mercatorplein";"4.85152392";"52.37024423";"12"
"1/25/2021 12:00:00 AM";"08:00 - 08:59";"03171";"Burg. Rendorpstraat";"4.82768433";"52.37436719";"17"
"1/25/2021 12:00:00 AM";"08:00 - 08:59";"03172";"Burg. Rendorpstraat";"4.82691962";"52.37445346";"11"
"1/25/2021 12:00:00 AM";"08:00 - 08:59";"03174";"Burg. R?ellstraat";"4.81863325";"52.37476448";"11"
"1/25/2021 12:00:00 AM";"08:00 - 08:59";"03181";"Jan Voermanstraat";"4.83788946";"52.36970540";"11"
"1/25/2021 12:00:00 AM";"08:00 - 08:59";"03182";"Jan Voermanstraat";"4.83852226";"52.36959149";"13"
"1/25/2021 12:00:00 AM";"08:00 - 08:59";"03198";"W. Schoutenstraat";"4.85259061";"52.36702245";"10"
"1/25/2021 12:00:00 AM";"08:00 - 08:59";"04009";"Dijkgraafplein";"4.78689401";"52.35556268";"14"
"1/25/2021 12:00:00 AM";"08:00 - 08:59";"04012";"Baden Powellweg";"4.79137362";"52.35646612";"23"
"1/25/2021 12:00:00 AM";"08:00 - 08:59";"04016";"Hoekenes";"4.79854723";"52.35791310";"11"
"1/25/2021 12:00:00 AM";"08:00 - 08:59";"04021";"Osdorpplein West";"4.80322869";"52.35913166";"33"
"1/25/2021 12:00:00 AM";"08:00 - 08:59";"04050";"Meer en Vaart";"4.80994403";"52.35636940";"34"
"1/25/2021 12:00:00 AM";"08:00 - 08:59";"04060";"Derkinderenstraat";"4.83972293";"52.35796689";"12"
"1/25/2021 12:00:00 AM";"08:00 - 08:59";"04061";"Derkinderenstraat";"4.84014895";"52.35794190";"18"
"1/25/2021 12:00:00 AM";"08:00 - 08:59";"04062";"Johan Huizingalaan";"4.82582327";"52.35781191";"14"
"1/25/2021 12:00:00 AM";"08:00 - 08:59";"04063";"Johan Huizingalaan";"4.82626398";"52.35778704";"14"
"1/25/2021 12:00:00 AM";"08:00 - 08:59";"04065";"Osdorpplein Oost";"4.80773259";"52.35935153";"11"
"1/25/2021 12:00:00 AM";"08:00 - 08:59";"04112";"Johan Huizingalaan";"4.82742878";"52.34923618";"46"
"1/25/2021 12:00:00 AM";"08:00 - 08:59";"04195";"Station Lelylaan";"4.83460082";"52.35788018";"66"
"1/25/2021 12:00:00 AM";"08:00 - 08:59";"04196";"Station Lelylaan";"4.83382251";"52.35790351";"42"
"1/25/2021 12:00:00 AM";"08:00 - 08:59";"04267";"Schiphol Airport/Plaza";"4.76139455";"52.30887344";"11"
"1/25/2021 12:00:00 AM";"08:00 - 08:59";"04277";"Laan v.Vlaanderen";"4.81642720";"52.34648730";"17"
"1/25/2021 12:00:00 AM";"08:00 - 08:59";"04279";"Centrum Nieuw Sloten";"4.81104244";"52.34638930";"17"
"1/25/2021 12:00:00 AM";"08:00 - 08:59";"04379";"Knooppunt Schiphol Nrd";"4.79320459";"52.32276196";"22"
"1/25/2021 12:00:00 AM";"08:00 - 08:59";"04402";"Matterhorn";"4.77477998";"52.35372103";"20"
"1/25/2021 12:00:00 AM";"08:00 - 08:59";"04409";"Baden Powellweg";"4.79441281";"52.35092691";"28"
"1/25/2021 12:00:00 AM";"08:00 - 08:59";"04411";"Hoekenes";"4.80183430";"52.35243785";"16"
"1/25/2021 12:00:00 AM";"08:00 - 08:59";"04413";"Louis Davidsstraat";"4.80850916";"52.35383682";"33"
"1/25/2021 12:00:00 AM";"08:00 - 08:59";"04414";"Louis Davidsstraat";"4.80910976";"52.35392963";"15"
"1/25/2021 12:00:00 AM";"08:00 - 08:59";"05011";"Centraal Station";"4.89921803";"52.37810793";"95"
"1/25/2021 12:00:00 AM";"08:00 - 08:59";"05022";"Centraal Station";"4.90104337";"52.37771998";"81"
"1/25/2021 12:00:00 AM";"08:00 - 08:59";"05031";"Dam";"4.89348394";"52.37341055";"11"
"1/25/2021 12:00:00 AM";"08:00 - 08:59";"05036";"Rokin";"4.89230478";"52.36985548";"10"
"1/25/2021 12:00:00 AM";"08:00 - 08:59";"05047";"Rembrandtplein";"4.89702882";"52.36623511";"13"
"1/25/2021 12:00:00 AM";"08:00 - 08:59";"05062";"Spui";"4.88925912";"52.36909673";"13"
"1/25/2021 12:00:00 AM";"08:00 - 08:59";"05063";"Dam";"4.89064590";"52.37244599";"11"
"1/25/2021 12:00:00 AM";"08:00 - 08:59";"05065";"Dam";"4.89079364";"52.37367792";"32"
"1/25/2021 12:00:00 AM";"08:00 - 08:59";"05066";"Dam";"4.89027056";"52.37318140";"32"
"1/25/2021 12:00:00 AM";"08:00 - 08:59";"05069";"Nieuwezijds Kolk";"4.89373093";"52.37628765";"23"
"1/25/2021 12:00:00 AM";"08:00 - 08:59";"05070";"Nieuwezijds Kolk";"4.89284106";"52.37575366";"12"
"1/25/2021 12:00:00 AM";"08:00 - 08:59";"05073";"Westermarkt";"4.88453426";"52.37400204";"26"
"1/25/2021 12:00:00 AM";"08:00 - 08:59";"05074";"Westermarkt";"4.88354950";"52.37407874";"56"
"1/25/2021 12:00:00 AM";"08:00 - 08:59";"05077";"Marnixstraat";"4.87615428";"52.37228546";"20"
"1/25/2021 12:00:00 AM";"08:00 - 08:59";"05080";"Buiten Oranjestraat";"4.88782167";"52.38330923";"21"
"1/25/2021 12:00:00 AM";"08:00 - 08:59";"05097";"Centraal Station";"4.90087651";"52.37954379";"26"
"1/25/2021 12:00:00 AM";"08:00 - 08:59";"05103";"Centraal Station";"4.90127481";"52.37938365";"20"
"1/25/2021 12:00:00 AM";"08:00 - 08:59";"05104";"Centraal Station";"4.90164343";"52.37925034";"10"
"1/25/2021 12:00:00 AM";"08:00 - 08:59";"05154";"Marnixstraat";"4.87536375";"52.37207533";"12"
"1/25/2021 12:00:00 AM";"08:00 - 08:59";"06001";"Surinameplein";"4.85252231";"52.35807034";"29"
"1/25/2021 12:00:00 AM";"08:00 - 08:59";"06002";"Surinameplein";"4.85090753";"52.35807202";"10"
"1/25/2021 12:00:00 AM";"08:00 - 08:59";"06016";"J.P. Heijestraat";"4.86239635";"52.36472951";"23"
"1/25/2021 12:00:00 AM";"08:00 - 08:59";"06017";"J.P. Heijestraat";"4.86292317";"52.36487565";"15"
"1/25/2021 12:00:00 AM";"08:00 - 08:59";"06019";"Ten Katestraat";"4.86737423";"52.36591988";"23"
"1/25/2021 12:00:00 AM";"08:00 - 08:59";"06020";"Ten Katestraat";"4.86773990";"52.36603832";"27"
"1/25/2021 12:00:00 AM";"08:00 - 08:59";"06021";"Bilderdijkstraat";"4.87176488";"52.36712545";"25"
"1/25/2021 12:00:00 AM";"08:00 - 08:59";"06023";"Bilderdijkstraat";"4.87254032";"52.36736251";"12"
"1/25/2021 12:00:00 AM";"08:00 - 08:59";"06024";"Kinkerstraat";"4.87230885";"52.36706491";"10"
"1/25/2021 12:00:00 AM";"08:00 - 08:59";"06027";"Elandsgracht";"4.87855189";"52.36808953";"14"
"1/25/2021 12:00:00 AM";"08:00 - 08:59";"06028";"Elandsgracht";"4.87741694";"52.36974738";"41"
"1/25/2021 12:00:00 AM";"08:00 - 08:59";"06029";"Elandsgracht";"4.87684368";"52.36852258";"64"
"1/25/2021 12:00:00 AM";"08:00 - 08:59";"06030";"Rozengracht";"4.87590932";"52.37187996";"11"
"1/25/2021 12:00:00 AM";"08:00 - 08:59";"06034";"Bilderdijkstraat";"4.87082347";"52.37105798";"18"
"1/25/2021 12:00:00 AM";"08:00 - 08:59";"06037";"Bilderdijkstraat";"4.86985701";"52.37082906";"25"
"1/25/2021 12:00:00 AM";"08:00 - 08:59";"06038";"De Clercqstraat";"4.87040279";"52.37061574";"10"
"1/25/2021 12:00:00 AM";"08:00 - 08:59";"06043";"Overtoom";"4.87510145";"52.36299659";"11"
"1/25/2021 12:00:00 AM";"08:00 - 08:59";"06045";"1e Con. Huygensstraat";"4.87399228";"52.36242556";"18"
"1/25/2021 12:00:00 AM";"08:00 - 08:59";"06046";"1e Con. Huygensstraat";"4.87487082";"52.36262709";"20"
"1/25/2021 12:00:00 AM";"08:00 - 08:59";"06048";"J.P. Heijestraat";"4.86585368";"52.36037674";"15"
"1/25/2021 12:00:00 AM";"08:00 - 08:59";"06059";"Spiegelgracht";"4.88762090";"52.36071327";"10"
"1/25/2021 12:00:00 AM";"08:00 - 08:59";"06061";"Leidseplein";"4.88339576";"52.36305015";"29"
"1/25/2021 12:00:00 AM";"08:00 - 08:59";"06063";"Leidseplein";"4.88064547";"52.36476406";"26"
"1/25/2021 12:00:00 AM";"08:00 - 08:59";"06072";"Prinsengracht";"4.88428435";"52.36495933";"17"
"1/25/2021 12:00:00 AM";"08:00 - 08:59";"06074";"Keizersgracht";"4.88624128";"52.36588437";"15"
"1/25/2021 12:00:00 AM";"08:00 - 08:59";"06075";"Koningsplein";"4.88942793";"52.36713812";"12"
"1/25/2021 12:00:00 AM";"08:00 - 08:59";"06076";"Koningsplein";"4.88857910";"52.36689188";"32"
"1/25/2021 12:00:00 AM";"08:00 - 08:59";"06081";"Rhijnvis Feithstraat";"4.86039355";"52.35905833";"19"
"1/25/2021 12:00:00 AM";"08:00 - 08:59";"06089";"Leidseplein";"4.88085541";"52.36309324";"49"
"1/25/2021 12:00:00 AM";"08:00 - 08:59";"06114";"Hoofdweg";"4.85444451";"52.36425359";"13"
"1/25/2021 12:00:00 AM";"08:00 - 08:59";"06115";"Postjesweg";"4.85319014";"52.36478720";"13"
"1/25/2021 12:00:00 AM";"08:00 - 08:59";"07002";"Van Baerlestraat";"4.87836936";"52.35839997";"15"
"1/25/2021 12:00:00 AM";"08:00 - 08:59";"07006";"Museumplein";"4.87980116";"52.35642881";"28"
"1/25/2021 12:00:00 AM";"08:00 - 08:59";"07007";"Museumplein";"4.87950215";"52.35690388";"70"
"1/25/2021 12:00:00 AM";"08:00 - 08:59";"07015";"Roelof Hartplein";"4.88206971";"52.35314900";"31"
"1/25/2021 12:00:00 AM";"08:00 - 08:59";"07016";"Roelof Hartplein";"4.88286688";"52.35274795";"37"
"1/25/2021 12:00:00 AM";"08:00 - 08:59";"07017";"Roelof Hartplein";"4.88206086";"52.35263666";"10"
"1/25/2021 12:00:00 AM";"08:00 - 08:59";"07021";"Kastelenstraat";"4.87955984";"52.32619291";"10"
"1/25/2021 12:00:00 AM";"08:00 - 08:59";"07027";"Corn. Schuytstraat";"4.87051458";"52.35597520";"20"
"1/25/2021 12:00:00 AM";"08:00 - 08:59";"07028";"Corn. Schuytstraat";"4.87088070";"52.35604870";"11"
"1/25/2021 12:00:00 AM";"08:00 - 08:59";"07031";"Valeriusplein";"4.86374943";"52.35333004";"28"
"1/25/2021 12:00:00 AM";"08:00 - 08:59";"07032";"Valeriusplein";"4.86326678";"52.35318410";"21"
"1/25/2021 12:00:00 AM";"08:00 - 08:59";"07033";"Amstelveenseweg";"4.85695925";"52.35161911";"11"
"1/25/2021 12:00:00 AM";"08:00 - 08:59";"07035";"Zeilstraat";"4.85672894";"52.35124059";"11"
"1/25/2021 12:00:00 AM";"08:00 - 08:59";"07048";"Hoofddorpplein";"4.85010578";"52.35154327";"14"
"1/25/2021 12:00:00 AM";"08:00 - 08:59";"07049";"Hoofddorpplein";"4.84958188";"52.35117239";"24"
"1/25/2021 12:00:00 AM";"08:00 - 08:59";"07050";"Haarlemmermeerstation";"4.85744749";"52.34883508";"13"
"1/25/2021 12:00:00 AM";"08:00 - 08:59";"07083";"Gerrit v.d. Veenstraat";"4.87735929";"52.34921014";"12"
"1/25/2021 12:00:00 AM";"08:00 - 08:59";"07084";"Gerrit v.d. Veenstraat";"4.87720177";"52.34886793";"24"
"1/25/2021 12:00:00 AM";"08:00 - 08:59";"07087";"Stadionweg";"4.87688397";"52.34714989";"10"
"1/25/2021 12:00:00 AM";"08:00 - 08:59";"07088";"Stadionweg";"4.87687497";"52.34665553";"11"
"1/25/2021 12:00:00 AM";"08:00 - 08:59";"07097";"Olympiaplein";"4.86582821";"52.34630180";"12"
"1/25/2021 12:00:00 AM";"08:00 - 08:59";"07098";"Olympiaplein";"4.86659057";"52.34636807";"12"
"1/25/2021 12:00:00 AM";"08:00 - 08:59";"07116";"Haarl'meerstation";"4.85760410";"52.34924023";"12"
"1/25/2021 12:00:00 AM";"08:00 - 08:59";"07120";"Olympiaweg";"4.85834130";"52.34526195";"11"
"1/25/2021 12:00:00 AM";"08:00 - 08:59";"07157";"Van Heenvlietlaan";"4.88302129";"52.32494043";"10"
"1/25/2021 12:00:00 AM";"08:00 - 08:59";"07186";"Pr. Irenestraat";"4.87677483";"52.34260161";"11"
"1/25/2021 12:00:00 AM";"08:00 - 08:59";"07187";"Pr. Irenestraat";"4.87678341";"52.34313193";"21"
"1/25/2021 12:00:00 AM";"08:00 - 08:59";"07193";"Station Zuid";"4.87334616";"52.34088808";"32"
"1/25/2021 12:00:00 AM";"08:00 - 08:59";"07269";"Station Zuid";"4.87374306";"52.34082689";"26"
"1/25/2021 12:00:00 AM";"08:00 - 08:59";"07270";"Parnassusweg";"4.86874218";"52.33806382";"10"
"1/25/2021 12:00:00 AM";"08:00 - 08:59";"07303";"VU medisch centrum";"4.86097062";"52.33515342";"18"
"1/25/2021 12:00:00 AM";"08:00 - 08:59";"07321";"Van Baerlestraat";"4.87895796";"52.35827667";"16"
"1/25/2021 12:00:00 AM";"08:00 - 08:59";"07322";"Van Baerlestraat";"4.87971942";"52.35844171";"37"
"1/25/2021 12:00:00 AM";"08:00 - 08:59";"07323";"Rijksmuseum";"4.88355043";"52.35977029";"17"
"1/25/2021 12:00:00 AM";"08:00 - 08:59";"07324";"Rijksmuseum";"4.88332565";"52.36017378";"14"
"1/25/2021 12:00:00 AM";"08:00 - 08:59";"07391";"Kronenburg";"4.87070592";"52.31556694";"16"
"1/25/2021 12:00:00 AM";"08:00 - 08:59";"07419";"Van Boshuizenstraat";"4.86896941";"52.32487971";"48"
"1/25/2021 12:00:00 AM";"08:00 - 08:59";"07439";"Oranjebaan";"4.87179001";"52.30302465";"17"
"1/25/2021 12:00:00 AM";"08:00 - 08:59";"07445";"Amstelveen Stadshart";"4.86751502";"52.30124433";"23"
"1/25/2021 12:00:00 AM";"08:00 - 08:59";"07448";"A.J. Ernststraat";"4.86887597";"52.33288743";"11"
"1/25/2021 12:00:00 AM";"08:00 - 08:59";"07449";"A.J. Ernststraat";"4.86879476";"52.33230287";"20"
"1/25/2021 12:00:00 AM";"08:00 - 08:59";"08007";"Bob Haarmslaan";"4.96921237";"52.36876786";"25"
"1/25/2021 12:00:00 AM";"08:00 - 08:59";"08009";"Bob Haarmslaan";"4.96859205";"52.36915214";"12"
"1/25/2021 12:00:00 AM";"08:00 - 08:59";"08027";"Kadijksplein";"4.91357159";"52.37075136";"11"
"1/25/2021 12:00:00 AM";"08:00 - 08:59";"08051";"K. 's-Gravesandestr.";"4.91366120";"52.36235720";"13"
"1/25/2021 12:00:00 AM";"08:00 - 08:59";"08052";"K. 's-Gravesandestr.";"4.91550720";"52.36271509";"11"
"1/25/2021 12:00:00 AM";"08:00 - 08:59";"08053";"Weesperplein";"4.90655690";"52.36088154";"18"
"1/25/2021 12:00:00 AM";"08:00 - 08:59";"08054";"Weesperplein";"4.90941338";"52.36145933";"38"
"1/25/2021 12:00:00 AM";"08:00 - 08:59";"08057";"Frederiksplein";"4.90024241";"52.35971430";"25"
"1/25/2021 12:00:00 AM";"08:00 - 08:59";"08058";"Veelaan";"4.93961588";"52.36830916";"11"
"1/25/2021 12:00:00 AM";"08:00 - 08:59";"08059";"Veelaan";"4.93944523";"52.36776026";"12"
"1/25/2021 12:00:00 AM";"08:00 - 08:59";"08066";"Frederiksplein";"4.89751569";"52.35937050";"18"
"1/25/2021 12:00:00 AM";"08:00 - 08:59";"08072";"Vijzelgracht";"4.89159781";"52.35953462";"19"
"1/25/2021 12:00:00 AM";"08:00 - 08:59";"08073";"Vijzelgracht";"4.89227386";"52.35946554";"24"
"1/25/2021 12:00:00 AM";"08:00 - 08:59";"08080";"Spiegelgracht";"4.88691222";"52.36106979";"22"
"1/25/2021 12:00:00 AM";"08:00 - 08:59";"08114";"Javaplein";"4.93955537";"52.36412066";"10"
"1/25/2021 12:00:00 AM";"08:00 - 08:59";"08120";"Insulindeweg";"4.94763926";"52.36469021";"19"
"1/25/2021 12:00:00 AM";"08:00 - 08:59";"08124";"Soembawastraat";"4.94346569";"52.36214910";"11"
"1/25/2021 12:00:00 AM";"08:00 - 08:59";"08129";"Molukkenstraat";"4.93861286";"52.36150167";"14"
"1/25/2021 12:00:00 AM";"08:00 - 08:59";"08138";"Zuiderzeeweg";"4.96218432";"52.37129534";"18"
"1/25/2021 12:00:00 AM";"08:00 - 08:59";"08139";"Zuiderzeeweg";"4.96240105";"52.37166461";"14"
"1/25/2021 12:00:00 AM";"08:00 - 08:59";"08195";"Oostenburgergracht";"4.92452709";"52.36780177";"10"
"1/25/2021 12:00:00 AM";"08:00 - 08:59";"08237";"Kattenburgerstraat";"4.92126795";"52.37614755";"19"
"1/25/2021 12:00:00 AM";"08:00 - 08:59";"08238";"Rietlandpark";"4.93350159";"52.37322013";"23"
"1/25/2021 12:00:00 AM";"08:00 - 08:59";"08239";"Rietlandpark";"4.93413567";"52.37296191";"28"
"1/25/2021 12:00:00 AM";"08:00 - 08:59";"08241";"Zuiderzeeweg";"4.96185517";"52.37193228";"24"
"1/25/2021 12:00:00 AM";"08:00 - 08:59";"08244";"Steigereiland";"4.98083725";"52.36280456";"11"
"1/25/2021 12:00:00 AM";"08:00 - 08:59";"08245";"Steigereiland";"4.98012952";"52.36313467";"44"
"1/25/2021 12:00:00 AM";"08:00 - 08:59";"08247";"Vennepluimstraat";"4.99057242";"52.35769662";"17"
"1/25/2021 12:00:00 AM";"08:00 - 08:59";"08249";"Diemerparklaan";"4.99499716";"52.35532962";"34"
"1/25/2021 12:00:00 AM";"08:00 - 08:59";"08255";"Hoogte Kadijk";"4.92483038";"52.36687722";"22"
"1/25/2021 12:00:00 AM";"08:00 - 08:59";"08257";"1e Coehoornstraat";"4.92618328";"52.36808685";"10"
"1/25/2021 12:00:00 AM";"08:00 - 08:59";"08259";"1e Leeghwaterstraat";"4.93004964";"52.37047459";"17"
"1/25/2021 12:00:00 AM";"08:00 - 08:59";"08261";"Rietlandpark";"4.93481067";"52.37300943";"13"
"1/25/2021 12:00:00 AM";"08:00 - 08:59";"08262";"IJburg";"5.00486802";"52.35112872";"73"
"1/25/2021 12:00:00 AM";"08:00 - 08:59";"08290";"Molukkenstraat";"4.94016678";"52.36172326";"20"
"1/25/2021 12:00:00 AM";"08:00 - 08:59";"08300";"P.Oosterhuisstraat";"5.00693059";"52.35193526";"21"
"1/25/2021 12:00:00 AM";"08:00 - 08:59";"09013";"Amstelstation";"4.91790223";"52.34725673";"16"
"1/25/2021 12:00:00 AM";"08:00 - 08:59";"09024";"Camperstraat";"4.91339591";"52.35832964";"16"
"1/25/2021 12:00:00 AM";"08:00 - 08:59";"09026";"Amstelstation";"4.91874992";"52.34619953";"11"
"1/25/2021 12:00:00 AM";"08:00 - 08:59";"09049";"Victorieplein";"4.90570139";"52.34637186";"18"
"1/25/2021 12:00:00 AM";"08:00 - 08:59";"09050";"Victorieplein";"4.90499015";"52.34699811";"10"
"1/25/2021 12:00:00 AM";"08:00 - 08:59";"09051";"Victorieplein";"4.90653699";"52.34645615";"13"
"1/25/2021 12:00:00 AM";"08:00 - 08:59";"09082";"Waalstraat";"4.89974094";"52.34656317";"11"
"1/25/2021 12:00:00 AM";"08:00 - 08:59";"09083";"Waalstraat";"4.90032528";"52.34680824";"14"
"1/25/2021 12:00:00 AM";"08:00 - 08:59";"09091";"Lutmastraat";"4.90313216";"52.35184391";"10"
"1/25/2021 12:00:00 AM";"08:00 - 08:59";"09096";"Van Woustraat";"4.90163035";"52.35495650";"13"
"1/25/2021 12:00:00 AM";"08:00 - 08:59";"09097";"Van Woustraat";"4.90084070";"52.35468363";"25"
"1/25/2021 12:00:00 AM";"08:00 - 08:59";"09109";"2e v.d.Helststraat";"4.89488170";"52.35331982";"10"
"1/25/2021 12:00:00 AM";"08:00 - 08:59";"09111";"De Pijp";"4.89073444";"52.35272728";"12"
"1/25/2021 12:00:00 AM";"08:00 - 08:59";"09114";"De Pijp";"4.88948829";"52.35259622";"16"
"1/25/2021 12:00:00 AM";"08:00 - 08:59";"09120";"Cornelis Troostplein";"4.89161100";"52.35046604";"10"
"1/25/2021 12:00:00 AM";"08:00 - 08:59";"ASA";"Amstelstation";"4.91751426";"52.34647326";"256"
"1/25/2021 12:00:00 AM";"08:00 - 08:59";"ASW";"Amstelveenseweg";"4.85798324";"52.33836671";"313"
"1/25/2021 12:00:00 AM";"08:00 - 08:59";"BLW";"Bullewijk";"4.95233581";"52.30642205";"111"
"1/25/2021 12:00:00 AM";"08:00 - 08:59";"BMR";"Station Bijlmer ArenA";"4.94713474";"52.31193030";"341"
"1/25/2021 12:00:00 AM";"08:00 - 08:59";"CLL";"Station Lelylaan";"4.83426589";"52.35766291";"119"
"1/25/2021 12:00:00 AM";"08:00 - 08:59";"CS";"Centraal Station";"4.90078150";"52.37749421";"465"
"1/25/2021 12:00:00 AM";"08:00 - 08:59";"DMZ";"Station Diemen-Zuid";"4.95713273";"52.33042795";"44"
"1/25/2021 12:00:00 AM";"08:00 - 08:59";"DPP";"De Pijp";"4.89101069";"52.35296212";"190"
"1/25/2021 12:00:00 AM";"08:00 - 08:59";"DVD";"Station Duivendrecht";"4.93678429";"52.32325190";"76"
"1/25/2021 12:00:00 AM";"08:00 - 08:59";"EPP";"Europaplein";"4.89138430";"52.34185482";"224"
"1/25/2021 12:00:00 AM";"08:00 - 08:59";"GN";"Gein";"4.98952268";"52.29627089";"53"
"1/25/2021 12:00:00 AM";"08:00 - 08:59";"GPP";"Gaasperplas";"4.98468551";"52.31080575";"30"
"1/25/2021 12:00:00 AM";"08:00 - 08:59";"GZH";"Station Ganzenhoef";"4.97323379";"52.32331315";"81"
"1/25/2021 12:00:00 AM";"08:00 - 08:59";"HDS";"Heemstedestraat";"4.83421208";"52.35255760";"71"
"1/25/2021 12:00:00 AM";"08:00 - 08:59";"HLD";"Station Holendrecht";"4.96021904";"52.29780451";"344"
"1/25/2021 12:00:00 AM";"08:00 - 08:59";"HVW";"Henk Sneevlietweg";"4.83439318";"52.34626699";"256"
"1/25/2021 12:00:00 AM";"08:00 - 08:59";"ITW";"Isolatorweg";"4.85013475";"52.39523277";"182"
"1/25/2021 12:00:00 AM";"08:00 - 08:59";"JLS";"Jan v.Galenstraat";"4.83492461";"52.37196551";"233"
"1/25/2021 12:00:00 AM";"08:00 - 08:59";"KEN";"Kraaienneststation";"4.97963450";"52.31632492";"43"
"1/25/2021 12:00:00 AM";"08:00 - 08:59";"MDW";"Van der Madeweg";"4.93048657";"52.32945629";"104"
"1/25/2021 12:00:00 AM";"08:00 - 08:59";"ND";"Noord";"4.93123182";"52.40117202";"189"
"1/25/2021 12:00:00 AM";"08:00 - 08:59";"NDP";"Noorderpark";"4.91789115";"52.38855518";"138"
"1/25/2021 12:00:00 AM";"08:00 - 08:59";"NMT";"Nieuwmarkt";"4.90123885";"52.37194169";"92"
"1/25/2021 12:00:00 AM";"08:00 - 08:59";"OAS";"Overamstel";"4.91815361";"52.33179879";"106"
"1/25/2021 12:00:00 AM";"08:00 - 08:59";"PJW";"Postjesweg";"4.83385543";"52.36468044";"131"
"1/25/2021 12:00:00 AM";"08:00 - 08:59";"RAI";"Station RAI";"4.88982004";"52.33739931";"159"
"1/25/2021 12:00:00 AM";"08:00 - 08:59";"RGB";"Reigersbos";"4.97473728";"52.29566301";"93"
"1/25/2021 12:00:00 AM";"08:00 - 08:59";"RKN";"Rokin";"4.89229651";"52.36928023";"213"
"1/25/2021 12:00:00 AM";"08:00 - 08:59";"SLW";"Spaklerweg";"4.92085640";"52.33986250";"140"
"1/25/2021 12:00:00 AM";"08:00 - 08:59";"STD";"Station Sloterdijk";"4.83878389";"52.38880848";"259"
"1/25/2021 12:00:00 AM";"08:00 - 08:59";"SVT";"Strandvliet";"4.94152820";"52.31825469";"81"
"1/25/2021 12:00:00 AM";"08:00 - 08:59";"VLN";"Burg.de Vlugtlaan";"4.83809109";"52.37951196";"53"
"1/25/2021 12:00:00 AM";"08:00 - 08:59";"VPD";"Venserpolder";"4.94665009";"52.32679428";"56"
"1/25/2021 12:00:00 AM";"08:00 - 08:59";"VSW";"Verrijn Stuartweg";"4.96693669";"52.32844093";"41"
"1/25/2021 12:00:00 AM";"08:00 - 08:59";"VZG";"Vijzelgracht";"4.89072870";"52.35980061";"170"
"1/25/2021 12:00:00 AM";"08:00 - 08:59";"WBS";"Wibautstraat";"4.91202993";"52.35428867";"178"
"1/25/2021 12:00:00 AM";"08:00 - 08:59";"WLP";"Waterlooplein";"4.90298171";"52.36697862";"172"
"1/25/2021 12:00:00 AM";"08:00 - 08:59";"WPP";"Weesperplein";"4.90787469";"52.36120146";"240"
"1/25/2021 12:00:00 AM";"08:00 - 08:59";"WTC";"Station Zuid";"4.87509853";"52.33908015";"731"
"1/25/2021 12:00:00 AM";"09:00 - 09:59";"";"Overig";"";"";"2273"
"1/25/2021 12:00:00 AM";"09:00 - 09:59";"[[ Onb";"[[ Onbekend ]]";"0.00000000";"0.00000000";"184"
"1/25/2021 12:00:00 AM";"09:00 - 09:59";"00001";"Muiderpoortstation";"4.93287450";"52.36132700";"11"
"1/25/2021 12:00:00 AM";"09:00 - 09:59";"00007";"Muiderpoortstation";"4.93356602";"52.36117686";"13"
"1/25/2021 12:00:00 AM";"09:00 - 09:59";"00020";"Beukenweg";"4.91674979";"52.35906203";"14"
"1/25/2021 12:00:00 AM";"09:00 - 09:59";"00021";"Beukenweg";"4.91721293";"52.35829991";"33"
"1/25/2021 12:00:00 AM";"09:00 - 09:59";"00029";"Oostpoort";"4.92719316";"52.35707185";"14"
"1/25/2021 12:00:00 AM";"09:00 - 09:59";"00030";"Oostpoort";"4.92694026";"52.35739442";"19"
"1/25/2021 12:00:00 AM";"09:00 - 09:59";"00039";"Hogeweg";"4.93084015";"52.35358075";"11"
"1/25/2021 12:00:00 AM";"09:00 - 09:59";"00040";"Hogeweg";"4.93135765";"52.35321425";"12"
"1/25/2021 12:00:00 AM";"09:00 - 09:59";"00053";"Kruislaan";"4.93967974";"52.34742196";"12"
"1/25/2021 12:00:00 AM";"09:00 - 09:59";"00070";"Kruislaan";"4.93993910";"52.34789929";"13"
"1/25/2021 12:00:00 AM";"09:00 - 09:59";"00074";"Brinkstraat";"4.94797289";"52.34285131";"12"
"1/25/2021 12:00:00 AM";"09:00 - 09:59";"00116";"Station Ganzenhoef";"4.97272915";"52.32237665";"11"
"1/25/2021 12:00:00 AM";"09:00 - 09:59";"00141";"Kraaienneststation";"4.97868390";"52.31603403";"13"
"1/25/2021 12:00:00 AM";"09:00 - 09:59";"00150";"Tulastraat";"4.96535973";"52.31994189";"25"
"1/25/2021 12:00:00 AM";"09:00 - 09:59";"00151";"Tulastraat";"4.96584458";"52.31985374";"25"
"1/25/2021 12:00:00 AM";"09:00 - 09:59";"00197";"Annie Romeinplein";"4.97162041";"52.32173463";"13"
"1/25/2021 12:00:00 AM";"09:00 - 09:59";"00238";"Anton de Komplein";"4.95413359";"52.31603659";"17"
"1/25/2021 12:00:00 AM";"09:00 - 09:59";"00239";"Anton de Komplein";"4.95597669";"52.31652866";"14"
"1/25/2021 12:00:00 AM";"09:00 - 09:59";"00434";"Bijlmerplein";"4.95032022";"52.31457553";"14"
"1/25/2021 12:00:00 AM";"09:00 - 09:59";"00441";"Muiderpoortstation";"4.93254137";"52.36088532";"14"
"1/25/2021 12:00:00 AM";"09:00 - 09:59";"00444";"Linnaeusstraat";"4.92490296";"52.35991203";"20"
"1/25/2021 12:00:00 AM";"09:00 - 09:59";"00453";"Diemen Sniep";"4.96964866";"52.33644962";"14"
"1/25/2021 12:00:00 AM";"09:00 - 09:59";"00512";"Middenweg";"4.93389832";"52.35020413";"11"
"1/25/2021 12:00:00 AM";"09:00 - 09:59";"00518";"Foppingadreef";"4.94967889";"52.31268573";"10"
"1/25/2021 12:00:00 AM";"09:00 - 09:59";"00538";"Station Science Park";"4.94808393";"52.35239669";"13"
"1/25/2021 12:00:00 AM";"09:00 - 09:59";"00560";"Station Bijlmer ArenA";"4.94747867";"52.31125750";"14"
"1/25/2021 12:00:00 AM";"09:00 - 09:59";"00561";"Station Bijlmer ArenA";"4.94741931";"52.31132918";"24"
"1/25/2021 12:00:00 AM";"09:00 - 09:59";"01278";"Statenjachtstraat";"4.91380643";"52.40790731";"10"
"1/25/2021 12:00:00 AM";"09:00 - 09:59";"01305";"Station Noord";"4.93215715";"52.40264056";"12"
"1/25/2021 12:00:00 AM";"09:00 - 09:59";"01316";"Station Noord";"4.93336820";"52.40204304";"17"
"1/25/2021 12:00:00 AM";"09:00 - 09:59";"01402";"Floraweg";"4.90614362";"52.39899665";"14"
"1/25/2021 12:00:00 AM";"09:00 - 09:59";"01422";"Noorderpark";"4.91956087";"52.38902016";"11"
"1/25/2021 12:00:00 AM";"09:00 - 09:59";"01443";"Volendammerweg";"4.95697086";"52.39255928";"10"
"1/25/2021 12:00:00 AM";"09:00 - 09:59";"02019";"Koivistokade";"4.87537403";"52.39790601";"17"
"1/25/2021 12:00:00 AM";"09:00 - 09:59";"02103";"Spaarndammerstraat";"4.87765867";"52.39216375";"19"
"1/25/2021 12:00:00 AM";"09:00 - 09:59";"02113";"Haarlemmerplein";"4.88371739";"52.38516129";"18"
"1/25/2021 12:00:00 AM";"09:00 - 09:59";"02114";"Haarlemmerplein";"4.88341252";"52.38484542";"24"
"1/25/2021 12:00:00 AM";"09:00 - 09:59";"02130";"Hugo de Grootplein";"4.87259092";"52.37439113";"11"
"1/25/2021 12:00:00 AM";"09:00 - 09:59";"02132";"Fred. Hendrikplants.";"4.87543499";"52.37862768";"18"
"1/25/2021 12:00:00 AM";"09:00 - 09:59";"02149";"Van L.Stirumstraat";"4.87489798";"52.38443141";"10"
"1/25/2021 12:00:00 AM";"09:00 - 09:59";"02155";"Willem de Zwijgerlaan";"4.86360306";"52.37071170";"16"
"1/25/2021 12:00:00 AM";"09:00 - 09:59";"02156";"Willem de Zwijgerlaan";"4.86425293";"52.37039101";"10"
"1/25/2021 12:00:00 AM";"09:00 - 09:59";"02157";"Adm. de Ruijterweg";"4.86009910";"52.37148707";"16"
"1/25/2021 12:00:00 AM";"09:00 - 09:59";"02177";"Bos en Lommerweg";"4.85521256";"52.38101018";"16"
"1/25/2021 12:00:00 AM";"09:00 - 09:59";"02222";"Jan van Galenstraat";"4.85874763";"52.37399761";"12"
"1/25/2021 12:00:00 AM";"09:00 - 09:59";"02302";"Fred. Hendrikplants.";"4.87549415";"52.37859198";"13"
"1/25/2021 12:00:00 AM";"09:00 - 09:59";"02321";"Van Hallstraat";"4.86864429";"52.38538386";"14"
"1/25/2021 12:00:00 AM";"09:00 - 09:59";"02361";"Station Sloterdijk";"4.83931858";"52.38833460";"34"
"1/25/2021 12:00:00 AM";"09:00 - 09:59";"02365";"Station Sloterdijk";"4.83873236";"52.38822404";"15"
"1/25/2021 12:00:00 AM";"09:00 - 09:59";"02366";"Station Sloterdijk";"4.83873347";"52.38813416";"11"
"1/25/2021 12:00:00 AM";"09:00 - 09:59";"02367";"Station Sloterdijk";"4.83876429";"52.38801747";"10"
"1/25/2021 12:00:00 AM";"09:00 - 09:59";"02378";"Station Sloterdijk";"4.83809796";"52.38844579";"22"
"1/25/2021 12:00:00 AM";"09:00 - 09:59";"03009";"Witte de Withstraat";"4.85851970";"52.36478416";"31"
"1/25/2021 12:00:00 AM";"09:00 - 09:59";"03010";"Witte de Withstraat";"4.85928290";"52.36480554";"22"
"1/25/2021 12:00:00 AM";"09:00 - 09:59";"03022";"Mercatorplein";"4.85070310";"52.37012367";"16"
"1/25/2021 12:00:00 AM";"09:00 - 09:59";"03034";"Erasmusgracht";"4.84691117";"52.37644278";"11"
"1/25/2021 12:00:00 AM";"09:00 - 09:59";"03052";"Burg. Eliasstraat";"4.82565009";"52.38077481";"18"
"1/25/2021 12:00:00 AM";"09:00 - 09:59";"03060";"Bos en Lommerplein";"4.84718407";"52.37815169";"11"
"1/25/2021 12:00:00 AM";"09:00 - 09:59";"03061";"Bos en Lommerplein";"4.84523530";"52.37778328";"22"
"1/25/2021 12:00:00 AM";"09:00 - 09:59";"03076";"Jan Tooropstraat";"4.83810313";"52.37142305";"20"
"1/25/2021 12:00:00 AM";"09:00 - 09:59";"03077";"Jan Tooropstraat";"4.83817288";"52.37171997";"12"
"1/25/2021 12:00:00 AM";"09:00 - 09:59";"03087";"Plein '40 - '45";"4.82063128";"52.38159575";"10"
"1/25/2021 12:00:00 AM";"09:00 - 09:59";"03129";"Plein '40 - '45";"4.82112672";"52.38075328";"22"
"1/25/2021 12:00:00 AM";"09:00 - 09:59";"03150";"Mercatorplein";"4.85011339";"52.37031872";"13"
"1/25/2021 12:00:00 AM";"09:00 - 09:59";"03167";"Bos en Lommerplein";"4.84650668";"52.37709704";"10"
"1/25/2021 12:00:00 AM";"09:00 - 09:59";"03168";"Mercatorplein";"4.85152392";"52.37024423";"10"
"1/25/2021 12:00:00 AM";"09:00 - 09:59";"03198";"W. Schoutenstraat";"4.85259061";"52.36702245";"10"
"1/25/2021 12:00:00 AM";"09:00 - 09:59";"04012";"Baden Powellweg";"4.79137362";"52.35646612";"11"
"1/25/2021 12:00:00 AM";"09:00 - 09:59";"04016";"Hoekenes";"4.79854723";"52.35791310";"11"
"1/25/2021 12:00:00 AM";"09:00 - 09:59";"04021";"Osdorpplein West";"4.80322869";"52.35913166";"24"
"1/25/2021 12:00:00 AM";"09:00 - 09:59";"04050";"Meer en Vaart";"4.80994403";"52.35636940";"23"
"1/25/2021 12:00:00 AM";"09:00 - 09:59";"04060";"Derkinderenstraat";"4.83972293";"52.35796689";"11"
"1/25/2021 12:00:00 AM";"09:00 - 09:59";"04062";"Johan Huizingalaan";"4.82582327";"52.35781191";"11"
"1/25/2021 12:00:00 AM";"09:00 - 09:59";"04065";"Osdorpplein Oost";"4.80773259";"52.35935153";"19"
"1/25/2021 12:00:00 AM";"09:00 - 09:59";"04088";"Louwesweg";"4.82436420";"52.34669608";"17"
"1/25/2021 12:00:00 AM";"09:00 - 09:59";"04110";"Westlandgracht";"4.84581964";"52.35156868";"10"
"1/25/2021 12:00:00 AM";"09:00 - 09:59";"04112";"Johan Huizingalaan";"4.82742878";"52.34923618";"16"
"1/25/2021 12:00:00 AM";"09:00 - 09:59";"04195";"Station Lelylaan";"4.83460082";"52.35788018";"34"
"1/25/2021 12:00:00 AM";"09:00 - 09:59";"04196";"Station Lelylaan";"4.83382251";"52.35790351";"29"
"1/25/2021 12:00:00 AM";"09:00 - 09:59";"04407";"Ecuplein";"4.78817670";"52.34970912";"10"
"1/25/2021 12:00:00 AM";"09:00 - 09:59";"04409";"Baden Powellweg";"4.79441281";"52.35092691";"25"
"1/25/2021 12:00:00 AM";"09:00 - 09:59";"04411";"Hoekenes";"4.80183430";"52.35243785";"19"
"1/25/2021 12:00:00 AM";"09:00 - 09:59";"05011";"Centraal Station";"4.89921803";"52.37810793";"82"
"1/25/2021 12:00:00 AM";"09:00 - 09:59";"05022";"Centraal Station";"4.90104337";"52.37771998";"81"
"1/25/2021 12:00:00 AM";"09:00 - 09:59";"05031";"Dam";"4.89348394";"52.37341055";"15"
"1/25/2021 12:00:00 AM";"09:00 - 09:59";"05032";"Dam";"4.89549360";"52.37492885";"13"
"1/25/2021 12:00:00 AM";"09:00 - 09:59";"05035";"Rokin";"4.89210433";"52.36939627";"11"
"1/25/2021 12:00:00 AM";"09:00 - 09:59";"05036";"Rokin";"4.89230478";"52.36985548";"14"
"1/25/2021 12:00:00 AM";"09:00 - 09:59";"05047";"Rembrandtplein";"4.89702882";"52.36623511";"25"
"1/25/2021 12:00:00 AM";"09:00 - 09:59";"05061";"Spui";"4.88932991";"52.36933071";"10"
"1/25/2021 12:00:00 AM";"09:00 - 09:59";"05062";"Spui";"4.88925912";"52.36909673";"12"
"1/25/2021 12:00:00 AM";"09:00 - 09:59";"05063";"Dam";"4.89064590";"52.37244599";"17"
"1/25/2021 12:00:00 AM";"09:00 - 09:59";"05065";"Dam";"4.89079364";"52.37367792";"17"
"1/25/2021 12:00:00 AM";"09:00 - 09:59";"05066";"Dam";"4.89027056";"52.37318140";"26"
"1/25/2021 12:00:00 AM";"09:00 - 09:59";"05069";"Nieuwezijds Kolk";"4.89373093";"52.37628765";"18"
"1/25/2021 12:00:00 AM";"09:00 - 09:59";"05070";"Nieuwezijds Kolk";"4.89284106";"52.37575366";"13"
"1/25/2021 12:00:00 AM";"09:00 - 09:59";"05073";"Westermarkt";"4.88453426";"52.37400204";"21"
"1/25/2021 12:00:00 AM";"09:00 - 09:59";"05074";"Westermarkt";"4.88354950";"52.37407874";"35"
"1/25/2021 12:00:00 AM";"09:00 - 09:59";"05077";"Marnixstraat";"4.87615428";"52.37228546";"19"
"1/25/2021 12:00:00 AM";"09:00 - 09:59";"05080";"Buiten Oranjestraat";"4.88782167";"52.38330923";"18"
"1/25/2021 12:00:00 AM";"09:00 - 09:59";"05082";"Buiten Brouwersstraat";"4.89129168";"52.38167008";"11"
"1/25/2021 12:00:00 AM";"09:00 - 09:59";"05097";"Centraal Station";"4.90087651";"52.37954379";"27"
"1/25/2021 12:00:00 AM";"09:00 - 09:59";"05104";"Centraal Station";"4.90164343";"52.37925034";"16"
"1/25/2021 12:00:00 AM";"09:00 - 09:59";"06001";"Surinameplein";"4.85252231";"52.35807034";"15"
"1/25/2021 12:00:00 AM";"09:00 - 09:59";"06002";"Surinameplein";"4.85090753";"52.35807202";"21"
"1/25/2021 12:00:00 AM";"09:00 - 09:59";"06017";"J.P. Heijestraat";"4.86292317";"52.36487565";"17"
"1/25/2021 12:00:00 AM";"09:00 - 09:59";"06019";"Ten Katestraat";"4.86737423";"52.36591988";"24"
"1/25/2021 12:00:00 AM";"09:00 - 09:59";"06020";"Ten Katestraat";"4.86773990";"52.36603832";"44"
"1/25/2021 12:00:00 AM";"09:00 - 09:59";"06021";"Bilderdijkstraat";"4.87176488";"52.36712545";"26"
"1/25/2021 12:00:00 AM";"09:00 - 09:59";"06023";"Bilderdijkstraat";"4.87254032";"52.36736251";"17"
"1/25/2021 12:00:00 AM";"09:00 - 09:59";"06024";"Kinkerstraat";"4.87230885";"52.36706491";"10"
"1/25/2021 12:00:00 AM";"09:00 - 09:59";"06027";"Elandsgracht";"4.87855189";"52.36808953";"21"
"1/25/2021 12:00:00 AM";"09:00 - 09:59";"06028";"Elandsgracht";"4.87741694";"52.36974738";"28"
"1/25/2021 12:00:00 AM";"09:00 - 09:59";"06029";"Elandsgracht";"4.87684368";"52.36852258";"54"
"1/25/2021 12:00:00 AM";"09:00 - 09:59";"06030";"Rozengracht";"4.87590932";"52.37187996";"11"
"1/25/2021 12:00:00 AM";"09:00 - 09:59";"06037";"Bilderdijkstraat";"4.86985701";"52.37082906";"19"
"1/25/2021 12:00:00 AM";"09:00 - 09:59";"06043";"Overtoom";"4.87510145";"52.36299659";"10"
"1/25/2021 12:00:00 AM";"09:00 - 09:59";"06045";"1e Con. Huygensstraat";"4.87399228";"52.36242556";"17"
"1/25/2021 12:00:00 AM";"09:00 - 09:59";"06046";"1e Con. Huygensstraat";"4.87487082";"52.36262709";"23"
"1/25/2021 12:00:00 AM";"09:00 - 09:59";"06048";"J.P. Heijestraat";"4.86585368";"52.36037674";"16"
"1/25/2021 12:00:00 AM";"09:00 - 09:59";"06049";"J.P. Heijestraat";"4.86671778";"52.36055131";"12"
"1/25/2021 12:00:00 AM";"09:00 - 09:59";"06059";"Spiegelgracht";"4.88762090";"52.36071327";"12"
"1/25/2021 12:00:00 AM";"09:00 - 09:59";"06061";"Leidseplein";"4.88339576";"52.36305015";"35"
"1/25/2021 12:00:00 AM";"09:00 - 09:59";"06063";"Leidseplein";"4.88064547";"52.36476406";"25"
"1/25/2021 12:00:00 AM";"09:00 - 09:59";"06067";"Leidseplein";"4.88301434";"52.36431580";"11"
"1/25/2021 12:00:00 AM";"09:00 - 09:59";"06072";"Prinsengracht";"4.88428435";"52.36495933";"11"
"1/25/2021 12:00:00 AM";"09:00 - 09:59";"06074";"Keizersgracht";"4.88624128";"52.36588437";"11"
"1/25/2021 12:00:00 AM";"09:00 - 09:59";"06075";"Koningsplein";"4.88942793";"52.36713812";"11"
"1/25/2021 12:00:00 AM";"09:00 - 09:59";"06076";"Koningsplein";"4.88857910";"52.36689188";"24"
"1/25/2021 12:00:00 AM";"09:00 - 09:59";"06081";"Rhijnvis Feithstraat";"4.86039355";"52.35905833";"13"
"1/25/2021 12:00:00 AM";"09:00 - 09:59";"06089";"Leidseplein";"4.88085541";"52.36309324";"42"
"1/25/2021 12:00:00 AM";"09:00 - 09:59";"06114";"Hoofdweg";"4.85444451";"52.36425359";"12"
"1/25/2021 12:00:00 AM";"09:00 - 09:59";"07002";"Van Baerlestraat";"4.87836936";"52.35839997";"12"
"1/25/2021 12:00:00 AM";"09:00 - 09:59";"07003";"Van Baerlestraat";"4.87808541";"52.35883915";"12"
"1/25/2021 12:00:00 AM";"09:00 - 09:59";"07006";"Museumplein";"4.87980116";"52.35642881";"27"
"1/25/2021 12:00:00 AM";"09:00 - 09:59";"07007";"Museumplein";"4.87950215";"52.35690388";"70"
"1/25/2021 12:00:00 AM";"09:00 - 09:59";"07014";"Kastelenstraat";"4.87944660";"52.32583291";"10"
"1/25/2021 12:00:00 AM";"09:00 - 09:59";"07015";"Roelof Hartplein";"4.88206971";"52.35314900";"17"
"1/25/2021 12:00:00 AM";"09:00 - 09:59";"07016";"Roelof Hartplein";"4.88286688";"52.35274795";"40"
"1/25/2021 12:00:00 AM";"09:00 - 09:59";"07027";"Corn. Schuytstraat";"4.87051458";"52.35597520";"13"
"1/25/2021 12:00:00 AM";"09:00 - 09:59";"07028";"Corn. Schuytstraat";"4.87088070";"52.35604870";"13"
"1/25/2021 12:00:00 AM";"09:00 - 09:59";"07031";"Valeriusplein";"4.86374943";"52.35333004";"16"
"1/25/2021 12:00:00 AM";"09:00 - 09:59";"07032";"Valeriusplein";"4.86326678";"52.35318410";"17"
"1/25/2021 12:00:00 AM";"09:00 - 09:59";"07033";"Amstelveenseweg";"4.85695925";"52.35161911";"13"
"1/25/2021 12:00:00 AM";"09:00 - 09:59";"07048";"Hoofddorpplein";"4.85010578";"52.35154327";"12"
"1/25/2021 12:00:00 AM";"09:00 - 09:59";"07049";"Hoofddorpplein";"4.84958188";"52.35117239";"22"
"1/25/2021 12:00:00 AM";"09:00 - 09:59";"07050";"Haarlemmermeerstation";"4.85744749";"52.34883508";"13"
"1/25/2021 12:00:00 AM";"09:00 - 09:59";"07084";"Gerrit v.d. Veenstraat";"4.87720177";"52.34886793";"12"
"1/25/2021 12:00:00 AM";"09:00 - 09:59";"07097";"Olympiaplein";"4.86582821";"52.34630180";"12"
"1/25/2021 12:00:00 AM";"09:00 - 09:59";"07098";"Olympiaplein";"4.86659057";"52.34636807";"15"
"1/25/2021 12:00:00 AM";"09:00 - 09:59";"07187";"Pr. Irenestraat";"4.87678341";"52.34313193";"17"
"1/25/2021 12:00:00 AM";"09:00 - 09:59";"07193";"Station Zuid";"4.87334616";"52.34088808";"21"
"1/25/2021 12:00:00 AM";"09:00 - 09:59";"07269";"Station Zuid";"4.87374306";"52.34082689";"15"
"1/25/2021 12:00:00 AM";"09:00 - 09:59";"07303";"VU medisch centrum";"4.86097062";"52.33515342";"21"
"1/25/2021 12:00:00 AM";"09:00 - 09:59";"07321";"Van Baerlestraat";"4.87895796";"52.35827667";"18"
"1/25/2021 12:00:00 AM";"09:00 - 09:59";"07322";"Van Baerlestraat";"4.87971942";"52.35844171";"23"
"1/25/2021 12:00:00 AM";"09:00 - 09:59";"07323";"Rijksmuseum";"4.88355043";"52.35977029";"21"
"1/25/2021 12:00:00 AM";"09:00 - 09:59";"07324";"Rijksmuseum";"4.88332565";"52.36017378";"14"
"1/25/2021 12:00:00 AM";"09:00 - 09:59";"07419";"Van Boshuizenstraat";"4.86896941";"52.32487971";"46"
"1/25/2021 12:00:00 AM";"09:00 - 09:59";"07423";"Uilenstede";"4.86910951";"52.32167168";"20"
"1/25/2021 12:00:00 AM";"09:00 - 09:59";"07445";"Amstelveen Stadshart";"4.86751502";"52.30124433";"21"
"1/25/2021 12:00:00 AM";"09:00 - 09:59";"07448";"A.J. Ernststraat";"4.86887597";"52.33288743";"13"
"1/25/2021 12:00:00 AM";"09:00 - 09:59";"07449";"A.J. Ernststraat";"4.86879476";"52.33230287";"14"
"1/25/2021 12:00:00 AM";"09:00 - 09:59";"08007";"Bob Haarmslaan";"4.96921237";"52.36876786";"10"
"1/25/2021 12:00:00 AM";"09:00 - 09:59";"08014";"Azartplein";"4.93735640";"52.37682991";"10"
"1/25/2021 12:00:00 AM";"09:00 - 09:59";"08034";"P. Hendrikkade (uitstaphalte)";"4.90238928";"52.37685369";"11"
"1/25/2021 12:00:00 AM";"09:00 - 09:59";"08054";"Weesperplein";"4.90941338";"52.36145933";"18"
"1/25/2021 12:00:00 AM";"09:00 - 09:59";"08057";"Frederiksplein";"4.90024241";"52.35971430";"30"
"1/25/2021 12:00:00 AM";"09:00 - 09:59";"08058";"Veelaan";"4.93961588";"52.36830916";"22"
"1/25/2021 12:00:00 AM";"09:00 - 09:59";"08066";"Frederiksplein";"4.89751569";"52.35937050";"28"
"1/25/2021 12:00:00 AM";"09:00 - 09:59";"08072";"Vijzelgracht";"4.89159781";"52.35953462";"17"
"1/25/2021 12:00:00 AM";"09:00 - 09:59";"08073";"Vijzelgracht";"4.89227386";"52.35946554";"35"
"1/25/2021 12:00:00 AM";"09:00 - 09:59";"08080";"Spiegelgracht";"4.88691222";"52.36106979";"22"
"1/25/2021 12:00:00 AM";"09:00 - 09:59";"08098";"1e v.Swindenstraat";"4.92386708";"52.36210997";"16"
"1/25/2021 12:00:00 AM";"09:00 - 09:59";"08114";"Javaplein";"4.93955537";"52.36412066";"15"
"1/25/2021 12:00:00 AM";"09:00 - 09:59";"08120";"Insulindeweg";"4.94763926";"52.36469021";"21"
"1/25/2021 12:00:00 AM";"09:00 - 09:59";"08139";"Zuiderzeeweg";"4.96240105";"52.37166461";"10"
"1/25/2021 12:00:00 AM";"09:00 - 09:59";"08183";"Het Funen";"4.93160770";"52.36746073";"10"
"1/25/2021 12:00:00 AM";"09:00 - 09:59";"08195";"Oostenburgergracht";"4.92452709";"52.36780177";"10"
"1/25/2021 12:00:00 AM";"09:00 - 09:59";"08237";"Kattenburgerstraat";"4.92126795";"52.37614755";"21"
"1/25/2021 12:00:00 AM";"09:00 - 09:59";"08239";"Rietlandpark";"4.93413567";"52.37296191";"16"
"1/25/2021 12:00:00 AM";"09:00 - 09:59";"08241";"Zuiderzeeweg";"4.96185517";"52.37193228";"19"
"1/25/2021 12:00:00 AM";"09:00 - 09:59";"08245";"Steigereiland";"4.98012952";"52.36313467";"27"
"1/25/2021 12:00:00 AM";"09:00 - 09:59";"08247";"Vennepluimstraat";"4.99057242";"52.35769662";"22"
"1/25/2021 12:00:00 AM";"09:00 - 09:59";"08249";"Diemerparklaan";"4.99499716";"52.35532962";"23"
"1/25/2021 12:00:00 AM";"09:00 - 09:59";"08251";"Lumi?restraat";"4.99942127";"52.35298044";"15"
"1/25/2021 12:00:00 AM";"09:00 - 09:59";"08259";"1e Leeghwaterstraat";"4.93004964";"52.37047459";"12"
"1/25/2021 12:00:00 AM";"09:00 - 09:59";"08262";"IJburg";"5.00486802";"52.35112872";"48"
"1/25/2021 12:00:00 AM";"09:00 - 09:59";"08281";"Vennepluimstraat";"4.99139941";"52.35714215";"10"
"1/25/2021 12:00:00 AM";"09:00 - 09:59";"08300";"P.Oosterhuisstraat";"5.00693059";"52.35193526";"15"
"1/25/2021 12:00:00 AM";"09:00 - 09:59";"09049";"Victorieplein";"4.90570139";"52.34637186";"17"
"1/25/2021 12:00:00 AM";"09:00 - 09:59";"09051";"Victorieplein";"4.90653699";"52.34645615";"12"
"1/25/2021 12:00:00 AM";"09:00 - 09:59";"09069";"Maasstraat";"4.89684393";"52.34310889";"10"
"1/25/2021 12:00:00 AM";"09:00 - 09:59";"09096";"Van Woustraat";"4.90163035";"52.35495650";"12"
"1/25/2021 12:00:00 AM";"09:00 - 09:59";"09097";"Van Woustraat";"4.90084070";"52.35468363";"10"
"1/25/2021 12:00:00 AM";"09:00 - 09:59";"09111";"De Pijp";"4.89073444";"52.35272728";"20"
"1/25/2021 12:00:00 AM";"09:00 - 09:59";"09114";"De Pijp";"4.88948829";"52.35259622";"30"
"1/25/2021 12:00:00 AM";"09:00 - 09:59";"ASA";"Amstelstation";"4.91751426";"52.34647326";"202"
"1/25/2021 12:00:00 AM";"09:00 - 09:59";"ASW";"Amstelveenseweg";"4.85798324";"52.33836671";"195"
"1/25/2021 12:00:00 AM";"09:00 - 09:59";"BLW";"Bullewijk";"4.95233581";"52.30642205";"62"
"1/25/2021 12:00:00 AM";"09:00 - 09:59";"BMR";"Station Bijlmer ArenA";"4.94713474";"52.31193030";"264"
"1/25/2021 12:00:00 AM";"09:00 - 09:59";"CLL";"Station Lelylaan";"4.83426589";"52.35766291";"100"
"1/25/2021 12:00:00 AM";"09:00 - 09:59";"CS";"Centraal Station";"4.90078150";"52.37749421";"321"
"1/25/2021 12:00:00 AM";"09:00 - 09:59";"DMZ";"Station Diemen-Zuid";"4.95713273";"52.33042795";"41"
"1/25/2021 12:00:00 AM";"09:00 - 09:59";"DPP";"De Pijp";"4.89101069";"52.35296212";"157"
"1/25/2021 12:00:00 AM";"09:00 - 09:59";"DVD";"Station Duivendrecht";"4.93678429";"52.32325190";"49"
"1/25/2021 12:00:00 AM";"09:00 - 09:59";"EPP";"Europaplein";"4.89138430";"52.34185482";"141"
"1/25/2021 12:00:00 AM";"09:00 - 09:59";"GN";"Gein";"4.98952268";"52.29627089";"59"
"1/25/2021 12:00:00 AM";"09:00 - 09:59";"GPP";"Gaasperplas";"4.98468551";"52.31080575";"14"
"1/25/2021 12:00:00 AM";"09:00 - 09:59";"GZH";"Station Ganzenhoef";"4.97323379";"52.32331315";"45"
"1/25/2021 12:00:00 AM";"09:00 - 09:59";"HDS";"Heemstedestraat";"4.83421208";"52.35255760";"47"
"1/25/2021 12:00:00 AM";"09:00 - 09:59";"HLD";"Station Holendrecht";"4.96021904";"52.29780451";"198"
"1/25/2021 12:00:00 AM";"09:00 - 09:59";"HVW";"Henk Sneevlietweg";"4.83439318";"52.34626699";"125"
"1/25/2021 12:00:00 AM";"09:00 - 09:59";"ITW";"Isolatorweg";"4.85013475";"52.39523277";"89"
"1/25/2021 12:00:00 AM";"09:00 - 09:59";"JLS";"Jan v.Galenstraat";"4.83492461";"52.37196551";"145"
"1/25/2021 12:00:00 AM";"09:00 - 09:59";"KEN";"Kraaienneststation";"4.97963450";"52.31632492";"42"
"1/25/2021 12:00:00 AM";"09:00 - 09:59";"MDW";"Van der Madeweg";"4.93048657";"52.32945629";"67"
"1/25/2021 12:00:00 AM";"09:00 - 09:59";"ND";"Noord";"4.93123182";"52.40117202";"142"
"1/25/2021 12:00:00 AM";"09:00 - 09:59";"NDP";"Noorderpark";"4.91789115";"52.38855518";"118"
"1/25/2021 12:00:00 AM";"09:00 - 09:59";"NMT";"Nieuwmarkt";"4.90123885";"52.37194169";"55"
"1/25/2021 12:00:00 AM";"09:00 - 09:59";"OAS";"Overamstel";"4.91815361";"52.33179879";"36"
"1/25/2021 12:00:00 AM";"09:00 - 09:59";"PJW";"Postjesweg";"4.83385543";"52.36468044";"71"
"1/25/2021 12:00:00 AM";"09:00 - 09:59";"RAI";"Station RAI";"4.88982004";"52.33739931";"96"
"1/25/2021 12:00:00 AM";"09:00 - 09:59";"RGB";"Reigersbos";"4.97473728";"52.29566301";"65"
"1/25/2021 12:00:00 AM";"09:00 - 09:59";"RKN";"Rokin";"4.89229651";"52.36928023";"247"
"1/25/2021 12:00:00 AM";"09:00 - 09:59";"SLW";"Spaklerweg";"4.92085640";"52.33986250";"61"
"1/25/2021 12:00:00 AM";"09:00 - 09:59";"STD";"Station Sloterdijk";"4.83878389";"52.38880848";"131"
"1/25/2021 12:00:00 AM";"09:00 - 09:59";"SVT";"Strandvliet";"4.94152820";"52.31825469";"38"
"1/25/2021 12:00:00 AM";"09:00 - 09:59";"VLN";"Burg.de Vlugtlaan";"4.83809109";"52.37951196";"50"
"1/25/2021 12:00:00 AM";"09:00 - 09:59";"VPD";"Venserpolder";"4.94665009";"52.32679428";"36"
"1/25/2021 12:00:00 AM";"09:00 - 09:59";"VSW";"Verrijn Stuartweg";"4.96693669";"52.32844093";"34"
"1/25/2021 12:00:00 AM";"09:00 - 09:59";"VZG";"Vijzelgracht";"4.89072870";"52.35980061";"110"
"1/25/2021 12:00:00 AM";"09:00 - 09:59";"WBS";"Wibautstraat";"4.91202993";"52.35428867";"134"
"1/25/2021 12:00:00 AM";"09:00 - 09:59";"WLP";"Waterlooplein";"4.90298171";"52.36697862";"217"
"1/25/2021 12:00:00 AM";"09:00 - 09:59";"WPP";"Weesperplein";"4.90787469";"52.36120146";"151"
"1/25/2021 12:00:00 AM";"09:00 - 09:59";"WTC";"Station Zuid";"4.87509853";"52.33908015";"443"
"1/25/2021 12:00:00 AM";"10:00 - 10:59";"";"Overig";"";"";"2324"
"1/25/2021 12:00:00 AM";"10:00 - 10:59";"[[ Onb";"[[ Onbekend ]]";"0.00000000";"0.00000000";"198"
"1/25/2021 12:00:00 AM";"10:00 - 10:59";"00001";"Muiderpoortstation";"4.93287450";"52.36132700";"20"
"1/25/2021 12:00:00 AM";"10:00 - 10:59";"00007";"Muiderpoortstation";"4.93356602";"52.36117686";"13"
"1/25/2021 12:00:00 AM";"10:00 - 10:59";"00020";"Beukenweg";"4.91674979";"52.35906203";"26"
"1/25/2021 12:00:00 AM";"10:00 - 10:59";"00021";"Beukenweg";"4.91721293";"52.35829991";"29"
"1/25/2021 12:00:00 AM";"10:00 - 10:59";"00029";"Oostpoort";"4.92719316";"52.35707185";"19"
"1/25/2021 12:00:00 AM";"10:00 - 10:59";"00030";"Oostpoort";"4.92694026";"52.35739442";"32"
"1/25/2021 12:00:00 AM";"10:00 - 10:59";"00059";"Radioweg";"4.93945830";"52.35337100";"20"
"1/25/2021 12:00:00 AM";"10:00 - 10:59";"00060";"Radioweg";"4.93979325";"52.35363291";"11"
"1/25/2021 12:00:00 AM";"10:00 - 10:59";"00070";"Kruislaan";"4.93993910";"52.34789929";"11"
"1/25/2021 12:00:00 AM";"10:00 - 10:59";"00074";"Brinkstraat";"4.94797289";"52.34285131";"15"
"1/25/2021 12:00:00 AM";"10:00 - 10:59";"00116";"Station Ganzenhoef";"4.97272915";"52.32237665";"10"
"1/25/2021 12:00:00 AM";"10:00 - 10:59";"00141";"Kraaienneststation";"4.97868390";"52.31603403";"18"
"1/25/2021 12:00:00 AM";"10:00 - 10:59";"00150";"Tulastraat";"4.96535973";"52.31994189";"17"
"1/25/2021 12:00:00 AM";"10:00 - 10:59";"00197";"Annie Romeinplein";"4.97162041";"52.32173463";"12"
"1/25/2021 12:00:00 AM";"10:00 - 10:59";"00238";"Anton de Komplein";"4.95413359";"52.31603659";"21"
"1/25/2021 12:00:00 AM";"10:00 - 10:59";"00239";"Anton de Komplein";"4.95597669";"52.31652866";"10"
"1/25/2021 12:00:00 AM";"10:00 - 10:59";"00432";"Diemerbrug";"4.96142958";"52.33824484";"22"
"1/25/2021 12:00:00 AM";"10:00 - 10:59";"00434";"Bijlmerplein";"4.95032022";"52.31457553";"12"
"1/25/2021 12:00:00 AM";"10:00 - 10:59";"00441";"Muiderpoortstation";"4.93254137";"52.36088532";"16"
"1/25/2021 12:00:00 AM";"10:00 - 10:59";"00444";"Linnaeusstraat";"4.92490296";"52.35991203";"22"
"1/25/2021 12:00:00 AM";"10:00 - 10:59";"00491";"Science Park Aer";"4.95218495";"52.35478458";"11"
"1/25/2021 12:00:00 AM";"10:00 - 10:59";"00518";"Foppingadreef";"4.94967889";"52.31268573";"10"
"1/25/2021 12:00:00 AM";"10:00 - 10:59";"00561";"Station Bijlmer ArenA";"4.94741931";"52.31132918";"15"
"1/25/2021 12:00:00 AM";"10:00 - 10:59";"01076";"Waterlandplein";"4.95247364";"52.39274059";"11"
"1/25/2021 12:00:00 AM";"10:00 - 10:59";"01278";"Statenjachtstraat";"4.91380643";"52.40790731";"13"
"1/25/2021 12:00:00 AM";"10:00 - 10:59";"01305";"Station Noord";"4.93215715";"52.40264056";"15"
"1/25/2021 12:00:00 AM";"10:00 - 10:59";"01352";"Oosterlengte";"4.92206974";"52.40611555";"10"
"1/25/2021 12:00:00 AM";"10:00 - 10:59";"01364";"Buikslotermeerplein";"4.93887054";"52.39992493";"11"
"1/25/2021 12:00:00 AM";"10:00 - 10:59";"01443";"Volendammerweg";"4.95697086";"52.39255928";"14"
"1/25/2021 12:00:00 AM";"10:00 - 10:59";"02113";"Haarlemmerplein";"4.88371739";"52.38516129";"22"
"1/25/2021 12:00:00 AM";"10:00 - 10:59";"02114";"Haarlemmerplein";"4.88341252";"52.38484542";"16"
"1/25/2021 12:00:00 AM";"10:00 - 10:59";"02130";"Hugo de Grootplein";"4.87259092";"52.37439113";"10"
"1/25/2021 12:00:00 AM";"10:00 - 10:59";"02156";"Willem de Zwijgerlaan";"4.86425293";"52.37039101";"10"
"1/25/2021 12:00:00 AM";"10:00 - 10:59";"02158";"Adm. de Ruijterweg";"4.86096776";"52.37129320";"17"
"1/25/2021 12:00:00 AM";"10:00 - 10:59";"02167";"Bos en Lommerweg";"4.85380049";"52.38118358";"14"
"1/25/2021 12:00:00 AM";"10:00 - 10:59";"02177";"Bos en Lommerweg";"4.85521256";"52.38101018";"14"
"1/25/2021 12:00:00 AM";"10:00 - 10:59";"02182";"Markthallen";"4.86695146";"52.37567869";"10"
"1/25/2021 12:00:00 AM";"10:00 - 10:59";"02301";"Fred. Hendrikplants.";"4.87521585";"52.37852787";"10"
"1/25/2021 12:00:00 AM";"10:00 - 10:59";"02321";"Van Hallstraat";"4.86864429";"52.38538386";"10"
"1/25/2021 12:00:00 AM";"10:00 - 10:59";"02361";"Station Sloterdijk";"4.83931858";"52.38833460";"33"
"1/25/2021 12:00:00 AM";"10:00 - 10:59";"02378";"Station Sloterdijk";"4.83809796";"52.38844579";"30"
"1/25/2021 12:00:00 AM";"10:00 - 10:59";"03009";"Witte de Withstraat";"4.85851970";"52.36478416";"18"
"1/25/2021 12:00:00 AM";"10:00 - 10:59";"03010";"Witte de Withstraat";"4.85928290";"52.36480554";"12"
"1/25/2021 12:00:00 AM";"10:00 - 10:59";"03034";"Erasmusgracht";"4.84691117";"52.37644278";"15"
"1/25/2021 12:00:00 AM";"10:00 - 10:59";"03052";"Burg. Eliasstraat";"4.82565009";"52.38077481";"11"
"1/25/2021 12:00:00 AM";"10:00 - 10:59";"03055";"Burg. Fockstraat";"4.83108040";"52.37991964";"12"
"1/25/2021 12:00:00 AM";"10:00 - 10:59";"03061";"Bos en Lommerplein";"4.84523530";"52.37778328";"28"
"1/25/2021 12:00:00 AM";"10:00 - 10:59";"03076";"Jan Tooropstraat";"4.83810313";"52.37142305";"15"
"1/25/2021 12:00:00 AM";"10:00 - 10:59";"03087";"Plein '40 - '45";"4.82063128";"52.38159575";"18"
"1/25/2021 12:00:00 AM";"10:00 - 10:59";"03101";"Lambertus Zijlplein";"4.80300456";"52.37726788";"13"
"1/25/2021 12:00:00 AM";"10:00 - 10:59";"03129";"Plein '40 - '45";"4.82112672";"52.38075328";"18"
"1/25/2021 12:00:00 AM";"10:00 - 10:59";"03135";"Ookmeerweg";"4.80431836";"52.36558127";"12"
"1/25/2021 12:00:00 AM";"10:00 - 10:59";"03145";"J. Cabeliaustraat";"4.80409638";"52.38246819";"10"
"1/25/2021 12:00:00 AM";"10:00 - 10:59";"03157";"Lambertus Zijlplein";"4.80338637";"52.37726977";"11"
"1/25/2021 12:00:00 AM";"10:00 - 10:59";"03167";"Bos en Lommerplein";"4.84650668";"52.37709704";"14"
"1/25/2021 12:00:00 AM";"10:00 - 10:59";"03181";"Jan Voermanstraat";"4.83788946";"52.36970540";"13"
"1/25/2021 12:00:00 AM";"10:00 - 10:59";"04008";"Dijkgraafplein";"4.78646982";"52.35545267";"10"
"1/25/2021 12:00:00 AM";"10:00 - 10:59";"04012";"Baden Powellweg";"4.79137362";"52.35646612";"17"
"1/25/2021 12:00:00 AM";"10:00 - 10:59";"04016";"Hoekenes";"4.79854723";"52.35791310";"11"
"1/25/2021 12:00:00 AM";"10:00 - 10:59";"04021";"Osdorpplein West";"4.80322869";"52.35913166";"17"
"1/25/2021 12:00:00 AM";"10:00 - 10:59";"04050";"Meer en Vaart";"4.80994403";"52.35636940";"26"
"1/25/2021 12:00:00 AM";"10:00 - 10:59";"04063";"Johan Huizingalaan";"4.82626398";"52.35778704";"11"
"1/25/2021 12:00:00 AM";"10:00 - 10:59";"04065";"Osdorpplein Oost";"4.80773259";"52.35935153";"17"
"1/25/2021 12:00:00 AM";"10:00 - 10:59";"04088";"Louwesweg";"4.82436420";"52.34669608";"11"
"1/25/2021 12:00:00 AM";"10:00 - 10:59";"04112";"Johan Huizingalaan";"4.82742878";"52.34923618";"11"
"1/25/2021 12:00:00 AM";"10:00 - 10:59";"04148";"Louis Davidsstraat";"4.80952552";"52.35356316";"12"
"1/25/2021 12:00:00 AM";"10:00 - 10:59";"04195";"Station Lelylaan";"4.83460082";"52.35788018";"30"
"1/25/2021 12:00:00 AM";"10:00 - 10:59";"04196";"Station Lelylaan";"4.83382251";"52.35790351";"25"
"1/25/2021 12:00:00 AM";"10:00 - 10:59";"04379";"Knooppunt Schiphol Nrd";"4.79320459";"52.32276196";"15"
"1/25/2021 12:00:00 AM";"10:00 - 10:59";"04407";"Ecuplein";"4.78817670";"52.34970912";"10"
"1/25/2021 12:00:00 AM";"10:00 - 10:59";"04409";"Baden Powellweg";"4.79441281";"52.35092691";"16"
"1/25/2021 12:00:00 AM";"10:00 - 10:59";"04411";"Hoekenes";"4.80183430";"52.35243785";"10"
"1/25/2021 12:00:00 AM";"10:00 - 10:59";"04413";"Louis Davidsstraat";"4.80850916";"52.35383682";"24"
"1/25/2021 12:00:00 AM";"10:00 - 10:59";"05011";"Centraal Station";"4.89921803";"52.37810793";"77"
"1/25/2021 12:00:00 AM";"10:00 - 10:59";"05022";"Centraal Station";"4.90104337";"52.37771998";"75"
"1/25/2021 12:00:00 AM";"10:00 - 10:59";"05031";"Dam";"4.89348394";"52.37341055";"11"
"1/25/2021 12:00:00 AM";"10:00 - 10:59";"05063";"Dam";"4.89064590";"52.37244599";"15"
"1/25/2021 12:00:00 AM";"10:00 - 10:59";"05065";"Dam";"4.89079364";"52.37367792";"21"
"1/25/2021 12:00:00 AM";"10:00 - 10:59";"05066";"Dam";"4.89027056";"52.37318140";"23"
"1/25/2021 12:00:00 AM";"10:00 - 10:59";"05069";"Nieuwezijds Kolk";"4.89373093";"52.37628765";"15"
"1/25/2021 12:00:00 AM";"10:00 - 10:59";"05073";"Westermarkt";"4.88453426";"52.37400204";"13"
"1/25/2021 12:00:00 AM";"10:00 - 10:59";"05074";"Westermarkt";"4.88354950";"52.37407874";"30"
"1/25/2021 12:00:00 AM";"10:00 - 10:59";"05097";"Centraal Station";"4.90087651";"52.37954379";"25"
"1/25/2021 12:00:00 AM";"10:00 - 10:59";"05101";"Centraal Station";"4.90105195";"52.37961641";"18"
"1/25/2021 12:00:00 AM";"10:00 - 10:59";"05103";"Centraal Station";"4.90127481";"52.37938365";"23"
"1/25/2021 12:00:00 AM";"10:00 - 10:59";"06001";"Surinameplein";"4.85252231";"52.35807034";"21"
"1/25/2021 12:00:00 AM";"10:00 - 10:59";"06002";"Surinameplein";"4.85090753";"52.35807202";"15"
"1/25/2021 12:00:00 AM";"10:00 - 10:59";"06016";"J.P. Heijestraat";"4.86239635";"52.36472951";"11"
"1/25/2021 12:00:00 AM";"10:00 - 10:59";"06017";"J.P. Heijestraat";"4.86292317";"52.36487565";"14"
"1/25/2021 12:00:00 AM";"10:00 - 10:59";"06019";"Ten Katestraat";"4.86737423";"52.36591988";"24"
"1/25/2021 12:00:00 AM";"10:00 - 10:59";"06020";"Ten Katestraat";"4.86773990";"52.36603832";"25"
"1/25/2021 12:00:00 AM";"10:00 - 10:59";"06021";"Bilderdijkstraat";"4.87176488";"52.36712545";"13"
"1/25/2021 12:00:00 AM";"10:00 - 10:59";"06023";"Bilderdijkstraat";"4.87254032";"52.36736251";"15"
"1/25/2021 12:00:00 AM";"10:00 - 10:59";"06024";"Kinkerstraat";"4.87230885";"52.36706491";"13"
"1/25/2021 12:00:00 AM";"10:00 - 10:59";"06027";"Elandsgracht";"4.87855189";"52.36808953";"13"
"1/25/2021 12:00:00 AM";"10:00 - 10:59";"06028";"Elandsgracht";"4.87741694";"52.36974738";"19"
"1/25/2021 12:00:00 AM";"10:00 - 10:59";"06029";"Elandsgracht";"4.87684368";"52.36852258";"21"
"1/25/2021 12:00:00 AM";"10:00 - 10:59";"06030";"Rozengracht";"4.87590932";"52.37187996";"14"
"1/25/2021 12:00:00 AM";"10:00 - 10:59";"06034";"Bilderdijkstraat";"4.87082347";"52.37105798";"12"
"1/25/2021 12:00:00 AM";"10:00 - 10:59";"06037";"Bilderdijkstraat";"4.86985701";"52.37082906";"15"
"1/25/2021 12:00:00 AM";"10:00 - 10:59";"06044";"Overtoom";"4.87483191";"52.36345380";"11"
"1/25/2021 12:00:00 AM";"10:00 - 10:59";"06045";"1e Con. Huygensstraat";"4.87399228";"52.36242556";"10"
"1/25/2021 12:00:00 AM";"10:00 - 10:59";"06046";"1e Con. Huygensstraat";"4.87487082";"52.36262709";"11"
"1/25/2021 12:00:00 AM";"10:00 - 10:59";"06048";"J.P. Heijestraat";"4.86585368";"52.36037674";"16"
"1/25/2021 12:00:00 AM";"10:00 - 10:59";"06061";"Leidseplein";"4.88339576";"52.36305015";"24"
"1/25/2021 12:00:00 AM";"10:00 - 10:59";"06063";"Leidseplein";"4.88064547";"52.36476406";"22"
"1/25/2021 12:00:00 AM";"10:00 - 10:59";"06072";"Prinsengracht";"4.88428435";"52.36495933";"15"
"1/25/2021 12:00:00 AM";"10:00 - 10:59";"06075";"Koningsplein";"4.88942793";"52.36713812";"11"
"1/25/2021 12:00:00 AM";"10:00 - 10:59";"06076";"Koningsplein";"4.88857910";"52.36689188";"20"
"1/25/2021 12:00:00 AM";"10:00 - 10:59";"06081";"Rhijnvis Feithstraat";"4.86039355";"52.35905833";"13"
"1/25/2021 12:00:00 AM";"10:00 - 10:59";"06089";"Leidseplein";"4.88085541";"52.36309324";"26"
"1/25/2021 12:00:00 AM";"10:00 - 10:59";"06114";"Hoofdweg";"4.85444451";"52.36425359";"13"
"1/25/2021 12:00:00 AM";"10:00 - 10:59";"06115";"Postjesweg";"4.85319014";"52.36478720";"13"
"1/25/2021 12:00:00 AM";"10:00 - 10:59";"07004";"De Boelelaan/VU";"4.86586883";"52.33534587";"10"
"1/25/2021 12:00:00 AM";"10:00 - 10:59";"07006";"Museumplein";"4.87980116";"52.35642881";"21"
"1/25/2021 12:00:00 AM";"10:00 - 10:59";"07007";"Museumplein";"4.87950215";"52.35690388";"37"
"1/25/2021 12:00:00 AM";"10:00 - 10:59";"07014";"Kastelenstraat";"4.87944660";"52.32583291";"12"
"1/25/2021 12:00:00 AM";"10:00 - 10:59";"07016";"Roelof Hartplein";"4.88286688";"52.35274795";"26"
"1/25/2021 12:00:00 AM";"10:00 - 10:59";"07017";"Roelof Hartplein";"4.88206086";"52.35263666";"11"
"1/25/2021 12:00:00 AM";"10:00 - 10:59";"07031";"Valeriusplein";"4.86374943";"52.35333004";"13"
"1/25/2021 12:00:00 AM";"10:00 - 10:59";"07034";"Amstelveenseweg";"4.85596467";"52.35132704";"10"
"1/25/2021 12:00:00 AM";"10:00 - 10:59";"07048";"Hoofddorpplein";"4.85010578";"52.35154327";"10"
"1/25/2021 12:00:00 AM";"10:00 - 10:59";"07049";"Hoofddorpplein";"4.84958188";"52.35117239";"16"
"1/25/2021 12:00:00 AM";"10:00 - 10:59";"07084";"Gerrit v.d. Veenstraat";"4.87720177";"52.34886793";"14"
"1/25/2021 12:00:00 AM";"10:00 - 10:59";"07088";"Stadionweg";"4.87687497";"52.34665553";"10"
"1/25/2021 12:00:00 AM";"10:00 - 10:59";"07097";"Olympiaplein";"4.86582821";"52.34630180";"14"
"1/25/2021 12:00:00 AM";"10:00 - 10:59";"07098";"Olympiaplein";"4.86659057";"52.34636807";"10"
"1/25/2021 12:00:00 AM";"10:00 - 10:59";"07187";"Pr. Irenestraat";"4.87678341";"52.34313193";"10"
"1/25/2021 12:00:00 AM";"10:00 - 10:59";"07193";"Station Zuid";"4.87334616";"52.34088808";"12"
"1/25/2021 12:00:00 AM";"10:00 - 10:59";"07269";"Station Zuid";"4.87374306";"52.34082689";"29"
"1/25/2021 12:00:00 AM";"10:00 - 10:59";"07303";"VU medisch centrum";"4.86097062";"52.33515342";"17"
"1/25/2021 12:00:00 AM";"10:00 - 10:59";"07321";"Van Baerlestraat";"4.87895796";"52.35827667";"11"
"1/25/2021 12:00:00 AM";"10:00 - 10:59";"07322";"Van Baerlestraat";"4.87971942";"52.35844171";"19"
"1/25/2021 12:00:00 AM";"10:00 - 10:59";"07323";"Rijksmuseum";"4.88355043";"52.35977029";"14"
"1/25/2021 12:00:00 AM";"10:00 - 10:59";"07419";"Van Boshuizenstraat";"4.86896941";"52.32487971";"25"
"1/25/2021 12:00:00 AM";"10:00 - 10:59";"07423";"Uilenstede";"4.86910951";"52.32167168";"12"
"1/25/2021 12:00:00 AM";"10:00 - 10:59";"08014";"Azartplein";"4.93735640";"52.37682991";"11"
"1/25/2021 12:00:00 AM";"10:00 - 10:59";"08034";"P. Hendrikkade (uitstaphalte)";"4.90238928";"52.37685369";"10"
"1/25/2021 12:00:00 AM";"10:00 - 10:59";"08051";"K. 's-Gravesandestr.";"4.91366120";"52.36235720";"15"
"1/25/2021 12:00:00 AM";"10:00 - 10:59";"08054";"Weesperplein";"4.90941338";"52.36145933";"17"
"1/25/2021 12:00:00 AM";"10:00 - 10:59";"08057";"Frederiksplein";"4.90024241";"52.35971430";"25"
"1/25/2021 12:00:00 AM";"10:00 - 10:59";"08072";"Vijzelgracht";"4.89159781";"52.35953462";"11"
"1/25/2021 12:00:00 AM";"10:00 - 10:59";"08080";"Spiegelgracht";"4.88691222";"52.36106979";"15"
"1/25/2021 12:00:00 AM";"10:00 - 10:59";"08098";"1e v.Swindenstraat";"4.92386708";"52.36210997";"11"
"1/25/2021 12:00:00 AM";"10:00 - 10:59";"08114";"Javaplein";"4.93955537";"52.36412066";"11"
"1/25/2021 12:00:00 AM";"10:00 - 10:59";"08120";"Insulindeweg";"4.94763926";"52.36469021";"11"
"1/25/2021 12:00:00 AM";"10:00 - 10:59";"08124";"Soembawastraat";"4.94346569";"52.36214910";"10"
"1/25/2021 12:00:00 AM";"10:00 - 10:59";"08238";"Rietlandpark";"4.93350159";"52.37322013";"22"
"1/25/2021 12:00:00 AM";"10:00 - 10:59";"08239";"Rietlandpark";"4.93413567";"52.37296191";"10"
"1/25/2021 12:00:00 AM";"10:00 - 10:59";"08241";"Zuiderzeeweg";"4.96185517";"52.37193228";"24"
"1/25/2021 12:00:00 AM";"10:00 - 10:59";"08245";"Steigereiland";"4.98012952";"52.36313467";"14"
"1/25/2021 12:00:00 AM";"10:00 - 10:59";"08247";"Vennepluimstraat";"4.99057242";"52.35769662";"20"
"1/25/2021 12:00:00 AM";"10:00 - 10:59";"08249";"Diemerparklaan";"4.99499716";"52.35532962";"13"
"1/25/2021 12:00:00 AM";"10:00 - 10:59";"08251";"Lumi?restraat";"4.99942127";"52.35298044";"10"
"1/25/2021 12:00:00 AM";"10:00 - 10:59";"08255";"Hoogte Kadijk";"4.92483038";"52.36687722";"12"
"1/25/2021 12:00:00 AM";"10:00 - 10:59";"08262";"IJburg";"5.00486802";"52.35112872";"32"
"1/25/2021 12:00:00 AM";"10:00 - 10:59";"08291";"Molukkenstraat";"4.94100274";"52.36180730";"10"
"1/25/2021 12:00:00 AM";"10:00 - 10:59";"09013";"Amstelstation";"4.91790223";"52.34725673";"16"
"1/25/2021 12:00:00 AM";"10:00 - 10:59";"09049";"Victorieplein";"4.90570139";"52.34637186";"13"
"1/25/2021 12:00:00 AM";"10:00 - 10:59";"09096";"Van Woustraat";"4.90163035";"52.35495650";"13"
"1/25/2021 12:00:00 AM";"10:00 - 10:59";"09097";"Van Woustraat";"4.90084070";"52.35468363";"15"
"1/25/2021 12:00:00 AM";"10:00 - 10:59";"09109";"2e v.d.Helststraat";"4.89488170";"52.35331982";"17"
"1/25/2021 12:00:00 AM";"10:00 - 10:59";"09111";"De Pijp";"4.89073444";"52.35272728";"23"
"1/25/2021 12:00:00 AM";"10:00 - 10:59";"09114";"De Pijp";"4.88948829";"52.35259622";"26"
"1/25/2021 12:00:00 AM";"10:00 - 10:59";"ASA";"Amstelstation";"4.91751426";"52.34647326";"164"
"1/25/2021 12:00:00 AM";"10:00 - 10:59";"ASW";"Amstelveenseweg";"4.85798324";"52.33836671";"114"
"1/25/2021 12:00:00 AM";"10:00 - 10:59";"BLW";"Bullewijk";"4.95233581";"52.30642205";"53"
"1/25/2021 12:00:00 AM";"10:00 - 10:59";"BMR";"Station Bijlmer ArenA";"4.94713474";"52.31193030";"125"
"1/25/2021 12:00:00 AM";"10:00 - 10:59";"CLL";"Station Lelylaan";"4.83426589";"52.35766291";"68"
"1/25/2021 12:00:00 AM";"10:00 - 10:59";"CS";"Centraal Station";"4.90078150";"52.37749421";"323"
"1/25/2021 12:00:00 AM";"10:00 - 10:59";"DMZ";"Station Diemen-Zuid";"4.95713273";"52.33042795";"26"
"1/25/2021 12:00:00 AM";"10:00 - 10:59";"DPP";"De Pijp";"4.89101069";"52.35296212";"128"
"1/25/2021 12:00:00 AM";"10:00 - 10:59";"DVD";"Station Duivendrecht";"4.93678429";"52.32325190";"43"
"1/25/2021 12:00:00 AM";"10:00 - 10:59";"EPP";"Europaplein";"4.89138430";"52.34185482";"69"
"1/25/2021 12:00:00 AM";"10:00 - 10:59";"GN";"Gein";"4.98952268";"52.29627089";"39"
"1/25/2021 12:00:00 AM";"10:00 - 10:59";"GPP";"Gaasperplas";"4.98468551";"52.31080575";"18"
"1/25/2021 12:00:00 AM";"10:00 - 10:59";"GZH";"Station Ganzenhoef";"4.97323379";"52.32331315";"53"
"1/25/2021 12:00:00 AM";"10:00 - 10:59";"HDS";"Heemstedestraat";"4.83421208";"52.35255760";"32"
"1/25/2021 12:00:00 AM";"10:00 - 10:59";"HLD";"Station Holendrecht";"4.96021904";"52.29780451";"153"
"1/25/2021 12:00:00 AM";"10:00 - 10:59";"HVW";"Henk Sneevlietweg";"4.83439318";"52.34626699";"65"
"1/25/2021 12:00:00 AM";"10:00 - 10:59";"ITW";"Isolatorweg";"4.85013475";"52.39523277";"22"
"1/25/2021 12:00:00 AM";"10:00 - 10:59";"JLS";"Jan v.Galenstraat";"4.83492461";"52.37196551";"67"
"1/25/2021 12:00:00 AM";"10:00 - 10:59";"KEN";"Kraaienneststation";"4.97963450";"52.31632492";"54"
"1/25/2021 12:00:00 AM";"10:00 - 10:59";"MDW";"Van der Madeweg";"4.93048657";"52.32945629";"31"
"1/25/2021 12:00:00 AM";"10:00 - 10:59";"ND";"Noord";"4.93123182";"52.40117202";"144"
"1/25/2021 12:00:00 AM";"10:00 - 10:59";"NDP";"Noorderpark";"4.91789115";"52.38855518";"109"
"1/25/2021 12:00:00 AM";"10:00 - 10:59";"NMT";"Nieuwmarkt";"4.90123885";"52.37194169";"61"
"1/25/2021 12:00:00 AM";"10:00 - 10:59";"OAS";"Overamstel";"4.91815361";"52.33179879";"22"
"1/25/2021 12:00:00 AM";"10:00 - 10:59";"PJW";"Postjesweg";"4.83385543";"52.36468044";"49"
"1/25/2021 12:00:00 AM";"10:00 - 10:59";"RAI";"Station RAI";"4.88982004";"52.33739931";"59"
"1/25/2021 12:00:00 AM";"10:00 - 10:59";"RGB";"Reigersbos";"4.97473728";"52.29566301";"60"
"1/25/2021 12:00:00 AM";"10:00 - 10:59";"RKN";"Rokin";"4.89229651";"52.36928023";"154"
"1/25/2021 12:00:00 AM";"10:00 - 10:59";"SLW";"Spaklerweg";"4.92085640";"52.33986250";"48"
"1/25/2021 12:00:00 AM";"10:00 - 10:59";"STD";"Station Sloterdijk";"4.83878389";"52.38880848";"88"
"1/25/2021 12:00:00 AM";"10:00 - 10:59";"SVT";"Strandvliet";"4.94152820";"52.31825469";"29"
"1/25/2021 12:00:00 AM";"10:00 - 10:59";"VLN";"Burg.de Vlugtlaan";"4.83809109";"52.37951196";"40"
"1/25/2021 12:00:00 AM";"10:00 - 10:59";"VPD";"Venserpolder";"4.94665009";"52.32679428";"15"
"1/25/2021 12:00:00 AM";"10:00 - 10:59";"VSW";"Verrijn Stuartweg";"4.96693669";"52.32844093";"10"
"1/25/2021 12:00:00 AM";"10:00 - 10:59";"VZG";"Vijzelgracht";"4.89072870";"52.35980061";"77"
"1/25/2021 12:00:00 AM";"10:00 - 10:59";"WBS";"Wibautstraat";"4.91202993";"52.35428867";"101"
"1/25/2021 12:00:00 AM";"10:00 - 10:59";"WLP";"Waterlooplein";"4.90298171";"52.36697862";"100"
"1/25/2021 12:00:00 AM";"10:00 - 10:59";"WPP";"Weesperplein";"4.90787469";"52.36120146";"94"
"1/25/2021 12:00:00 AM";"10:00 - 10:59";"WTC";"Station Zuid";"4.87509853";"52.33908015";"324"
"1/25/2021 12:00:00 AM";"11:00 - 11:59";"";"Overig";"";"";"2235"
"1/25/2021 12:00:00 AM";"11:00 - 11:59";"[[ Onb";"[[ Onbekend ]]";"0.00000000";"0.00000000";"209"
"1/25/2021 12:00:00 AM";"11:00 - 11:59";"00007";"Muiderpoortstation";"4.93356602";"52.36117686";"22"
"1/25/2021 12:00:00 AM";"11:00 - 11:59";"00014";"Wijttenbachstraat";"4.92507537";"52.36027221";"10"
"1/25/2021 12:00:00 AM";"11:00 - 11:59";"00020";"Beukenweg";"4.91674979";"52.35906203";"24"
"1/25/2021 12:00:00 AM";"11:00 - 11:59";"00021";"Beukenweg";"4.91721293";"52.35829991";"21"
"1/25/2021 12:00:00 AM";"11:00 - 11:59";"00029";"Oostpoort";"4.92719316";"52.35707185";"18"
"1/25/2021 12:00:00 AM";"11:00 - 11:59";"00030";"Oostpoort";"4.92694026";"52.35739442";"17"
"1/25/2021 12:00:00 AM";"11:00 - 11:59";"00116";"Station Ganzenhoef";"4.97272915";"52.32237665";"22"
"1/25/2021 12:00:00 AM";"11:00 - 11:59";"00141";"Kraaienneststation";"4.97868390";"52.31603403";"16"
"1/25/2021 12:00:00 AM";"11:00 - 11:59";"00150";"Tulastraat";"4.96535973";"52.31994189";"19"
"1/25/2021 12:00:00 AM";"11:00 - 11:59";"00151";"Tulastraat";"4.96584458";"52.31985374";"23"
"1/25/2021 12:00:00 AM";"11:00 - 11:59";"00153";"Florijn";"4.95971907";"52.31778255";"16"
"1/25/2021 12:00:00 AM";"11:00 - 11:59";"00172";"Holendrechtplein";"4.96402882";"52.29952588";"13"
"1/25/2021 12:00:00 AM";"11:00 - 11:59";"00197";"Annie Romeinplein";"4.97162041";"52.32173463";"22"
"1/25/2021 12:00:00 AM";"11:00 - 11:59";"00238";"Anton de Komplein";"4.95413359";"52.31603659";"36"
"1/25/2021 12:00:00 AM";"11:00 - 11:59";"00239";"Anton de Komplein";"4.95597669";"52.31652866";"25"
"1/25/2021 12:00:00 AM";"11:00 - 11:59";"00351";"Dostojevskisingel";"4.94525272";"52.32275356";"15"
"1/25/2021 12:00:00 AM";"11:00 - 11:59";"00432";"Diemerbrug";"4.96142958";"52.33824484";"11"
"1/25/2021 12:00:00 AM";"11:00 - 11:59";"00434";"Bijlmerplein";"4.95032022";"52.31457553";"10"
"1/25/2021 12:00:00 AM";"11:00 - 11:59";"00441";"Muiderpoortstation";"4.93254137";"52.36088532";"15"
"1/25/2021 12:00:00 AM";"11:00 - 11:59";"00444";"Linnaeusstraat";"4.92490296";"52.35991203";"23"
"1/25/2021 12:00:00 AM";"11:00 - 11:59";"00518";"Foppingadreef";"4.94967889";"52.31268573";"10"
"1/25/2021 12:00:00 AM";"11:00 - 11:59";"00560";"Station Bijlmer ArenA";"4.94747867";"52.31125750";"11"
"1/25/2021 12:00:00 AM";"11:00 - 11:59";"00561";"Station Bijlmer ArenA";"4.94741931";"52.31132918";"19"
"1/25/2021 12:00:00 AM";"11:00 - 11:59";"01076";"Waterlandplein";"4.95247364";"52.39274059";"20"
"1/25/2021 12:00:00 AM";"11:00 - 11:59";"01111";"Rode Kruisstraat";"4.92881363";"52.39488033";"12"
"1/25/2021 12:00:00 AM";"11:00 - 11:59";"01141";"Mosplein";"4.91273108";"52.39304643";"12"
"1/25/2021 12:00:00 AM";"11:00 - 11:59";"01316";"Station Noord";"4.93336820";"52.40204304";"14"
"1/25/2021 12:00:00 AM";"11:00 - 11:59";"01363";"Buikslotermeerplein";"4.93968364";"52.39943369";"11"
"1/25/2021 12:00:00 AM";"11:00 - 11:59";"01402";"Floraweg";"4.90614362";"52.39899665";"10"
"1/25/2021 12:00:00 AM";"11:00 - 11:59";"01414";"Olof Palmeplein";"4.94012168";"52.39679298";"13"
"1/25/2021 12:00:00 AM";"11:00 - 11:59";"01443";"Volendammerweg";"4.95697086";"52.39255928";"12"
"1/25/2021 12:00:00 AM";"11:00 - 11:59";"02103";"Spaarndammerstraat";"4.87765867";"52.39216375";"19"
"1/25/2021 12:00:00 AM";"11:00 - 11:59";"02113";"Haarlemmerplein";"4.88371739";"52.38516129";"16"
"1/25/2021 12:00:00 AM";"11:00 - 11:59";"02114";"Haarlemmerplein";"4.88341252";"52.38484542";"12"
"1/25/2021 12:00:00 AM";"11:00 - 11:59";"02130";"Hugo de Grootplein";"4.87259092";"52.37439113";"11"
"1/25/2021 12:00:00 AM";"11:00 - 11:59";"02155";"Willem de Zwijgerlaan";"4.86360306";"52.37071170";"17"
"1/25/2021 12:00:00 AM";"11:00 - 11:59";"02156";"Willem de Zwijgerlaan";"4.86425293";"52.37039101";"11"
"1/25/2021 12:00:00 AM";"11:00 - 11:59";"02157";"Adm. de Ruijterweg";"4.86009910";"52.37148707";"15"
"1/25/2021 12:00:00 AM";"11:00 - 11:59";"02158";"Adm. de Ruijterweg";"4.86096776";"52.37129320";"13"
"1/25/2021 12:00:00 AM";"11:00 - 11:59";"02177";"Bos en Lommerweg";"4.85521256";"52.38101018";"10"
"1/25/2021 12:00:00 AM";"11:00 - 11:59";"02183";"Markthallen";"4.86667150";"52.37575835";"11"
"1/25/2021 12:00:00 AM";"11:00 - 11:59";"02190";"Karel Doormanstraat";"4.85695623";"52.37889690";"10"
"1/25/2021 12:00:00 AM";"11:00 - 11:59";"02221";"Jan v.Galenstraat";"4.85842340";"52.37532634";"10"
"1/25/2021 12:00:00 AM";"11:00 - 11:59";"02222";"Jan van Galenstraat";"4.85874763";"52.37399761";"12"
"1/25/2021 12:00:00 AM";"11:00 - 11:59";"02259";"Contactweg";"4.85657970";"52.39195435";"10"
"1/25/2021 12:00:00 AM";"11:00 - 11:59";"02361";"Station Sloterdijk";"4.83931858";"52.38833460";"38"
"1/25/2021 12:00:00 AM";"11:00 - 11:59";"02367";"Station Sloterdijk";"4.83876429";"52.38801747";"15"
"1/25/2021 12:00:00 AM";"11:00 - 11:59";"02378";"Station Sloterdijk";"4.83809796";"52.38844579";"38"
"1/25/2021 12:00:00 AM";"11:00 - 11:59";"03009";"Witte de Withstraat";"4.85851970";"52.36478416";"18"
"1/25/2021 12:00:00 AM";"11:00 - 11:59";"03010";"Witte de Withstraat";"4.85928290";"52.36480554";"20"
"1/25/2021 12:00:00 AM";"11:00 - 11:59";"03024";"Marco Polostraat";"4.85546532";"52.37095405";"10"
"1/25/2021 12:00:00 AM";"11:00 - 11:59";"03034";"Erasmusgracht";"4.84691117";"52.37644278";"10"
"1/25/2021 12:00:00 AM";"11:00 - 11:59";"03052";"Burg. Eliasstraat";"4.82565009";"52.38077481";"16"
"1/25/2021 12:00:00 AM";"11:00 - 11:59";"03060";"Bos en Lommerplein";"4.84718407";"52.37815169";"14"
"1/25/2021 12:00:00 AM";"11:00 - 11:59";"03061";"Bos en Lommerplein";"4.84523530";"52.37778328";"27"
"1/25/2021 12:00:00 AM";"11:00 - 11:59";"03076";"Jan Tooropstraat";"4.83810313";"52.37142305";"14"
"1/25/2021 12:00:00 AM";"11:00 - 11:59";"03087";"Plein '40 - '45";"4.82063128";"52.38159575";"14"
"1/25/2021 12:00:00 AM";"11:00 - 11:59";"03090";"Slotermeerlaan";"4.81728149";"52.37596234";"12"
"1/25/2021 12:00:00 AM";"11:00 - 11:59";"03097";"Burg. v. Leeuwenlaan";"4.81182601";"52.37651117";"15"
"1/25/2021 12:00:00 AM";"11:00 - 11:59";"03101";"Lambertus Zijlplein";"4.80300456";"52.37726788";"14"
"1/25/2021 12:00:00 AM";"11:00 - 11:59";"03117";"Sam van Houtenstraat";"4.79790430";"52.37868964";"14"
"1/25/2021 12:00:00 AM";"11:00 - 11:59";"03121";"Aalbersestraat";"4.79774249";"52.38202329";"23"
"1/25/2021 12:00:00 AM";"11:00 - 11:59";"03129";"Plein '40 - '45";"4.82112672";"52.38075328";"24"
"1/25/2021 12:00:00 AM";"11:00 - 11:59";"03150";"Mercatorplein";"4.85011339";"52.37031872";"17"
"1/25/2021 12:00:00 AM";"11:00 - 11:59";"03157";"Lambertus Zijlplein";"4.80338637";"52.37726977";"10"
