"Datum";"UurgroepOmschrijving (van aankomst)";"AankomstHalteCode";"AankomstHalteNaam";"AankomstLat";"AankomstLon";"AantalReizen"
"4/18/2020 12:00:00 AM";"14:00 - 14:59";"";"Overig";"";"";"1"
"8/26/2020 12:00:00 AM";"17:00 - 17:59";"";"Overig";"";"";"1"
"11/23/2020 12:00:00 AM";"00:00 - 00:59";"";"Overig";"";"";"9"
"11/23/2020 12:00:00 AM";"01:00 - 01:59";"";"Overig";"";"";"42"
"11/23/2020 12:00:00 AM";"02:00 - 02:59";"";"Overig";"";"";"40"
"11/23/2020 12:00:00 AM";"03:00 - 03:59";"";"Overig";"";"";"31"
"11/23/2020 12:00:00 AM";"04:00 - 04:59";"";"Overig";"";"";"72"
"11/23/2020 12:00:00 AM";"04:00 - 04:59";"05101";"Centraal Station";"4.90105195";"52.37961641";"11"
"11/23/2020 12:00:00 AM";"05:00 - 05:59";"";"Overig";"";"";"264"
"11/23/2020 12:00:00 AM";"05:00 - 05:59";"[[ Onb";"[[ Onbekend ]]";"0.00000000";"0.00000000";"21"
"11/23/2020 12:00:00 AM";"05:00 - 05:59";"00562";"Station Bijlmer ArenA";"4.94736012";"52.31138289";"13"
"11/23/2020 12:00:00 AM";"05:00 - 05:59";"04267";"Schiphol Airport/Plaza";"4.76139455";"52.30887344";"54"
"11/23/2020 12:00:00 AM";"05:00 - 05:59";"04268";"Vrachtgebouw";"4.75383146";"52.30452797";"12"
"11/23/2020 12:00:00 AM";"05:00 - 05:59";"04300";"Knooppunt Schiphol Nrd";"4.79292928";"52.32250892";"14"
"11/23/2020 12:00:00 AM";"05:00 - 05:59";"04379";"Knooppunt Schiphol Nrd";"4.79320459";"52.32276196";"31"
"11/23/2020 12:00:00 AM";"05:00 - 05:59";"05096";"Centraal Station";"4.90049319";"52.37967703";"11"
"11/23/2020 12:00:00 AM";"05:00 - 05:59";"BMR";"Station Bijlmer ArenA";"4.94713474";"52.31193030";"20"
"11/23/2020 12:00:00 AM";"05:00 - 05:59";"CS";"Centraal Station";"4.90078150";"52.37749421";"49"
"11/23/2020 12:00:00 AM";"05:00 - 05:59";"DVD";"Station Duivendrecht";"4.93678429";"52.32325190";"10"
"11/23/2020 12:00:00 AM";"05:00 - 05:59";"WTC";"Station Zuid";"4.87509853";"52.33908015";"22"
"11/23/2020 12:00:00 AM";"06:00 - 06:59";"";"Overig";"";"";"1379"
"11/23/2020 12:00:00 AM";"06:00 - 06:59";"[[ Onb";"[[ Onbekend ]]";"0.00000000";"0.00000000";"69"
"11/23/2020 12:00:00 AM";"06:00 - 06:59";"00020";"Beukenweg";"4.91674979";"52.35906203";"12"
"11/23/2020 12:00:00 AM";"06:00 - 06:59";"00023";"Beukenplein";"4.91809259";"52.35701816";"10"
"11/23/2020 12:00:00 AM";"06:00 - 06:59";"00205";"Station Holendrecht";"4.95865657";"52.29716971";"10"
"11/23/2020 12:00:00 AM";"06:00 - 06:59";"00453";"Diemen Sniep";"4.96964866";"52.33644962";"32"
"11/23/2020 12:00:00 AM";"06:00 - 06:59";"00491";"Science Park Aer";"4.95218495";"52.35478458";"14"
"11/23/2020 12:00:00 AM";"06:00 - 06:59";"00561";"Station Bijlmer ArenA";"4.94741931";"52.31132918";"22"
"11/23/2020 12:00:00 AM";"06:00 - 06:59";"00562";"Station Bijlmer ArenA";"4.94736012";"52.31138289";"34"
"11/23/2020 12:00:00 AM";"06:00 - 06:59";"00902";"Stammerkamp";"4.98344083";"52.33320797";"19"
"11/23/2020 12:00:00 AM";"06:00 - 06:59";"02018";"Koivistokade";"4.87577082";"52.39789874";"19"
"11/23/2020 12:00:00 AM";"06:00 - 06:59";"02103";"Spaarndammerstraat";"4.87765867";"52.39216375";"14"
"11/23/2020 12:00:00 AM";"06:00 - 06:59";"02114";"Haarlemmerplein";"4.88341252";"52.38484542";"10"
"11/23/2020 12:00:00 AM";"06:00 - 06:59";"02183";"Markthallen";"4.86667150";"52.37575835";"13"
"11/23/2020 12:00:00 AM";"06:00 - 06:59";"02311";"Seineweg";"4.81857317";"52.38632242";"37"
"11/23/2020 12:00:00 AM";"06:00 - 06:59";"02312";"Seineweg";"4.81892292";"52.38653981";"10"
"11/23/2020 12:00:00 AM";"06:00 - 06:59";"02361";"Station Sloterdijk";"4.83931858";"52.38833460";"26"
"11/23/2020 12:00:00 AM";"06:00 - 06:59";"02366";"Station Sloterdijk";"4.83873347";"52.38813416";"10"
"11/23/2020 12:00:00 AM";"06:00 - 06:59";"02367";"Station Sloterdijk";"4.83876429";"52.38801747";"11"
"11/23/2020 12:00:00 AM";"06:00 - 06:59";"02370";"Station Sloterdijk";"4.83879745";"52.38771204";"12"
"11/23/2020 12:00:00 AM";"06:00 - 06:59";"04050";"Meer en Vaart";"4.80994403";"52.35636940";"13"
"11/23/2020 12:00:00 AM";"06:00 - 06:59";"04195";"Station Lelylaan";"4.83460082";"52.35788018";"28"
"11/23/2020 12:00:00 AM";"06:00 - 06:59";"04196";"Station Lelylaan";"4.83382251";"52.35790351";"13"
"11/23/2020 12:00:00 AM";"06:00 - 06:59";"04267";"Schiphol Airport/Plaza";"4.76139455";"52.30887344";"41"
"11/23/2020 12:00:00 AM";"06:00 - 06:59";"04379";"Knooppunt Schiphol Nrd";"4.79320459";"52.32276196";"22"
"11/23/2020 12:00:00 AM";"06:00 - 06:59";"05011";"Centraal Station";"4.89921803";"52.37810793";"52"
"11/23/2020 12:00:00 AM";"06:00 - 06:59";"05022";"Centraal Station";"4.90104337";"52.37771998";"40"
"11/23/2020 12:00:00 AM";"06:00 - 06:59";"05047";"Rembrandtplein";"4.89702882";"52.36623511";"10"
"11/23/2020 12:00:00 AM";"06:00 - 06:59";"05065";"Dam";"4.89079364";"52.37367792";"10"
"11/23/2020 12:00:00 AM";"06:00 - 06:59";"05066";"Dam";"4.89027056";"52.37318140";"24"
"11/23/2020 12:00:00 AM";"06:00 - 06:59";"05069";"Nieuwezijds Kolk";"4.89373093";"52.37628765";"11"
"11/23/2020 12:00:00 AM";"06:00 - 06:59";"05074";"Westermarkt";"4.88354950";"52.37407874";"11"
"11/23/2020 12:00:00 AM";"06:00 - 06:59";"05097";"Centraal Station";"4.90087651";"52.37954379";"28"
"11/23/2020 12:00:00 AM";"06:00 - 06:59";"05103";"Centraal Station";"4.90127481";"52.37938365";"11"
"11/23/2020 12:00:00 AM";"06:00 - 06:59";"06029";"Elandsgracht";"4.87684368";"52.36852258";"14"
"11/23/2020 12:00:00 AM";"06:00 - 06:59";"06048";"J.P. Heijestraat";"4.86585368";"52.36037674";"12"
"11/23/2020 12:00:00 AM";"06:00 - 06:59";"06061";"Leidseplein";"4.88339576";"52.36305015";"10"
"11/23/2020 12:00:00 AM";"06:00 - 06:59";"06063";"Leidseplein";"4.88064547";"52.36476406";"22"
"11/23/2020 12:00:00 AM";"06:00 - 06:59";"06089";"Leidseplein";"4.88085541";"52.36309324";"18"
"11/23/2020 12:00:00 AM";"06:00 - 06:59";"07007";"Museumplein";"4.87950215";"52.35690388";"11"
"11/23/2020 12:00:00 AM";"06:00 - 06:59";"07133";"De Boelelaan";"4.86754589";"52.33496677";"12"
"11/23/2020 12:00:00 AM";"06:00 - 06:59";"07191";"Station Zuid";"4.87340673";"52.34072657";"11"
"11/23/2020 12:00:00 AM";"06:00 - 06:59";"07266";"Station Zuid";"4.87252654";"52.34070477";"14"
"11/23/2020 12:00:00 AM";"06:00 - 06:59";"07300";"Gelderlandplein Oost";"4.87937562";"52.33075792";"10"
"11/23/2020 12:00:00 AM";"06:00 - 06:59";"07303";"VU medisch centrum";"4.86097062";"52.33515342";"27"
"11/23/2020 12:00:00 AM";"06:00 - 06:59";"07321";"Van Baerlestraat";"4.87895796";"52.35827667";"10"
"11/23/2020 12:00:00 AM";"06:00 - 06:59";"07419";"Van Boshuizenstraat";"4.86896941";"52.32487971";"13"
"11/23/2020 12:00:00 AM";"06:00 - 06:59";"07505";"Ziekenhuis";"4.87154263";"52.29401774";"19"
"11/23/2020 12:00:00 AM";"06:00 - 06:59";"07513";"Sacharovlaan";"4.83264484";"52.28179795";"10"
"11/23/2020 12:00:00 AM";"06:00 - 06:59";"08054";"Weesperplein";"4.90941338";"52.36145933";"14"
"11/23/2020 12:00:00 AM";"06:00 - 06:59";"08057";"Frederiksplein";"4.90024241";"52.35971430";"13"
"11/23/2020 12:00:00 AM";"06:00 - 06:59";"08080";"Spiegelgracht";"4.88691222";"52.36106979";"12"
"11/23/2020 12:00:00 AM";"06:00 - 06:59";"08120";"Insulindeweg";"4.94763926";"52.36469021";"11"
"11/23/2020 12:00:00 AM";"06:00 - 06:59";"08238";"Rietlandpark";"4.93350159";"52.37322013";"10"
"11/23/2020 12:00:00 AM";"06:00 - 06:59";"08239";"Rietlandpark";"4.93413567";"52.37296191";"15"
"11/23/2020 12:00:00 AM";"06:00 - 06:59";"08241";"Zuiderzeeweg";"4.96185517";"52.37193228";"10"
"11/23/2020 12:00:00 AM";"06:00 - 06:59";"ASA";"Amstelstation";"4.91751426";"52.34647326";"113"
"11/23/2020 12:00:00 AM";"06:00 - 06:59";"ASW";"Amstelveenseweg";"4.85798324";"52.33836671";"128"
"11/23/2020 12:00:00 AM";"06:00 - 06:59";"BLW";"Bullewijk";"4.95233581";"52.30642205";"32"
"11/23/2020 12:00:00 AM";"06:00 - 06:59";"BMR";"Station Bijlmer ArenA";"4.94713474";"52.31193030";"166"
"11/23/2020 12:00:00 AM";"06:00 - 06:59";"CLL";"Station Lelylaan";"4.83426589";"52.35766291";"28"
"11/23/2020 12:00:00 AM";"06:00 - 06:59";"CS";"Centraal Station";"4.90078150";"52.37749421";"284"
"11/23/2020 12:00:00 AM";"06:00 - 06:59";"DMZ";"Station Diemen-Zuid";"4.95713273";"52.33042795";"14"
"11/23/2020 12:00:00 AM";"06:00 - 06:59";"DPP";"De Pijp";"4.89101069";"52.35296212";"50"
"11/23/2020 12:00:00 AM";"06:00 - 06:59";"DVD";"Station Duivendrecht";"4.93678429";"52.32325190";"44"
"11/23/2020 12:00:00 AM";"06:00 - 06:59";"EPP";"Europaplein";"4.89138430";"52.34185482";"22"
"11/23/2020 12:00:00 AM";"06:00 - 06:59";"GZH";"Station Ganzenhoef";"4.97323379";"52.32331315";"10"
"11/23/2020 12:00:00 AM";"06:00 - 06:59";"HDS";"Heemstedestraat";"4.83421208";"52.35255760";"30"
"11/23/2020 12:00:00 AM";"06:00 - 06:59";"HLD";"Station Holendrecht";"4.96021904";"52.29780451";"117"
"11/23/2020 12:00:00 AM";"06:00 - 06:59";"HVW";"Henk Sneevlietweg";"4.83439318";"52.34626699";"58"
"11/23/2020 12:00:00 AM";"06:00 - 06:59";"ITW";"Isolatorweg";"4.85013475";"52.39523277";"18"
"11/23/2020 12:00:00 AM";"06:00 - 06:59";"JLS";"Jan v.Galenstraat";"4.83492461";"52.37196551";"56"
"11/23/2020 12:00:00 AM";"06:00 - 06:59";"MDW";"Van der Madeweg";"4.93048657";"52.32945629";"35"
"11/23/2020 12:00:00 AM";"06:00 - 06:59";"ND";"Noord";"4.93123182";"52.40117202";"60"
"11/23/2020 12:00:00 AM";"06:00 - 06:59";"NDP";"Noorderpark";"4.91789115";"52.38855518";"28"
"11/23/2020 12:00:00 AM";"06:00 - 06:59";"NMT";"Nieuwmarkt";"4.90123885";"52.37194169";"26"
"11/23/2020 12:00:00 AM";"06:00 - 06:59";"OAS";"Overamstel";"4.91815361";"52.33179879";"32"
"11/23/2020 12:00:00 AM";"06:00 - 06:59";"PJW";"Postjesweg";"4.83385543";"52.36468044";"13"
"11/23/2020 12:00:00 AM";"06:00 - 06:59";"RAI";"Station RAI";"4.88982004";"52.33739931";"64"
"11/23/2020 12:00:00 AM";"06:00 - 06:59";"RGB";"Reigersbos";"4.97473728";"52.29566301";"20"
"11/23/2020 12:00:00 AM";"06:00 - 06:59";"RKN";"Rokin";"4.89229651";"52.36928023";"85"
"11/23/2020 12:00:00 AM";"06:00 - 06:59";"SLW";"Spaklerweg";"4.92085640";"52.33986250";"29"
"11/23/2020 12:00:00 AM";"06:00 - 06:59";"STD";"Station Sloterdijk";"4.83878389";"52.38880848";"162"
"11/23/2020 12:00:00 AM";"06:00 - 06:59";"SVT";"Strandvliet";"4.94152820";"52.31825469";"13"
"11/23/2020 12:00:00 AM";"06:00 - 06:59";"VLN";"Burg.de Vlugtlaan";"4.83809109";"52.37951196";"14"
"11/23/2020 12:00:00 AM";"06:00 - 06:59";"VSW";"Verrijn Stuartweg";"4.96693669";"52.32844093";"28"
"11/23/2020 12:00:00 AM";"06:00 - 06:59";"VZG";"Vijzelgracht";"4.89072870";"52.35980061";"41"
"11/23/2020 12:00:00 AM";"06:00 - 06:59";"WBS";"Wibautstraat";"4.91202993";"52.35428867";"50"
"11/23/2020 12:00:00 AM";"06:00 - 06:59";"WLP";"Waterlooplein";"4.90298171";"52.36697862";"95"
"11/23/2020 12:00:00 AM";"06:00 - 06:59";"WPP";"Weesperplein";"4.90787469";"52.36120146";"95"
"11/23/2020 12:00:00 AM";"06:00 - 06:59";"WTC";"Station Zuid";"4.87509853";"52.33908015";"272"
"11/23/2020 12:00:00 AM";"07:00 - 07:59";"";"Overig";"";"";"2331"
"11/23/2020 12:00:00 AM";"07:00 - 07:59";"[[ Onb";"[[ Onbekend ]]";"0.00000000";"0.00000000";"201"
"11/23/2020 12:00:00 AM";"07:00 - 07:59";"00005";"Muiderpoortstation";"4.93280219";"52.36121887";"31"
"11/23/2020 12:00:00 AM";"07:00 - 07:59";"00008";"Dapperstraat";"4.92977913";"52.36110836";"21"
"11/23/2020 12:00:00 AM";"07:00 - 07:59";"00018";"Diemerknoop";"5.00286153";"52.33537576";"16"
"11/23/2020 12:00:00 AM";"07:00 - 07:59";"00020";"Beukenweg";"4.91674979";"52.35906203";"19"
"11/23/2020 12:00:00 AM";"07:00 - 07:59";"00021";"Beukenweg";"4.91721293";"52.35829991";"26"
"11/23/2020 12:00:00 AM";"07:00 - 07:59";"00023";"Beukenplein";"4.91809259";"52.35701816";"15"
"11/23/2020 12:00:00 AM";"07:00 - 07:59";"00029";"Oostpoort";"4.92719316";"52.35707185";"39"
"11/23/2020 12:00:00 AM";"07:00 - 07:59";"00030";"Oostpoort";"4.92694026";"52.35739442";"23"
"11/23/2020 12:00:00 AM";"07:00 - 07:59";"00051";"Pekelharingstraat";"4.93652909";"52.34551360";"10"
"11/23/2020 12:00:00 AM";"07:00 - 07:59";"00053";"Kruislaan";"4.93967974";"52.34742196";"10"
"11/23/2020 12:00:00 AM";"07:00 - 07:59";"00205";"Station Holendrecht";"4.95865657";"52.29716971";"20"
"11/23/2020 12:00:00 AM";"07:00 - 07:59";"00238";"Anton de Komplein";"4.95413359";"52.31603659";"11"
"11/23/2020 12:00:00 AM";"07:00 - 07:59";"00239";"Anton de Komplein";"4.95597669";"52.31652866";"11"
"11/23/2020 12:00:00 AM";"07:00 - 07:59";"00351";"Dostojevskisingel";"4.94525272";"52.32275356";"10"
"11/23/2020 12:00:00 AM";"07:00 - 07:59";"00434";"Bijlmerplein";"4.95032022";"52.31457553";"13"
"11/23/2020 12:00:00 AM";"07:00 - 07:59";"00444";"Linnaeusstraat";"4.92490296";"52.35991203";"12"
"11/23/2020 12:00:00 AM";"07:00 - 07:59";"00453";"Diemen Sniep";"4.96964866";"52.33644962";"60"
"11/23/2020 12:00:00 AM";"07:00 - 07:59";"00560";"Station Bijlmer ArenA";"4.94747867";"52.31125750";"34"
"11/23/2020 12:00:00 AM";"07:00 - 07:59";"00561";"Station Bijlmer ArenA";"4.94741931";"52.31132918";"58"
"11/23/2020 12:00:00 AM";"07:00 - 07:59";"00562";"Station Bijlmer ArenA";"4.94736012";"52.31138289";"45"
"11/23/2020 12:00:00 AM";"07:00 - 07:59";"00568";"Station Bijlmer ArenA";"4.94762664";"52.31112323";"10"
"11/23/2020 12:00:00 AM";"07:00 - 07:59";"00665";"Station Weesp";"5.04383463";"52.31145059";"14"
"11/23/2020 12:00:00 AM";"07:00 - 07:59";"00999";"Vinkenbrug";"4.97831599";"52.33370267";"15"
"11/23/2020 12:00:00 AM";"07:00 - 07:59";"01111";"Rode Kruisstraat";"4.92881363";"52.39488033";"23"
"11/23/2020 12:00:00 AM";"07:00 - 07:59";"01315";"Station Noord";"4.93339740";"52.40206112";"18"
"11/23/2020 12:00:00 AM";"07:00 - 07:59";"01316";"Station Noord";"4.93336820";"52.40204304";"15"
"11/23/2020 12:00:00 AM";"07:00 - 07:59";"01365";"Atat?rk";"4.89794256";"52.40319625";"19"
"11/23/2020 12:00:00 AM";"07:00 - 07:59";"02103";"Spaarndammerstraat";"4.87765867";"52.39216375";"20"
"11/23/2020 12:00:00 AM";"07:00 - 07:59";"02114";"Haarlemmerplein";"4.88341252";"52.38484542";"42"
"11/23/2020 12:00:00 AM";"07:00 - 07:59";"02128";"G. v.Ledenberchstraat";"4.87062828";"52.37520945";"10"
"11/23/2020 12:00:00 AM";"07:00 - 07:59";"02155";"Willem de Zwijgerlaan";"4.86360306";"52.37071170";"11"
"11/23/2020 12:00:00 AM";"07:00 - 07:59";"02156";"Willem de Zwijgerlaan";"4.86425293";"52.37039101";"11"
"11/23/2020 12:00:00 AM";"07:00 - 07:59";"02158";"Adm. de Ruijterweg";"4.86096776";"52.37129320";"15"
"11/23/2020 12:00:00 AM";"07:00 - 07:59";"02222";"Jan van Galenstraat";"4.85874763";"52.37399761";"11"
"11/23/2020 12:00:00 AM";"07:00 - 07:59";"02301";"Fred. Hendrikplants.";"4.87521585";"52.37852787";"14"
"11/23/2020 12:00:00 AM";"07:00 - 07:59";"02311";"Seineweg";"4.81857317";"52.38632242";"21"
"11/23/2020 12:00:00 AM";"07:00 - 07:59";"02333";"Herwijk";"4.78729047";"52.39572206";"11"
"11/23/2020 12:00:00 AM";"07:00 - 07:59";"02361";"Station Sloterdijk";"4.83931858";"52.38833460";"58"
"11/23/2020 12:00:00 AM";"07:00 - 07:59";"02365";"Station Sloterdijk";"4.83873236";"52.38822404";"10"
"11/23/2020 12:00:00 AM";"07:00 - 07:59";"02366";"Station Sloterdijk";"4.83873347";"52.38813416";"21"
"11/23/2020 12:00:00 AM";"07:00 - 07:59";"02367";"Station Sloterdijk";"4.83876429";"52.38801747";"10"
"11/23/2020 12:00:00 AM";"07:00 - 07:59";"02368";"Station Sloterdijk";"4.83877999";"52.38793665";"15"
"11/23/2020 12:00:00 AM";"07:00 - 07:59";"02370";"Station Sloterdijk";"4.83879745";"52.38771204";"28"
"11/23/2020 12:00:00 AM";"07:00 - 07:59";"03052";"Burg. Eliasstraat";"4.82565009";"52.38077481";"12"
"11/23/2020 12:00:00 AM";"07:00 - 07:59";"03060";"Bos en Lommerplein";"4.84718407";"52.37815169";"11"
"11/23/2020 12:00:00 AM";"07:00 - 07:59";"03061";"Bos en Lommerplein";"4.84523530";"52.37778328";"12"
"11/23/2020 12:00:00 AM";"07:00 - 07:59";"03076";"Jan Tooropstraat";"4.83810313";"52.37142305";"20"
"11/23/2020 12:00:00 AM";"07:00 - 07:59";"03087";"Plein '40 - '45";"4.82063128";"52.38159575";"10"
"11/23/2020 12:00:00 AM";"07:00 - 07:59";"03125";"Anth. Moddermanstraat";"4.81338292";"52.38330447";"10"
"11/23/2020 12:00:00 AM";"07:00 - 07:59";"03129";"Plein '40 - '45";"4.82112672";"52.38075328";"14"
"11/23/2020 12:00:00 AM";"07:00 - 07:59";"03145";"J. Cabeliaustraat";"4.80409638";"52.38246819";"20"
"11/23/2020 12:00:00 AM";"07:00 - 07:59";"03157";"Lambertus Zijlplein";"4.80338637";"52.37726977";"13"
"11/23/2020 12:00:00 AM";"07:00 - 07:59";"03167";"Bos en Lommerplein";"4.84650668";"52.37709704";"14"
"11/23/2020 12:00:00 AM";"07:00 - 07:59";"04009";"Dijkgraafplein";"4.78689401";"52.35556268";"10"
"11/23/2020 12:00:00 AM";"07:00 - 07:59";"04012";"Baden Powellweg";"4.79137362";"52.35646612";"13"
"11/23/2020 12:00:00 AM";"07:00 - 07:59";"04016";"Hoekenes";"4.79854723";"52.35791310";"10"
"11/23/2020 12:00:00 AM";"07:00 - 07:59";"04043";"Ruimzicht";"4.80749209";"52.35978176";"10"
"11/23/2020 12:00:00 AM";"07:00 - 07:59";"04050";"Meer en Vaart";"4.80994403";"52.35636940";"11"
"11/23/2020 12:00:00 AM";"07:00 - 07:59";"04061";"Derkinderenstraat";"4.84014895";"52.35794190";"11"
"11/23/2020 12:00:00 AM";"07:00 - 07:59";"04088";"Louwesweg";"4.82436420";"52.34669608";"10"
"11/23/2020 12:00:00 AM";"07:00 - 07:59";"04112";"Johan Huizingalaan";"4.82742878";"52.34923618";"33"
"11/23/2020 12:00:00 AM";"07:00 - 07:59";"04195";"Station Lelylaan";"4.83460082";"52.35788018";"52"
"11/23/2020 12:00:00 AM";"07:00 - 07:59";"04196";"Station Lelylaan";"4.83382251";"52.35790351";"39"
"11/23/2020 12:00:00 AM";"07:00 - 07:59";"04267";"Schiphol Airport/Plaza";"4.76139455";"52.30887344";"16"
"11/23/2020 12:00:00 AM";"07:00 - 07:59";"04379";"Knooppunt Schiphol Nrd";"4.79320459";"52.32276196";"42"
"11/23/2020 12:00:00 AM";"07:00 - 07:59";"04401";"Matterhorn";"4.77438097";"52.35391670";"10"
"11/23/2020 12:00:00 AM";"07:00 - 07:59";"04402";"Matterhorn";"4.77477998";"52.35372103";"15"
"11/23/2020 12:00:00 AM";"07:00 - 07:59";"04413";"Louis Davidsstraat";"4.80850916";"52.35383682";"14"
"11/23/2020 12:00:00 AM";"07:00 - 07:59";"05011";"Centraal Station";"4.89921803";"52.37810793";"74"
"11/23/2020 12:00:00 AM";"07:00 - 07:59";"05022";"Centraal Station";"4.90104337";"52.37771998";"92"
"11/23/2020 12:00:00 AM";"07:00 - 07:59";"05062";"Spui";"4.88925912";"52.36909673";"13"
"11/23/2020 12:00:00 AM";"07:00 - 07:59";"05065";"Dam";"4.89079364";"52.37367792";"23"
"11/23/2020 12:00:00 AM";"07:00 - 07:59";"05066";"Dam";"4.89027056";"52.37318140";"19"
"11/23/2020 12:00:00 AM";"07:00 - 07:59";"05069";"Nieuwezijds Kolk";"4.89373093";"52.37628765";"11"
"11/23/2020 12:00:00 AM";"07:00 - 07:59";"05074";"Westermarkt";"4.88354950";"52.37407874";"30"
"11/23/2020 12:00:00 AM";"07:00 - 07:59";"05080";"Buiten Oranjestraat";"4.88782167";"52.38330923";"10"
"11/23/2020 12:00:00 AM";"07:00 - 07:59";"05090";"Westerdoksdijk";"4.89331977";"52.38551629";"11"
"11/23/2020 12:00:00 AM";"07:00 - 07:59";"05097";"Centraal Station";"4.90087651";"52.37954379";"35"
"11/23/2020 12:00:00 AM";"07:00 - 07:59";"05103";"Centraal Station";"4.90127481";"52.37938365";"26"
"11/23/2020 12:00:00 AM";"07:00 - 07:59";"05105";"Centraal Station";"4.90187762";"52.37932321";"19"
"11/23/2020 12:00:00 AM";"07:00 - 07:59";"05106";"Centraal Station";"4.90229030";"52.37919008";"10"
"11/23/2020 12:00:00 AM";"07:00 - 07:59";"05107";"Centraal Station";"4.90195282";"52.37916174";"12"
"11/23/2020 12:00:00 AM";"07:00 - 07:59";"06001";"Surinameplein";"4.85252231";"52.35807034";"15"
"11/23/2020 12:00:00 AM";"07:00 - 07:59";"06002";"Surinameplein";"4.85090753";"52.35807202";"12"
"11/23/2020 12:00:00 AM";"07:00 - 07:59";"06015";"Postjesweg";"4.85316124";"52.36352879";"12"
"11/23/2020 12:00:00 AM";"07:00 - 07:59";"06019";"Ten Katestraat";"4.86737423";"52.36591988";"12"
"11/23/2020 12:00:00 AM";"07:00 - 07:59";"06020";"Ten Katestraat";"4.86773990";"52.36603832";"19"
"11/23/2020 12:00:00 AM";"07:00 - 07:59";"06021";"Bilderdijkstraat";"4.87176488";"52.36712545";"10"
"11/23/2020 12:00:00 AM";"07:00 - 07:59";"06027";"Elandsgracht";"4.87855189";"52.36808953";"18"
"11/23/2020 12:00:00 AM";"07:00 - 07:59";"06028";"Elandsgracht";"4.87741694";"52.36974738";"22"
"11/23/2020 12:00:00 AM";"07:00 - 07:59";"06029";"Elandsgracht";"4.87684368";"52.36852258";"23"
"11/23/2020 12:00:00 AM";"07:00 - 07:59";"06030";"Rozengracht";"4.87590932";"52.37187996";"11"
"11/23/2020 12:00:00 AM";"07:00 - 07:59";"06034";"Bilderdijkstraat";"4.87082347";"52.37105798";"18"
"11/23/2020 12:00:00 AM";"07:00 - 07:59";"06037";"Bilderdijkstraat";"4.86985701";"52.37082906";"25"
"11/23/2020 12:00:00 AM";"07:00 - 07:59";"06045";"1e Con. Huygensstraat";"4.87399228";"52.36242556";"11"
"11/23/2020 12:00:00 AM";"07:00 - 07:59";"06046";"1e Con. Huygensstraat";"4.87487082";"52.36262709";"10"
"11/23/2020 12:00:00 AM";"07:00 - 07:59";"06048";"J.P. Heijestraat";"4.86585368";"52.36037674";"10"
"11/23/2020 12:00:00 AM";"07:00 - 07:59";"06049";"J.P. Heijestraat";"4.86671778";"52.36055131";"14"
"11/23/2020 12:00:00 AM";"07:00 - 07:59";"06061";"Leidseplein";"4.88339576";"52.36305015";"15"
"11/23/2020 12:00:00 AM";"07:00 - 07:59";"06063";"Leidseplein";"4.88064547";"52.36476406";"13"
"11/23/2020 12:00:00 AM";"07:00 - 07:59";"06076";"Koningsplein";"4.88857910";"52.36689188";"12"
"11/23/2020 12:00:00 AM";"07:00 - 07:59";"06082";"Rhijnvis Feithstraat";"4.85967683";"52.35883943";"12"
"11/23/2020 12:00:00 AM";"07:00 - 07:59";"06089";"Leidseplein";"4.88085541";"52.36309324";"24"
"11/23/2020 12:00:00 AM";"07:00 - 07:59";"06114";"Hoofdweg";"4.85444451";"52.36425359";"10"
"11/23/2020 12:00:00 AM";"07:00 - 07:59";"07006";"Museumplein";"4.87980116";"52.35642881";"16"
"11/23/2020 12:00:00 AM";"07:00 - 07:59";"07007";"Museumplein";"4.87950215";"52.35690388";"26"
"11/23/2020 12:00:00 AM";"07:00 - 07:59";"07016";"Roelof Hartplein";"4.88286688";"52.35274795";"12"
"11/23/2020 12:00:00 AM";"07:00 - 07:59";"07031";"Valeriusplein";"4.86374943";"52.35333004";"16"
"11/23/2020 12:00:00 AM";"07:00 - 07:59";"07032";"Valeriusplein";"4.86326678";"52.35318410";"12"
"11/23/2020 12:00:00 AM";"07:00 - 07:59";"07049";"Hoofddorpplein";"4.84958188";"52.35117239";"11"
"11/23/2020 12:00:00 AM";"07:00 - 07:59";"07050";"Haarlemmermeerstation";"4.85744749";"52.34883508";"15"
"11/23/2020 12:00:00 AM";"07:00 - 07:59";"07084";"Gerrit v.d. Veenstraat";"4.87720177";"52.34886793";"13"
"11/23/2020 12:00:00 AM";"07:00 - 07:59";"07191";"Station Zuid";"4.87340673";"52.34072657";"25"
"11/23/2020 12:00:00 AM";"07:00 - 07:59";"07193";"Station Zuid";"4.87334616";"52.34088808";"18"
"11/23/2020 12:00:00 AM";"07:00 - 07:59";"07195";"Oranjebaan";"4.87311228";"52.30278774";"11"
"11/23/2020 12:00:00 AM";"07:00 - 07:59";"07266";"Station Zuid";"4.87252654";"52.34070477";"27"
"11/23/2020 12:00:00 AM";"07:00 - 07:59";"07269";"Station Zuid";"4.87374306";"52.34082689";"17"
"11/23/2020 12:00:00 AM";"07:00 - 07:59";"07270";"Parnassusweg";"4.86874218";"52.33806382";"11"
"11/23/2020 12:00:00 AM";"07:00 - 07:59";"07303";"VU medisch centrum";"4.86097062";"52.33515342";"45"
"11/23/2020 12:00:00 AM";"07:00 - 07:59";"07322";"Van Baerlestraat";"4.87971942";"52.35844171";"17"
"11/23/2020 12:00:00 AM";"07:00 - 07:59";"07323";"Rijksmuseum";"4.88355043";"52.35977029";"17"
"11/23/2020 12:00:00 AM";"07:00 - 07:59";"07339";"Nieuw Herlaer";"4.88985946";"52.32602094";"17"
"11/23/2020 12:00:00 AM";"07:00 - 07:59";"07391";"Kronenburg";"4.87070592";"52.31556694";"11"
"11/23/2020 12:00:00 AM";"07:00 - 07:59";"07419";"Van Boshuizenstraat";"4.86896941";"52.32487971";"35"
"11/23/2020 12:00:00 AM";"07:00 - 07:59";"07423";"Uilenstede";"4.86910951";"52.32167168";"12"
"11/23/2020 12:00:00 AM";"07:00 - 07:59";"07445";"Amstelveen Stadshart";"4.86751502";"52.30124433";"11"
"11/23/2020 12:00:00 AM";"07:00 - 07:59";"07448";"A.J. Ernststraat";"4.86887597";"52.33288743";"10"
"11/23/2020 12:00:00 AM";"07:00 - 07:59";"07505";"Ziekenhuis";"4.87154263";"52.29401774";"24"
"11/23/2020 12:00:00 AM";"07:00 - 07:59";"07513";"Sacharovlaan";"4.83264484";"52.28179795";"19"
"11/23/2020 12:00:00 AM";"07:00 - 07:59";"08007";"Bob Haarmslaan";"4.96921237";"52.36876786";"14"
"11/23/2020 12:00:00 AM";"07:00 - 07:59";"08027";"Kadijksplein";"4.91357159";"52.37075136";"12"
"11/23/2020 12:00:00 AM";"07:00 - 07:59";"08034";"P. Hendrikkade (uitstaphalte)";"4.90238928";"52.37685369";"10"
"11/23/2020 12:00:00 AM";"07:00 - 07:59";"08051";"K. 's-Gravesandestr.";"4.91366120";"52.36235720";"12"
"11/23/2020 12:00:00 AM";"07:00 - 07:59";"08054";"Weesperplein";"4.90941338";"52.36145933";"19"
"11/23/2020 12:00:00 AM";"07:00 - 07:59";"08057";"Frederiksplein";"4.90024241";"52.35971430";"14"
"11/23/2020 12:00:00 AM";"07:00 - 07:59";"08080";"Spiegelgracht";"4.88691222";"52.36106979";"13"
"11/23/2020 12:00:00 AM";"07:00 - 07:59";"08120";"Insulindeweg";"4.94763926";"52.36469021";"13"
"11/23/2020 12:00:00 AM";"07:00 - 07:59";"08121";"Soembawastraat";"4.94391980";"52.36224967";"10"
"11/23/2020 12:00:00 AM";"07:00 - 07:59";"08129";"Molukkenstraat";"4.93861286";"52.36150167";"12"
"11/23/2020 12:00:00 AM";"07:00 - 07:59";"08139";"Zuiderzeeweg";"4.96240105";"52.37166461";"10"
"11/23/2020 12:00:00 AM";"07:00 - 07:59";"08195";"Oostenburgergracht";"4.92452709";"52.36780177";"18"
"11/23/2020 12:00:00 AM";"07:00 - 07:59";"08239";"Rietlandpark";"4.93413567";"52.37296191";"17"
"11/23/2020 12:00:00 AM";"07:00 - 07:59";"08241";"Zuiderzeeweg";"4.96185517";"52.37193228";"10"
"11/23/2020 12:00:00 AM";"07:00 - 07:59";"08245";"Steigereiland";"4.98012952";"52.36313467";"15"
"11/23/2020 12:00:00 AM";"07:00 - 07:59";"08247";"Vennepluimstraat";"4.99057242";"52.35769662";"12"
"11/23/2020 12:00:00 AM";"07:00 - 07:59";"08249";"Diemerparklaan";"4.99499716";"52.35532962";"14"
"11/23/2020 12:00:00 AM";"07:00 - 07:59";"08262";"IJburg";"5.00486802";"52.35112872";"46"
"11/23/2020 12:00:00 AM";"07:00 - 07:59";"08281";"Vennepluimstraat";"4.99139941";"52.35714215";"10"
"11/23/2020 12:00:00 AM";"07:00 - 07:59";"08300";"P.Oosterhuisstraat";"5.00693059";"52.35193526";"19"
"11/23/2020 12:00:00 AM";"07:00 - 07:59";"09013";"Amstelstation";"4.91790223";"52.34725673";"12"
"11/23/2020 12:00:00 AM";"07:00 - 07:59";"09015";"Amstelstation";"4.91940405";"52.34679531";"10"
"11/23/2020 12:00:00 AM";"07:00 - 07:59";"09049";"Victorieplein";"4.90570139";"52.34637186";"13"
"11/23/2020 12:00:00 AM";"07:00 - 07:59";"09083";"Waalstraat";"4.90032528";"52.34680824";"11"
"11/23/2020 12:00:00 AM";"07:00 - 07:59";"09120";"Cornelis Troostplein";"4.89161100";"52.35046604";"13"
"11/23/2020 12:00:00 AM";"07:00 - 07:59";"ASA";"Amstelstation";"4.91751426";"52.34647326";"200"
"11/23/2020 12:00:00 AM";"07:00 - 07:59";"ASW";"Amstelveenseweg";"4.85798324";"52.33836671";"269"
"11/23/2020 12:00:00 AM";"07:00 - 07:59";"BLW";"Bullewijk";"4.95233581";"52.30642205";"91"
"11/23/2020 12:00:00 AM";"07:00 - 07:59";"BMR";"Station Bijlmer ArenA";"4.94713474";"52.31193030";"293"
"11/23/2020 12:00:00 AM";"07:00 - 07:59";"CLL";"Station Lelylaan";"4.83426589";"52.35766291";"85"
"11/23/2020 12:00:00 AM";"07:00 - 07:59";"CS";"Centraal Station";"4.90078150";"52.37749421";"414"
"11/23/2020 12:00:00 AM";"07:00 - 07:59";"DMZ";"Station Diemen-Zuid";"4.95713273";"52.33042795";"33"
"11/23/2020 12:00:00 AM";"07:00 - 07:59";"DPP";"De Pijp";"4.89101069";"52.35296212";"126"
"11/23/2020 12:00:00 AM";"07:00 - 07:59";"DVD";"Station Duivendrecht";"4.93678429";"52.32325190";"70"
"11/23/2020 12:00:00 AM";"07:00 - 07:59";"EPP";"Europaplein";"4.89138430";"52.34185482";"93"
"11/23/2020 12:00:00 AM";"07:00 - 07:59";"GN";"Gein";"4.98952268";"52.29627089";"32"
"11/23/2020 12:00:00 AM";"07:00 - 07:59";"GPP";"Gaasperplas";"4.98468551";"52.31080575";"26"
"11/23/2020 12:00:00 AM";"07:00 - 07:59";"GZH";"Station Ganzenhoef";"4.97323379";"52.32331315";"28"
"11/23/2020 12:00:00 AM";"07:00 - 07:59";"HDS";"Heemstedestraat";"4.83421208";"52.35255760";"65"
"11/23/2020 12:00:00 AM";"07:00 - 07:59";"HLD";"Station Holendrecht";"4.96021904";"52.29780451";"336"
"11/23/2020 12:00:00 AM";"07:00 - 07:59";"HVW";"Henk Sneevlietweg";"4.83439318";"52.34626699";"134"
"11/23/2020 12:00:00 AM";"07:00 - 07:59";"ITW";"Isolatorweg";"4.85013475";"52.39523277";"45"
"11/23/2020 12:00:00 AM";"07:00 - 07:59";"JLS";"Jan v.Galenstraat";"4.83492461";"52.37196551";"159"
"11/23/2020 12:00:00 AM";"07:00 - 07:59";"KEN";"Kraaienneststation";"4.97963450";"52.31632492";"28"
"11/23/2020 12:00:00 AM";"07:00 - 07:59";"MDW";"Van der Madeweg";"4.93048657";"52.32945629";"51"
"11/23/2020 12:00:00 AM";"07:00 - 07:59";"ND";"Noord";"4.93123182";"52.40117202";"166"
"11/23/2020 12:00:00 AM";"07:00 - 07:59";"NDP";"Noorderpark";"4.91789115";"52.38855518";"76"
"11/23/2020 12:00:00 AM";"07:00 - 07:59";"NMT";"Nieuwmarkt";"4.90123885";"52.37194169";"46"
"11/23/2020 12:00:00 AM";"07:00 - 07:59";"OAS";"Overamstel";"4.91815361";"52.33179879";"45"
"11/23/2020 12:00:00 AM";"07:00 - 07:59";"PJW";"Postjesweg";"4.83385543";"52.36468044";"37"
"11/23/2020 12:00:00 AM";"07:00 - 07:59";"RAI";"Station RAI";"4.88982004";"52.33739931";"114"
"11/23/2020 12:00:00 AM";"07:00 - 07:59";"RGB";"Reigersbos";"4.97473728";"52.29566301";"65"
"11/23/2020 12:00:00 AM";"07:00 - 07:59";"RKN";"Rokin";"4.89229651";"52.36928023";"144"
"11/23/2020 12:00:00 AM";"07:00 - 07:59";"SLW";"Spaklerweg";"4.92085640";"52.33986250";"64"
"11/23/2020 12:00:00 AM";"07:00 - 07:59";"STD";"Station Sloterdijk";"4.83878389";"52.38880848";"193"
"11/23/2020 12:00:00 AM";"07:00 - 07:59";"SVT";"Strandvliet";"4.94152820";"52.31825469";"47"
"11/23/2020 12:00:00 AM";"07:00 - 07:59";"VLN";"Burg.de Vlugtlaan";"4.83809109";"52.37951196";"29"
"11/23/2020 12:00:00 AM";"07:00 - 07:59";"VPD";"Venserpolder";"4.94665009";"52.32679428";"31"
"11/23/2020 12:00:00 AM";"07:00 - 07:59";"VSW";"Verrijn Stuartweg";"4.96693669";"52.32844093";"49"
"11/23/2020 12:00:00 AM";"07:00 - 07:59";"VZG";"Vijzelgracht";"4.89072870";"52.35980061";"75"
"11/23/2020 12:00:00 AM";"07:00 - 07:59";"WBS";"Wibautstraat";"4.91202993";"52.35428867";"170"
"11/23/2020 12:00:00 AM";"07:00 - 07:59";"WLP";"Waterlooplein";"4.90298171";"52.36697862";"99"
"11/23/2020 12:00:00 AM";"07:00 - 07:59";"WPP";"Weesperplein";"4.90787469";"52.36120146";"159"
"11/23/2020 12:00:00 AM";"07:00 - 07:59";"WTC";"Station Zuid";"4.87509853";"52.33908015";"502"
"11/23/2020 12:00:00 AM";"08:00 - 08:59";"";"Overig";"";"";"2306"
"11/23/2020 12:00:00 AM";"08:00 - 08:59";"[[ Onb";"[[ Onbekend ]]";"0.00000000";"0.00000000";"336"
"11/23/2020 12:00:00 AM";"08:00 - 08:59";"00001";"Muiderpoortstation";"4.93287450";"52.36132700";"17"
"11/23/2020 12:00:00 AM";"08:00 - 08:59";"00005";"Muiderpoortstation";"4.93280219";"52.36121887";"75"
"11/23/2020 12:00:00 AM";"08:00 - 08:59";"00007";"Muiderpoortstation";"4.93356602";"52.36117686";"18"
"11/23/2020 12:00:00 AM";"08:00 - 08:59";"00008";"Dapperstraat";"4.92977913";"52.36110836";"35"
"11/23/2020 12:00:00 AM";"08:00 - 08:59";"00010";"Dapperstraat";"4.92891486";"52.36092527";"20"
"11/23/2020 12:00:00 AM";"08:00 - 08:59";"00017";"Linnaeusstraat";"4.92573745";"52.36013099";"17"
"11/23/2020 12:00:00 AM";"08:00 - 08:59";"00019";"Diemerknoop";"5.00296377";"52.33543002";"11"
"11/23/2020 12:00:00 AM";"08:00 - 08:59";"00020";"Beukenweg";"4.91674979";"52.35906203";"18"
"11/23/2020 12:00:00 AM";"08:00 - 08:59";"00021";"Beukenweg";"4.91721293";"52.35829991";"40"
"11/23/2020 12:00:00 AM";"08:00 - 08:59";"00023";"Beukenplein";"4.91809259";"52.35701816";"31"
"11/23/2020 12:00:00 AM";"08:00 - 08:59";"00029";"Oostpoort";"4.92719316";"52.35707185";"129"
"11/23/2020 12:00:00 AM";"08:00 - 08:59";"00030";"Oostpoort";"4.92694026";"52.35739442";"84"
"11/23/2020 12:00:00 AM";"08:00 - 08:59";"00039";"Hogeweg";"4.93084015";"52.35358075";"22"
"11/23/2020 12:00:00 AM";"08:00 - 08:59";"00053";"Kruislaan";"4.93967974";"52.34742196";"16"
"11/23/2020 12:00:00 AM";"08:00 - 08:59";"00059";"Radioweg";"4.93945830";"52.35337100";"39"
"11/23/2020 12:00:00 AM";"08:00 - 08:59";"00060";"Radioweg";"4.93979325";"52.35363291";"32"
"11/23/2020 12:00:00 AM";"08:00 - 08:59";"00065";"Hugo de Vrieslaan";"4.93487340";"52.35101676";"11"
"11/23/2020 12:00:00 AM";"08:00 - 08:59";"00066";"Hugo de Vrieslaan";"4.93540468";"52.35073118";"17"
"11/23/2020 12:00:00 AM";"08:00 - 08:59";"00070";"Kruislaan";"4.93993910";"52.34789929";"20"
"11/23/2020 12:00:00 AM";"08:00 - 08:59";"00114";"Dennenrode";"4.95213839";"52.32209601";"20"
"11/23/2020 12:00:00 AM";"08:00 - 08:59";"00116";"Station Ganzenhoef";"4.97272915";"52.32237665";"17"
"11/23/2020 12:00:00 AM";"08:00 - 08:59";"00134";"Koornhorst";"4.98400929";"52.31907218";"25"
"11/23/2020 12:00:00 AM";"08:00 - 08:59";"00135";"Koornhorst";"4.98396309";"52.31931470";"14"
"11/23/2020 12:00:00 AM";"08:00 - 08:59";"00141";"Kraaienneststation";"4.97868390";"52.31603403";"23"
"11/23/2020 12:00:00 AM";"08:00 - 08:59";"00144";"Kikkenstein";"4.97237050";"52.31680298";"12"
"11/23/2020 12:00:00 AM";"08:00 - 08:59";"00145";"Kikkenstein";"4.97271326";"52.31621998";"11"
"11/23/2020 12:00:00 AM";"08:00 - 08:59";"00146";"Gooioord";"4.96906535";"52.32048532";"11"
"11/23/2020 12:00:00 AM";"08:00 - 08:59";"00150";"Tulastraat";"4.96535973";"52.31994189";"132"
"11/23/2020 12:00:00 AM";"08:00 - 08:59";"00151";"Tulastraat";"4.96584458";"52.31985374";"86"
"11/23/2020 12:00:00 AM";"08:00 - 08:59";"00152";"Florijn";"4.95859163";"52.31758973";"12"
"11/23/2020 12:00:00 AM";"08:00 - 08:59";"00157";"Dolingadreef";"4.94847023";"52.31925132";"14"
"11/23/2020 12:00:00 AM";"08:00 - 08:59";"00158";"Dolingadreef";"4.94901581";"52.31895674";"39"
"11/23/2020 12:00:00 AM";"08:00 - 08:59";"00167";"Hogevecht";"4.95956435";"52.30947729";"14"
"11/23/2020 12:00:00 AM";"08:00 - 08:59";"00168";"Hogevecht";"4.95997517";"52.30945181";"10"
"11/23/2020 12:00:00 AM";"08:00 - 08:59";"00172";"Holendrechtplein";"4.96402882";"52.29952588";"17"
"11/23/2020 12:00:00 AM";"08:00 - 08:59";"00179";"Kelbergen";"4.97179997";"52.31351146";"15"
"11/23/2020 12:00:00 AM";"08:00 - 08:59";"00180";"Kelbergen";"4.97143303";"52.31354612";"19"
"11/23/2020 12:00:00 AM";"08:00 - 08:59";"00197";"Annie Romeinplein";"4.97162041";"52.32173463";"14"
"11/23/2020 12:00:00 AM";"08:00 - 08:59";"00205";"Station Holendrecht";"4.95865657";"52.29716971";"17"
"11/23/2020 12:00:00 AM";"08:00 - 08:59";"00238";"Anton de Komplein";"4.95413359";"52.31603659";"33"
"11/23/2020 12:00:00 AM";"08:00 - 08:59";"00239";"Anton de Komplein";"4.95597669";"52.31652866";"15"
"11/23/2020 12:00:00 AM";"08:00 - 08:59";"00331";"Station Reigersbos";"4.97350466";"52.29737537";"31"
"11/23/2020 12:00:00 AM";"08:00 - 08:59";"00341";"Woudrichemstraat";"4.98882309";"52.29418337";"13"
"11/23/2020 12:00:00 AM";"08:00 - 08:59";"00345";"Station Gein";"4.98911240";"52.29625153";"10"
"11/23/2020 12:00:00 AM";"08:00 - 08:59";"00351";"Dostojevskisingel";"4.94525272";"52.32275356";"51"
"11/23/2020 12:00:00 AM";"08:00 - 08:59";"00352";"Dostojevskisingel";"4.94457408";"52.32314649";"11"
"11/23/2020 12:00:00 AM";"08:00 - 08:59";"00432";"Diemerbrug";"4.96142958";"52.33824484";"11"
"11/23/2020 12:00:00 AM";"08:00 - 08:59";"00441";"Muiderpoortstation";"4.93254137";"52.36088532";"19"
"11/23/2020 12:00:00 AM";"08:00 - 08:59";"00444";"Linnaeusstraat";"4.92490296";"52.35991203";"71"
"11/23/2020 12:00:00 AM";"08:00 - 08:59";"00453";"Diemen Sniep";"4.96964866";"52.33644962";"19"
"11/23/2020 12:00:00 AM";"08:00 - 08:59";"00491";"Science Park Aer";"4.95218495";"52.35478458";"33"
"11/23/2020 12:00:00 AM";"08:00 - 08:59";"00494";"Science Park Aqua";"4.95416922";"52.35601419";"18"
"11/23/2020 12:00:00 AM";"08:00 - 08:59";"00518";"Foppingadreef";"4.94967889";"52.31268573";"16"
"11/23/2020 12:00:00 AM";"08:00 - 08:59";"00529";"Station Science Park";"4.94782063";"52.35230583";"11"
"11/23/2020 12:00:00 AM";"08:00 - 08:59";"00537";"Linnaeusparkweg";"4.94275809";"52.34924908";"14"
"11/23/2020 12:00:00 AM";"08:00 - 08:59";"00538";"Station Science Park";"4.94808393";"52.35239669";"43"
"11/23/2020 12:00:00 AM";"08:00 - 08:59";"00560";"Station Bijlmer ArenA";"4.94747867";"52.31125750";"27"
"11/23/2020 12:00:00 AM";"08:00 - 08:59";"00561";"Station Bijlmer ArenA";"4.94741931";"52.31132918";"33"
"11/23/2020 12:00:00 AM";"08:00 - 08:59";"00562";"Station Bijlmer ArenA";"4.94736012";"52.31138289";"39"
"11/23/2020 12:00:00 AM";"08:00 - 08:59";"00568";"Station Bijlmer ArenA";"4.94762664";"52.31112323";"10"
"11/23/2020 12:00:00 AM";"08:00 - 08:59";"00651";"Casparuslaan";"5.03531862";"52.30911571";"16"
"11/23/2020 12:00:00 AM";"08:00 - 08:59";"00665";"Station Weesp";"5.04383463";"52.31145059";"10"
"11/23/2020 12:00:00 AM";"08:00 - 08:59";"00973";"Vogelweg";"4.97356522";"52.34915403";"11"
"11/23/2020 12:00:00 AM";"08:00 - 08:59";"00985";"Winkelcentrum";"4.96422695";"52.34186794";"10"
"11/23/2020 12:00:00 AM";"08:00 - 08:59";"00999";"Vinkenbrug";"4.97831599";"52.33370267";"10"
"11/23/2020 12:00:00 AM";"08:00 - 08:59";"01059";"Purmerplein";"4.94569441";"52.39045962";"11"
"11/23/2020 12:00:00 AM";"08:00 - 08:59";"01078";"Dijkmanshuizenstraat";"4.95475323";"52.39549915";"14"
"11/23/2020 12:00:00 AM";"08:00 - 08:59";"01108";"J. Drijverweg";"4.94437079";"52.39943333";"13"
"11/23/2020 12:00:00 AM";"08:00 - 08:59";"01110";"Rode Kruisstraat";"4.92847908";"52.39455548";"89"
"11/23/2020 12:00:00 AM";"08:00 - 08:59";"01111";"Rode Kruisstraat";"4.92881363";"52.39488033";"95"
"11/23/2020 12:00:00 AM";"08:00 - 08:59";"01116";"Merelstraat";"4.92492850";"52.38986809";"16"
"11/23/2020 12:00:00 AM";"08:00 - 08:59";"01117";"Merelstraat";"4.92505977";"52.38995848";"17"
"11/23/2020 12:00:00 AM";"08:00 - 08:59";"01151";"Mosplein";"4.91407704";"52.39357310";"13"
"11/23/2020 12:00:00 AM";"08:00 - 08:59";"01155";"Mosplein";"4.91358361";"52.39300490";"15"
"11/23/2020 12:00:00 AM";"08:00 - 08:59";"01189";"Pinksterbloemstraat";"4.91221693";"52.39852684";"18"
"11/23/2020 12:00:00 AM";"08:00 - 08:59";"01191";"Pinksterbloemstraat";"4.91203754";"52.39881372";"35"
"11/23/2020 12:00:00 AM";"08:00 - 08:59";"01212";"Oostzanerdijk";"4.88149588";"52.42023965";"64"
"11/23/2020 12:00:00 AM";"08:00 - 08:59";"01213";"Oostzanerdijk";"4.88083286";"52.42037163";"10"
"11/23/2020 12:00:00 AM";"08:00 - 08:59";"01237";"Beemsterstraat";"4.95210741";"52.39712521";"25"
"11/23/2020 12:00:00 AM";"08:00 - 08:59";"01278";"Statenjachtstraat";"4.91380643";"52.40790731";"13"
"11/23/2020 12:00:00 AM";"08:00 - 08:59";"01305";"Station Noord";"4.93215715";"52.40264056";"14"
"11/23/2020 12:00:00 AM";"08:00 - 08:59";"01315";"Station Noord";"4.93339740";"52.40206112";"46"
"11/23/2020 12:00:00 AM";"08:00 - 08:59";"01316";"Station Noord";"4.93336820";"52.40204304";"23"
"11/23/2020 12:00:00 AM";"08:00 - 08:59";"01352";"Oosterlengte";"4.92206974";"52.40611555";"10"
"11/23/2020 12:00:00 AM";"08:00 - 08:59";"01363";"Buikslotermeerplein";"4.93968364";"52.39943369";"12"
"11/23/2020 12:00:00 AM";"08:00 - 08:59";"01365";"Atat?rk";"4.89794256";"52.40319625";"17"
"11/23/2020 12:00:00 AM";"08:00 - 08:59";"01369";"Pomonastraat";"4.89546974";"52.40886620";"11"
"11/23/2020 12:00:00 AM";"08:00 - 08:59";"01402";"Floraweg";"4.90614362";"52.39899665";"17"
"11/23/2020 12:00:00 AM";"08:00 - 08:59";"01414";"Olof Palmeplein";"4.94012168";"52.39679298";"19"
"11/23/2020 12:00:00 AM";"08:00 - 08:59";"01422";"Noorderpark";"4.91956087";"52.38902016";"37"
"11/23/2020 12:00:00 AM";"08:00 - 08:59";"01423";"Noorderpark";"4.91921998";"52.38930641";"14"
"11/23/2020 12:00:00 AM";"08:00 - 08:59";"02018";"Koivistokade";"4.87577082";"52.39789874";"39"
"11/23/2020 12:00:00 AM";"08:00 - 08:59";"02019";"Koivistokade";"4.87537403";"52.39790601";"16"
"11/23/2020 12:00:00 AM";"08:00 - 08:59";"02064";"Kabelweg";"4.84827817";"52.39205168";"27"
"11/23/2020 12:00:00 AM";"08:00 - 08:59";"02081";"Haparandaweg";"4.87212228";"52.39451255";"43"
"11/23/2020 12:00:00 AM";"08:00 - 08:59";"02099";"Zaanstraat";"4.86990824";"52.39287613";"10"
"11/23/2020 12:00:00 AM";"08:00 - 08:59";"02103";"Spaarndammerstraat";"4.87765867";"52.39216375";"32"
"11/23/2020 12:00:00 AM";"08:00 - 08:59";"02106";"Assendelftstraat";"4.87943840";"52.38941217";"12"
"11/23/2020 12:00:00 AM";"08:00 - 08:59";"02113";"Haarlemmerplein";"4.88371739";"52.38516129";"26"
"11/23/2020 12:00:00 AM";"08:00 - 08:59";"02114";"Haarlemmerplein";"4.88341252";"52.38484542";"30"
"11/23/2020 12:00:00 AM";"08:00 - 08:59";"02130";"Hugo de Grootplein";"4.87259092";"52.37439113";"15"
"11/23/2020 12:00:00 AM";"08:00 - 08:59";"02132";"Fred. Hendrikplants.";"4.87543499";"52.37862768";"42"
"11/23/2020 12:00:00 AM";"08:00 - 08:59";"02133";"Fred. Hendrikplants.";"4.87521709";"52.37842002";"14"
"11/23/2020 12:00:00 AM";"08:00 - 08:59";"02138";"Kostverlorenstraat";"4.87170885";"52.37952826";"11"
"11/23/2020 12:00:00 AM";"08:00 - 08:59";"02149";"Van L.Stirumstraat";"4.87489798";"52.38443141";"10"
"11/23/2020 12:00:00 AM";"08:00 - 08:59";"02155";"Willem de Zwijgerlaan";"4.86360306";"52.37071170";"17"
"11/23/2020 12:00:00 AM";"08:00 - 08:59";"02156";"Willem de Zwijgerlaan";"4.86425293";"52.37039101";"19"
"11/23/2020 12:00:00 AM";"08:00 - 08:59";"02157";"Adm. de Ruijterweg";"4.86009910";"52.37148707";"22"
"11/23/2020 12:00:00 AM";"08:00 - 08:59";"02158";"Adm. de Ruijterweg";"4.86096776";"52.37129320";"33"
"11/23/2020 12:00:00 AM";"08:00 - 08:59";"02160";"Haparandaweg";"4.87389760";"52.39471799";"19"
"11/23/2020 12:00:00 AM";"08:00 - 08:59";"02170";"Spaarndammerstraat";"4.87723089";"52.39231470";"15"
"11/23/2020 12:00:00 AM";"08:00 - 08:59";"02182";"Markthallen";"4.86695146";"52.37567869";"72"
"11/23/2020 12:00:00 AM";"08:00 - 08:59";"02183";"Markthallen";"4.86667150";"52.37575835";"21"
"11/23/2020 12:00:00 AM";"08:00 - 08:59";"02184";"Jan v.Galenstraat";"4.86033817";"52.37484954";"11"
"11/23/2020 12:00:00 AM";"08:00 - 08:59";"02193";"Marnixplein";"4.87844490";"52.37741832";"13"
"11/23/2020 12:00:00 AM";"08:00 - 08:59";"02222";"Jan van Galenstraat";"4.85874763";"52.37399761";"20"
"11/23/2020 12:00:00 AM";"08:00 - 08:59";"02252";"Zekeringstraat";"4.84719064";"52.39690907";"14"
"11/23/2020 12:00:00 AM";"08:00 - 08:59";"02259";"Contactweg";"4.85657970";"52.39195435";"84"
"11/23/2020 12:00:00 AM";"08:00 - 08:59";"02260";"Contactweg";"4.85432952";"52.39215995";"35"
"11/23/2020 12:00:00 AM";"08:00 - 08:59";"02301";"Fred. Hendrikplants.";"4.87521585";"52.37852787";"24"
"11/23/2020 12:00:00 AM";"08:00 - 08:59";"02302";"Fred. Hendrikplants.";"4.87549415";"52.37859198";"33"
"11/23/2020 12:00:00 AM";"08:00 - 08:59";"02309";"Plesostraat";"4.82645527";"52.38795084";"32"
"11/23/2020 12:00:00 AM";"08:00 - 08:59";"02310";"Plesostraat";"4.82849791";"52.38788859";"28"
"11/23/2020 12:00:00 AM";"08:00 - 08:59";"02320";"Van Hallstraat";"4.86782303";"52.38527240";"14"
"11/23/2020 12:00:00 AM";"08:00 - 08:59";"02321";"Van Hallstraat";"4.86864429";"52.38538386";"24"
"11/23/2020 12:00:00 AM";"08:00 - 08:59";"02361";"Station Sloterdijk";"4.83931858";"52.38833460";"62"
"11/23/2020 12:00:00 AM";"08:00 - 08:59";"02365";"Station Sloterdijk";"4.83873236";"52.38822404";"25"
"11/23/2020 12:00:00 AM";"08:00 - 08:59";"02366";"Station Sloterdijk";"4.83873347";"52.38813416";"18"
"11/23/2020 12:00:00 AM";"08:00 - 08:59";"02367";"Station Sloterdijk";"4.83876429";"52.38801747";"19"
"11/23/2020 12:00:00 AM";"08:00 - 08:59";"02368";"Station Sloterdijk";"4.83877999";"52.38793665";"20"
"11/23/2020 12:00:00 AM";"08:00 - 08:59";"02370";"Station Sloterdijk";"4.83879745";"52.38771204";"52"
"11/23/2020 12:00:00 AM";"08:00 - 08:59";"03009";"Witte de Withstraat";"4.85851970";"52.36478416";"22"
"11/23/2020 12:00:00 AM";"08:00 - 08:59";"03010";"Witte de Withstraat";"4.85928290";"52.36480554";"17"
"11/23/2020 12:00:00 AM";"08:00 - 08:59";"03022";"Mercatorplein";"4.85070310";"52.37012367";"12"
"11/23/2020 12:00:00 AM";"08:00 - 08:59";"03023";"Marco Polostraat";"4.85520189";"52.37088096";"31"
"11/23/2020 12:00:00 AM";"08:00 - 08:59";"03034";"Erasmusgracht";"4.84691117";"52.37644278";"13"
"11/23/2020 12:00:00 AM";"08:00 - 08:59";"03052";"Burg. Eliasstraat";"4.82565009";"52.38077481";"35"
"11/23/2020 12:00:00 AM";"08:00 - 08:59";"03055";"Burg. Fockstraat";"4.83108040";"52.37991964";"26"
"11/23/2020 12:00:00 AM";"08:00 - 08:59";"03060";"Bos en Lommerplein";"4.84718407";"52.37815169";"13"
"11/23/2020 12:00:00 AM";"08:00 - 08:59";"03061";"Bos en Lommerplein";"4.84523530";"52.37778328";"39"
"11/23/2020 12:00:00 AM";"08:00 - 08:59";"03076";"Jan Tooropstraat";"4.83810313";"52.37142305";"28"
"11/23/2020 12:00:00 AM";"08:00 - 08:59";"03077";"Jan Tooropstraat";"4.83817288";"52.37171997";"16"
"11/23/2020 12:00:00 AM";"08:00 - 08:59";"03087";"Plein '40 - '45";"4.82063128";"52.38159575";"57"
"11/23/2020 12:00:00 AM";"08:00 - 08:59";"03090";"Slotermeerlaan";"4.81728149";"52.37596234";"24"
"11/23/2020 12:00:00 AM";"08:00 - 08:59";"03091";"Slotermeerlaan";"4.82076888";"52.37542183";"14"
"11/23/2020 12:00:00 AM";"08:00 - 08:59";"03097";"Burg. v. Leeuwenlaan";"4.81182601";"52.37651117";"10"
"11/23/2020 12:00:00 AM";"08:00 - 08:59";"03099";"Dr. H. Colijnstraat";"4.80672448";"52.37693566";"10"
"11/23/2020 12:00:00 AM";"08:00 - 08:59";"03103";"Confuciusplein";"4.81207122";"52.37458898";"12"
"11/23/2020 12:00:00 AM";"08:00 - 08:59";"03108";"Herman Bonpad";"4.80080718";"52.36796367";"15"
"11/23/2020 12:00:00 AM";"08:00 - 08:59";"03117";"Sam van Houtenstraat";"4.79790430";"52.37868964";"11"
"11/23/2020 12:00:00 AM";"08:00 - 08:59";"03121";"Aalbersestraat";"4.79774249";"52.38202329";"15"
"11/23/2020 12:00:00 AM";"08:00 - 08:59";"03124";"Osdorper Ban";"4.80589840";"52.36265004";"21"
"11/23/2020 12:00:00 AM";"08:00 - 08:59";"03129";"Plein '40 - '45";"4.82112672";"52.38075328";"31"
"11/23/2020 12:00:00 AM";"08:00 - 08:59";"03132";"Burg. R?ellstraat";"4.81950345";"52.37676393";"16"
"11/23/2020 12:00:00 AM";"08:00 - 08:59";"03145";"J. Cabeliaustraat";"4.80409638";"52.38246819";"14"
"11/23/2020 12:00:00 AM";"08:00 - 08:59";"03150";"Mercatorplein";"4.85011339";"52.37031872";"17"
"11/23/2020 12:00:00 AM";"08:00 - 08:59";"03157";"Lambertus Zijlplein";"4.80338637";"52.37726977";"13"
"11/23/2020 12:00:00 AM";"08:00 - 08:59";"03167";"Bos en Lommerplein";"4.84650668";"52.37709704";"33"
"11/23/2020 12:00:00 AM";"08:00 - 08:59";"03168";"Mercatorplein";"4.85152392";"52.37024423";"27"
"11/23/2020 12:00:00 AM";"08:00 - 08:59";"03169";"Jan v.Galenstraat";"4.83601291";"52.37301316";"17"
"11/23/2020 12:00:00 AM";"08:00 - 08:59";"03170";"Jan v.Galenstraat";"4.83495277";"52.37324190";"11"
"11/23/2020 12:00:00 AM";"08:00 - 08:59";"03171";"Burg. Rendorpstraat";"4.82768433";"52.37436719";"31"
"11/23/2020 12:00:00 AM";"08:00 - 08:59";"03172";"Burg. Rendorpstraat";"4.82691962";"52.37445346";"27"
"11/23/2020 12:00:00 AM";"08:00 - 08:59";"03179";"Adm. Helfrichstraat";"4.84386882";"52.36944538";"14"
"11/23/2020 12:00:00 AM";"08:00 - 08:59";"03180";"Adm. Helfrichstraat";"4.84458860";"52.36942172";"10"
"11/23/2020 12:00:00 AM";"08:00 - 08:59";"03181";"Jan Voermanstraat";"4.83788946";"52.36970540";"23"
"11/23/2020 12:00:00 AM";"08:00 - 08:59";"03182";"Jan Voermanstraat";"4.83852226";"52.36959149";"13"
"11/23/2020 12:00:00 AM";"08:00 - 08:59";"03197";"W. Schoutenstraat";"4.85238084";"52.36737202";"14"
"11/23/2020 12:00:00 AM";"08:00 - 08:59";"03198";"W. Schoutenstraat";"4.85259061";"52.36702245";"17"
"11/23/2020 12:00:00 AM";"08:00 - 08:59";"04009";"Dijkgraafplein";"4.78689401";"52.35556268";"17"
"11/23/2020 12:00:00 AM";"08:00 - 08:59";"04012";"Baden Powellweg";"4.79137362";"52.35646612";"32"
"11/23/2020 12:00:00 AM";"08:00 - 08:59";"04016";"Hoekenes";"4.79854723";"52.35791310";"17"
"11/23/2020 12:00:00 AM";"08:00 - 08:59";"04021";"Osdorpplein";"4.80322868";"52.35913166";"52"
"11/23/2020 12:00:00 AM";"08:00 - 08:59";"04043";"Ruimzicht";"4.80749209";"52.35978176";"25"
"11/23/2020 12:00:00 AM";"08:00 - 08:59";"04049";"Meer en Vaart";"4.81058859";"52.35647140";"20"
"11/23/2020 12:00:00 AM";"08:00 - 08:59";"04050";"Meer en Vaart";"4.80994403";"52.35636940";"68"
"11/23/2020 12:00:00 AM";"08:00 - 08:59";"04060";"Derkinderenstraat";"4.83972293";"52.35796689";"14"
"11/23/2020 12:00:00 AM";"08:00 - 08:59";"04061";"Derkinderenstraat";"4.84014895";"52.35794190";"20"
"11/23/2020 12:00:00 AM";"08:00 - 08:59";"04062";"Johan Huizingalaan";"4.82582327";"52.35781191";"19"
"11/23/2020 12:00:00 AM";"08:00 - 08:59";"04063";"Johan Huizingalaan";"4.82626398";"52.35778704";"28"
"11/23/2020 12:00:00 AM";"08:00 - 08:59";"04110";"Westlandgracht";"4.84581964";"52.35156868";"24"
"11/23/2020 12:00:00 AM";"08:00 - 08:59";"04112";"Johan Huizingalaan";"4.82742878";"52.34923618";"36"
"11/23/2020 12:00:00 AM";"08:00 - 08:59";"04129";"Derkinderenstraat";"4.83926482";"52.36415734";"20"
"11/23/2020 12:00:00 AM";"08:00 - 08:59";"04132";"Jan Tooropstraat";"4.83537474";"52.36411231";"14"
"11/23/2020 12:00:00 AM";"08:00 - 08:59";"04133";"Robert Fruinlaan";"4.82910660";"52.36403799";"12"
"11/23/2020 12:00:00 AM";"08:00 - 08:59";"04148";"Louis Davidsstraat";"4.80952552";"52.35356316";"87"
"11/23/2020 12:00:00 AM";"08:00 - 08:59";"04195";"Station Lelylaan";"4.83460082";"52.35788018";"132"
"11/23/2020 12:00:00 AM";"08:00 - 08:59";"04196";"Station Lelylaan";"4.83382251";"52.35790351";"89"
"11/23/2020 12:00:00 AM";"08:00 - 08:59";"04267";"Schiphol Airport/Plaza";"4.76139455";"52.30887344";"28"
"11/23/2020 12:00:00 AM";"08:00 - 08:59";"04277";"Laan v.Vlaanderen";"4.81642720";"52.34648730";"16"
"11/23/2020 12:00:00 AM";"08:00 - 08:59";"04279";"Kasterleepark";"4.81104243";"52.34638930";"15"
"11/23/2020 12:00:00 AM";"08:00 - 08:59";"04379";"Knooppunt Schiphol Nrd";"4.79320459";"52.32276196";"21"
"11/23/2020 12:00:00 AM";"08:00 - 08:59";"04402";"Matterhorn";"4.77477998";"52.35372103";"20"
"11/23/2020 12:00:00 AM";"08:00 - 08:59";"04405";"Inaristraat";"4.78342793";"52.35030515";"11"
"11/23/2020 12:00:00 AM";"08:00 - 08:59";"04407";"Ecuplein";"4.78817670";"52.34970912";"12"
"11/23/2020 12:00:00 AM";"08:00 - 08:59";"04409";"Baden Powellweg";"4.79441281";"52.35092691";"34"
"11/23/2020 12:00:00 AM";"08:00 - 08:59";"04411";"Hoekenes";"4.80183430";"52.35243785";"14"
"11/23/2020 12:00:00 AM";"08:00 - 08:59";"04413";"Louis Davidsstraat";"4.80850916";"52.35383682";"106"
"11/23/2020 12:00:00 AM";"08:00 - 08:59";"04414";"Louis Davidsstraat";"4.80910976";"52.35392963";"24"
"11/23/2020 12:00:00 AM";"08:00 - 08:59";"05011";"Centraal Station";"4.89921803";"52.37810793";"126"
"11/23/2020 12:00:00 AM";"08:00 - 08:59";"05022";"Centraal Station";"4.90104337";"52.37771998";"84"
"11/23/2020 12:00:00 AM";"08:00 - 08:59";"05031";"Dam";"4.89348394";"52.37341055";"19"
"11/23/2020 12:00:00 AM";"08:00 - 08:59";"05032";"Dam";"4.89549360";"52.37492885";"13"
"11/23/2020 12:00:00 AM";"08:00 - 08:59";"05047";"Rembrandtplein";"4.89702882";"52.36623511";"25"
"11/23/2020 12:00:00 AM";"08:00 - 08:59";"05052";"Waterlooplein";"4.90234715";"52.36727262";"10"
"11/23/2020 12:00:00 AM";"08:00 - 08:59";"05062";"Spui";"4.88925912";"52.36909673";"20"
"11/23/2020 12:00:00 AM";"08:00 - 08:59";"05063";"Dam";"4.89064590";"52.37244599";"15"
"11/23/2020 12:00:00 AM";"08:00 - 08:59";"05065";"Dam";"4.89079364";"52.37367792";"37"
"11/23/2020 12:00:00 AM";"08:00 - 08:59";"05066";"Dam";"4.89027056";"52.37318140";"40"
"11/23/2020 12:00:00 AM";"08:00 - 08:59";"05069";"Nieuwezijds Kolk";"4.89373093";"52.37628765";"13"
"11/23/2020 12:00:00 AM";"08:00 - 08:59";"05073";"Westermarkt";"4.88453426";"52.37400204";"47"
"11/23/2020 12:00:00 AM";"08:00 - 08:59";"05074";"Westermarkt";"4.88354950";"52.37407874";"67"
"11/23/2020 12:00:00 AM";"08:00 - 08:59";"05077";"Marnixstraat";"4.87615428";"52.37228546";"17"
"11/23/2020 12:00:00 AM";"08:00 - 08:59";"05080";"Buiten Oranjestraat";"4.88782167";"52.38330923";"16"
"11/23/2020 12:00:00 AM";"08:00 - 08:59";"05082";"Buiten Brouwersstraat";"4.89129168";"52.38167008";"20"
"11/23/2020 12:00:00 AM";"08:00 - 08:59";"05092";"Barentszplein";"4.89160204";"52.38938281";"12"
"11/23/2020 12:00:00 AM";"08:00 - 08:59";"05097";"Centraal Station";"4.90087651";"52.37954379";"29"
"11/23/2020 12:00:00 AM";"08:00 - 08:59";"05103";"Centraal Station";"4.90127481";"52.37938365";"25"
"11/23/2020 12:00:00 AM";"08:00 - 08:59";"05104";"Centraal Station";"4.90164343";"52.37925034";"18"
"11/23/2020 12:00:00 AM";"08:00 - 08:59";"05105";"Centraal Station";"4.90187762";"52.37932321";"18"
"11/23/2020 12:00:00 AM";"08:00 - 08:59";"05107";"Centraal Station";"4.90195282";"52.37916174";"10"
"11/23/2020 12:00:00 AM";"08:00 - 08:59";"05154";"Marnixstraat";"4.87536375";"52.37207533";"10"
"11/23/2020 12:00:00 AM";"08:00 - 08:59";"06001";"Surinameplein";"4.85252231";"52.35807034";"39"
"11/23/2020 12:00:00 AM";"08:00 - 08:59";"06002";"Surinameplein";"4.85090753";"52.35807202";"14"
"11/23/2020 12:00:00 AM";"08:00 - 08:59";"06008";"Surinameplein";"4.85209576";"52.35814031";"10"
"11/23/2020 12:00:00 AM";"08:00 - 08:59";"06010";"Corantijnstraat";"4.85326125";"52.36131825";"11"
"11/23/2020 12:00:00 AM";"08:00 - 08:59";"06015";"Postjesweg";"4.85316124";"52.36352879";"10"
"11/23/2020 12:00:00 AM";"08:00 - 08:59";"06016";"J.P. Heijestraat";"4.86239635";"52.36472951";"28"
"11/23/2020 12:00:00 AM";"08:00 - 08:59";"06017";"J.P. Heijestraat";"4.86292316";"52.36487565";"14"
"11/23/2020 12:00:00 AM";"08:00 - 08:59";"06019";"Ten Katestraat";"4.86737423";"52.36591988";"39"
"11/23/2020 12:00:00 AM";"08:00 - 08:59";"06020";"Ten Katestraat";"4.86773990";"52.36603832";"32"
"11/23/2020 12:00:00 AM";"08:00 - 08:59";"06021";"Bilderdijkstraat";"4.87176488";"52.36712545";"69"
"11/23/2020 12:00:00 AM";"08:00 - 08:59";"06023";"Bilderdijkstraat";"4.87254032";"52.36736251";"22"
"11/23/2020 12:00:00 AM";"08:00 - 08:59";"06024";"Kinkerstraat";"4.87230885";"52.36706491";"20"
"11/23/2020 12:00:00 AM";"08:00 - 08:59";"06025";"Kinkerstraat";"4.87201094";"52.36743211";"12"
"11/23/2020 12:00:00 AM";"08:00 - 08:59";"06027";"Elandsgracht";"4.87855189";"52.36808953";"23"
"11/23/2020 12:00:00 AM";"08:00 - 08:59";"06028";"Elandsgracht";"4.87741694";"52.36974738";"50"
"11/23/2020 12:00:00 AM";"08:00 - 08:59";"06029";"Elandsgracht";"4.87684368";"52.36852258";"117"
"11/23/2020 12:00:00 AM";"08:00 - 08:59";"06030";"Rozengracht";"4.87590932";"52.37187996";"16"
"11/23/2020 12:00:00 AM";"08:00 - 08:59";"06034";"Bilderdijkstraat";"4.87082347";"52.37105798";"21"
"11/23/2020 12:00:00 AM";"08:00 - 08:59";"06037";"Bilderdijkstraat";"4.86985701";"52.37082906";"41"
"11/23/2020 12:00:00 AM";"08:00 - 08:59";"06038";"De Clercqstraat";"4.87040279";"52.37061574";"10"
"11/23/2020 12:00:00 AM";"08:00 - 08:59";"06043";"Overtoom";"4.87510145";"52.36299659";"20"
"11/23/2020 12:00:00 AM";"08:00 - 08:59";"06044";"Overtoom";"4.87483191";"52.36345380";"12"
"11/23/2020 12:00:00 AM";"08:00 - 08:59";"06045";"1e Con. Huygensstraat";"4.87399228";"52.36242556";"29"
"11/23/2020 12:00:00 AM";"08:00 - 08:59";"06046";"1e Con. Huygensstraat";"4.87487082";"52.36262709";"60"
"11/23/2020 12:00:00 AM";"08:00 - 08:59";"06048";"J.P. Heijestraat";"4.86585368";"52.36037674";"25"
"11/23/2020 12:00:00 AM";"08:00 - 08:59";"06049";"J.P. Heijestraat";"4.86671778";"52.36055131";"27"
"11/23/2020 12:00:00 AM";"08:00 - 08:59";"06059";"Spiegelgracht";"4.88762090";"52.36071327";"15"
"11/23/2020 12:00:00 AM";"08:00 - 08:59";"06061";"Leidseplein";"4.88339576";"52.36305015";"32"
"11/23/2020 12:00:00 AM";"08:00 - 08:59";"06063";"Leidseplein";"4.88064547";"52.36476406";"21"
"11/23/2020 12:00:00 AM";"08:00 - 08:59";"06072";"Prinsengracht";"4.88428435";"52.36495933";"25"
"11/23/2020 12:00:00 AM";"08:00 - 08:59";"06074";"Keizersgracht";"4.88624128";"52.36588437";"21"
"11/23/2020 12:00:00 AM";"08:00 - 08:59";"06075";"Koningsplein";"4.88942793";"52.36713812";"13"
"11/23/2020 12:00:00 AM";"08:00 - 08:59";"06076";"Koningsplein";"4.88857910";"52.36689188";"33"
"11/23/2020 12:00:00 AM";"08:00 - 08:59";"06081";"Rhijnvis Feithstraat";"4.86039355";"52.35905833";"15"
"11/23/2020 12:00:00 AM";"08:00 - 08:59";"06082";"Rhijnvis Feithstraat";"4.85967683";"52.35883943";"12"
"11/23/2020 12:00:00 AM";"08:00 - 08:59";"06089";"Leidseplein";"4.88085541";"52.36309324";"49"
"11/23/2020 12:00:00 AM";"08:00 - 08:59";"06114";"Hoofdweg";"4.85444451";"52.36425359";"17"
"11/23/2020 12:00:00 AM";"08:00 - 08:59";"06115";"Postjesweg";"4.85319014";"52.36478720";"15"
"11/23/2020 12:00:00 AM";"08:00 - 08:59";"07002";"Van Baerlestraat";"4.87836936";"52.35839997";"20"
"11/23/2020 12:00:00 AM";"08:00 - 08:59";"07006";"Museumplein";"4.87980116";"52.35642881";"34"
"11/23/2020 12:00:00 AM";"08:00 - 08:59";"07007";"Museumplein";"4.87950215";"52.35690388";"88"
"11/23/2020 12:00:00 AM";"08:00 - 08:59";"07014";"Kastelenstraat";"4.87944660";"52.32583291";"17"
"11/23/2020 12:00:00 AM";"08:00 - 08:59";"07015";"Roelof Hartplein";"4.88206971";"52.35314900";"31"
"11/23/2020 12:00:00 AM";"08:00 - 08:59";"07016";"Roelof Hartplein";"4.88286688";"52.35274795";"65"
"11/23/2020 12:00:00 AM";"08:00 - 08:59";"07017";"Roelof Hartplein";"4.88206086";"52.35263666";"19"
"11/23/2020 12:00:00 AM";"08:00 - 08:59";"07021";"Kastelenstraat";"4.87955984";"52.32619291";"17"
"11/23/2020 12:00:00 AM";"08:00 - 08:59";"07027";"Corn. Schuytstraat";"4.87051458";"52.35597520";"20"
"11/23/2020 12:00:00 AM";"08:00 - 08:59";"07028";"Corn. Schuytstraat";"4.87088070";"52.35604870";"20"
"11/23/2020 12:00:00 AM";"08:00 - 08:59";"07031";"Valeriusplein";"4.86374943";"52.35333004";"22"
"11/23/2020 12:00:00 AM";"08:00 - 08:59";"07032";"Valeriusplein";"4.86326678";"52.35318410";"18"
"11/23/2020 12:00:00 AM";"08:00 - 08:59";"07033";"Amstelveenseweg";"4.85695925";"52.35161911";"19"
"11/23/2020 12:00:00 AM";"08:00 - 08:59";"07034";"Amstelveenseweg";"4.85596467";"52.35132704";"17"
"11/23/2020 12:00:00 AM";"08:00 - 08:59";"07035";"Zeilstraat";"4.85672894";"52.35124059";"16"
"11/23/2020 12:00:00 AM";"08:00 - 08:59";"07045";"Haarlemmermeerstraat";"4.85023862";"52.35512100";"10"
"11/23/2020 12:00:00 AM";"08:00 - 08:59";"07048";"Hoofddorpplein";"4.85010578";"52.35154327";"21"
"11/23/2020 12:00:00 AM";"08:00 - 08:59";"07049";"Hoofddorpplein";"4.84958188";"52.35117239";"32"
"11/23/2020 12:00:00 AM";"08:00 - 08:59";"07050";"Haarlemmermeerstation";"4.85744749";"52.34883508";"20"
"11/23/2020 12:00:00 AM";"08:00 - 08:59";"07083";"Gerrit v.d. Veenstraat";"4.87735929";"52.34921014";"65"
"11/23/2020 12:00:00 AM";"08:00 - 08:59";"07084";"Gerrit v.d. Veenstraat";"4.87720177";"52.34886793";"51"
"11/23/2020 12:00:00 AM";"08:00 - 08:59";"07088";"Stadionweg";"4.87687497";"52.34665553";"35"
"11/23/2020 12:00:00 AM";"08:00 - 08:59";"07097";"Olympiaplein";"4.86582821";"52.34630180";"15"
"11/23/2020 12:00:00 AM";"08:00 - 08:59";"07098";"Olympiaplein";"4.86659057";"52.34636807";"24"
"11/23/2020 12:00:00 AM";"08:00 - 08:59";"07108";"Olympiaweg";"4.85873730";"52.34528169";"12"
"11/23/2020 12:00:00 AM";"08:00 - 08:59";"07116";"Haarl'meerstation";"4.85760410";"52.34924023";"15"
"11/23/2020 12:00:00 AM";"08:00 - 08:59";"07120";"Olympiaweg";"4.85834130";"52.34526195";"10"
"11/23/2020 12:00:00 AM";"08:00 - 08:59";"07130";"Pr. Irenestraat";"4.86819699";"52.34202504";"17"
"11/23/2020 12:00:00 AM";"08:00 - 08:59";"07138";"De Boelelaan/VU";"4.86910356";"52.33475789";"14"
"11/23/2020 12:00:00 AM";"08:00 - 08:59";"07157";"Van Heenvlietlaan";"4.88302129";"52.32494043";"11"
"11/23/2020 12:00:00 AM";"08:00 - 08:59";"07186";"Pr. Irenestraat";"4.87677483";"52.34260161";"17"
"11/23/2020 12:00:00 AM";"08:00 - 08:59";"07190";"Station Zuid";"4.87352214";"52.34089784";"12"
"11/23/2020 12:00:00 AM";"08:00 - 08:59";"07191";"Station Zuid";"4.87340673";"52.34072657";"16"
"11/23/2020 12:00:00 AM";"08:00 - 08:59";"07193";"Station Zuid";"4.87334616";"52.34088808";"27"
"11/23/2020 12:00:00 AM";"08:00 - 08:59";"07195";"Oranjebaan";"4.87311228";"52.30278774";"28"
"11/23/2020 12:00:00 AM";"08:00 - 08:59";"07198";"Oranjebaan";"4.87333874";"52.30348977";"31"
"11/23/2020 12:00:00 AM";"08:00 - 08:59";"07205";"IJsbaanpad";"4.85773817";"52.34169110";"12"
"11/23/2020 12:00:00 AM";"08:00 - 08:59";"07207";"IJsbaanpad";"4.85756146";"52.34051291";"10"
"11/23/2020 12:00:00 AM";"08:00 - 08:59";"07266";"Station Zuid";"4.87252654";"52.34070477";"45"
"11/23/2020 12:00:00 AM";"08:00 - 08:59";"07268";"Station Zuid";"4.87428608";"52.34082026";"24"
"11/23/2020 12:00:00 AM";"08:00 - 08:59";"07269";"Station Zuid";"4.87374306";"52.34082689";"27"
"11/23/2020 12:00:00 AM";"08:00 - 08:59";"07270";"Parnassusweg";"4.86874218";"52.33806382";"22"
"11/23/2020 12:00:00 AM";"08:00 - 08:59";"07303";"VU medisch centrum";"4.86097062";"52.33515342";"29"
"11/23/2020 12:00:00 AM";"08:00 - 08:59";"07307";"Beethovenstraat";"4.87820649";"52.34700280";"15"
"11/23/2020 12:00:00 AM";"08:00 - 08:59";"07321";"Van Baerlestraat";"4.87895796";"52.35827667";"33"
"11/23/2020 12:00:00 AM";"08:00 - 08:59";"07322";"Van Baerlestraat";"4.87971942";"52.35844171";"31"
"11/23/2020 12:00:00 AM";"08:00 - 08:59";"07323";"Rijksmuseum";"4.88355043";"52.35977029";"29"
"11/23/2020 12:00:00 AM";"08:00 - 08:59";"07324";"Rijksmuseum";"4.88332565";"52.36017378";"22"
"11/23/2020 12:00:00 AM";"08:00 - 08:59";"07339";"Nieuw Herlaer";"4.88985946";"52.32602094";"11"
"11/23/2020 12:00:00 AM";"08:00 - 08:59";"07391";"Kronenburg";"4.87070592";"52.31556694";"30"
"11/23/2020 12:00:00 AM";"08:00 - 08:59";"07418";"Van Boshuizenstraat";"4.86902148";"52.32544617";"15"
"11/23/2020 12:00:00 AM";"08:00 - 08:59";"07419";"Van Boshuizenstraat";"4.86896941";"52.32487971";"163"
"11/23/2020 12:00:00 AM";"08:00 - 08:59";"07423";"Uilenstede";"4.86910951";"52.32167168";"32"
"11/23/2020 12:00:00 AM";"08:00 - 08:59";"07435";"Onderuit";"4.87243689";"52.30793483";"13"
"11/23/2020 12:00:00 AM";"08:00 - 08:59";"07439";"Oranjebaan";"4.87179001";"52.30302465";"24"
"11/23/2020 12:00:00 AM";"08:00 - 08:59";"07442";"Zonnestein";"4.87236664";"52.31146674";"26"
"11/23/2020 12:00:00 AM";"08:00 - 08:59";"07445";"Amstelveen Stadshart";"4.86751502";"52.30124433";"31"
"11/23/2020 12:00:00 AM";"08:00 - 08:59";"07448";"A.J. Ernststraat";"4.86887597";"52.33288743";"20"
"11/23/2020 12:00:00 AM";"08:00 - 08:59";"07449";"A.J. Ernststraat";"4.86879476";"52.33230287";"41"
"11/23/2020 12:00:00 AM";"08:00 - 08:59";"07504";"Langerhuize";"4.87793694";"52.29501614";"13"
"11/23/2020 12:00:00 AM";"08:00 - 08:59";"07505";"Ziekenhuis";"4.87154263";"52.29401774";"22"
"11/23/2020 12:00:00 AM";"08:00 - 08:59";"07506";"Groenhof";"4.86811736";"52.28858308";"14"
"11/23/2020 12:00:00 AM";"08:00 - 08:59";"07509";"Praam";"4.85570317";"52.27999842";"15"
"11/23/2020 12:00:00 AM";"08:00 - 08:59";"07513";"Sacharovlaan";"4.83264484";"52.28179795";"29"
"11/23/2020 12:00:00 AM";"08:00 - 08:59";"07523";"Zagerij";"4.84179654";"52.28120238";"19"
"11/23/2020 12:00:00 AM";"08:00 - 08:59";"08007";"Bob Haarmslaan";"4.96921237";"52.36876786";"57"
"11/23/2020 12:00:00 AM";"08:00 - 08:59";"08009";"Bob Haarmslaan";"4.96859205";"52.36915214";"46"
"11/23/2020 12:00:00 AM";"08:00 - 08:59";"08014";"Azartplein";"4.93735640";"52.37682991";"17"
"11/23/2020 12:00:00 AM";"08:00 - 08:59";"08016";"Wittenburgergracht";"4.91969400";"52.36942754";"13"
"11/23/2020 12:00:00 AM";"08:00 - 08:59";"08049";"Alexanderplein";"4.91916567";"52.36383510";"12"
"11/23/2020 12:00:00 AM";"08:00 - 08:59";"08051";"K. 's-Gravesandestr.";"4.91366120";"52.36235720";"20"
"11/23/2020 12:00:00 AM";"08:00 - 08:59";"08052";"K. 's-Gravesandestr.";"4.91550720";"52.36271509";"22"
"11/23/2020 12:00:00 AM";"08:00 - 08:59";"08053";"Weesperplein";"4.90655690";"52.36088154";"22"
"11/23/2020 12:00:00 AM";"08:00 - 08:59";"08054";"Weesperplein";"4.90941338";"52.36145933";"66"
"11/23/2020 12:00:00 AM";"08:00 - 08:59";"08057";"Frederiksplein";"4.90024241";"52.35971430";"26"
"11/23/2020 12:00:00 AM";"08:00 - 08:59";"08058";"Veelaan";"4.93961588";"52.36830916";"19"
"11/23/2020 12:00:00 AM";"08:00 - 08:59";"08059";"Veelaan";"4.93944523";"52.36776026";"11"
"11/23/2020 12:00:00 AM";"08:00 - 08:59";"08060";"Keizersgracht";"4.89833435";"52.36367901";"10"
"11/23/2020 12:00:00 AM";"08:00 - 08:59";"08066";"Frederiksplein";"4.89751569";"52.35937050";"31"
"11/23/2020 12:00:00 AM";"08:00 - 08:59";"08072";"Vijzelgracht";"4.89159781";"52.35953462";"24"
"11/23/2020 12:00:00 AM";"08:00 - 08:59";"08073";"Vijzelgracht";"4.89227386";"52.35946554";"24"
"11/23/2020 12:00:00 AM";"08:00 - 08:59";"08080";"Spiegelgracht";"4.88691222";"52.36106979";"51"
"11/23/2020 12:00:00 AM";"08:00 - 08:59";"08094";"Wijttenbachstraat";"4.92547668";"52.35979743";"13"
"11/23/2020 12:00:00 AM";"08:00 - 08:59";"08095";"Alexanderplein";"4.91969863";"52.36341478";"15"
"11/23/2020 12:00:00 AM";"08:00 - 08:59";"08096";"Alexanderplein";"4.91931589";"52.36351213";"15"
"11/23/2020 12:00:00 AM";"08:00 - 08:59";"08098";"1e v.Swindenstraat";"4.92386708";"52.36210997";"10"
"11/23/2020 12:00:00 AM";"08:00 - 08:59";"08113";"Javaplein";"4.93949828";"52.36395867";"17"
"11/23/2020 12:00:00 AM";"08:00 - 08:59";"08119";"Insulindeweg";"4.94765323";"52.36476217";"10"
"11/23/2020 12:00:00 AM";"08:00 - 08:59";"08120";"Insulindeweg";"4.94763926";"52.36469021";"19"
"11/23/2020 12:00:00 AM";"08:00 - 08:59";"08121";"Soembawastraat";"4.94391980";"52.36224967";"18"
"11/23/2020 12:00:00 AM";"08:00 - 08:59";"08124";"Soembawastraat";"4.94346569";"52.36214910";"44"
"11/23/2020 12:00:00 AM";"08:00 - 08:59";"08129";"Molukkenstraat";"4.93861286";"52.36150167";"40"
"11/23/2020 12:00:00 AM";"08:00 - 08:59";"08132";"Valentijnkade";"4.94079607";"52.35900236";"16"
"11/23/2020 12:00:00 AM";"08:00 - 08:59";"08138";"Zuiderzeeweg";"4.96218432";"52.37129534";"25"
"11/23/2020 12:00:00 AM";"08:00 - 08:59";"08139";"Zuiderzeeweg";"4.96240105";"52.37166461";"44"
"11/23/2020 12:00:00 AM";"08:00 - 08:59";"08179";"K. 's-Gravesandestr.";"4.91480799";"52.36220000";"24"
"11/23/2020 12:00:00 AM";"08:00 - 08:59";"08190";"Molukkenstraat";"4.93934614";"52.36157635";"10"
"11/23/2020 12:00:00 AM";"08:00 - 08:59";"08195";"Oostenburgergracht";"4.92452709";"52.36780177";"15"
"11/23/2020 12:00:00 AM";"08:00 - 08:59";"08219";"Borneolaan";"4.93862058";"52.37090283";"10"
"11/23/2020 12:00:00 AM";"08:00 - 08:59";"08222";"Peter Martensstraat";"5.01391391";"52.34882079";"11"
"11/23/2020 12:00:00 AM";"08:00 - 08:59";"08233";"C. van Eesterenlaan";"4.93812487";"52.37345346";"12"
"11/23/2020 12:00:00 AM";"08:00 - 08:59";"08237";"Kattenburgerstraat";"4.92126795";"52.37614755";"28"
"11/23/2020 12:00:00 AM";"08:00 - 08:59";"08238";"Rietlandpark";"4.93350159";"52.37322013";"24"
"11/23/2020 12:00:00 AM";"08:00 - 08:59";"08239";"Rietlandpark";"4.93413567";"52.37296191";"44"
"11/23/2020 12:00:00 AM";"08:00 - 08:59";"08241";"Zuiderzeeweg";"4.96185517";"52.37193228";"25"
"11/23/2020 12:00:00 AM";"08:00 - 08:59";"08244";"Steigereiland";"4.98083725";"52.36280456";"10"
"11/23/2020 12:00:00 AM";"08:00 - 08:59";"08245";"Steigereiland";"4.98012952";"52.36313467";"30"
"11/23/2020 12:00:00 AM";"08:00 - 08:59";"08247";"Vennepluimstraat";"4.99057242";"52.35769662";"34"
"11/23/2020 12:00:00 AM";"08:00 - 08:59";"08249";"Diemerparklaan";"4.99499716";"52.35532962";"21"
"11/23/2020 12:00:00 AM";"08:00 - 08:59";"08251";"Lumi?restraat";"4.99942127";"52.35298044";"14"
"11/23/2020 12:00:00 AM";"08:00 - 08:59";"08255";"Hoogte Kadijk";"4.92483038";"52.36687722";"10"
"11/23/2020 12:00:00 AM";"08:00 - 08:59";"08257";"1e Coehoornstraat";"4.92618328";"52.36808685";"17"
"11/23/2020 12:00:00 AM";"08:00 - 08:59";"08261";"Rietlandpark";"4.93481067";"52.37300943";"14"
"11/23/2020 12:00:00 AM";"08:00 - 08:59";"08262";"IJburg";"5.00486802";"52.35112872";"140"
"11/23/2020 12:00:00 AM";"08:00 - 08:59";"08270";"Diemerparklaan";"4.99472994";"52.35567027";"15"
"11/23/2020 12:00:00 AM";"08:00 - 08:59";"08281";"Vennepluimstraat";"4.99139941";"52.35714215";"10"
"11/23/2020 12:00:00 AM";"08:00 - 08:59";"08300";"P.Oosterhuisstraat";"5.00693059";"52.35193526";"57"
"11/23/2020 12:00:00 AM";"08:00 - 08:59";"09003";"Dintelstraat";"4.89289498";"52.34192405";"17"
"11/23/2020 12:00:00 AM";"08:00 - 08:59";"09013";"Amstelstation";"4.91790223";"52.34725673";"15"
"11/23/2020 12:00:00 AM";"08:00 - 08:59";"09015";"Amstelstation";"4.91940405";"52.34679531";"15"
"11/23/2020 12:00:00 AM";"08:00 - 08:59";"09023";"Camperstraat";"4.91383551";"52.35840330";"10"
"11/23/2020 12:00:00 AM";"08:00 - 08:59";"09024";"Camperstraat";"4.91339591";"52.35832964";"11"
"11/23/2020 12:00:00 AM";"08:00 - 08:59";"09026";"Amstelstation";"4.91874992";"52.34619953";"11"
"11/23/2020 12:00:00 AM";"08:00 - 08:59";"09049";"Victorieplein";"4.90570139";"52.34637186";"26"
"11/23/2020 12:00:00 AM";"08:00 - 08:59";"09051";"Victorieplein";"4.90653699";"52.34645615";"15"
"11/23/2020 12:00:00 AM";"08:00 - 08:59";"09060";"Waalstraat";"4.90103893";"52.34462715";"14"
"11/23/2020 12:00:00 AM";"08:00 - 08:59";"09064";"Pres. Kennedylaan";"4.90174037";"52.34087315";"17"
"11/23/2020 12:00:00 AM";"08:00 - 08:59";"09065";"Pres. Kennedylaan";"4.90190089";"52.34095470";"12"
"11/23/2020 12:00:00 AM";"08:00 - 08:59";"09074";"Scheldestraat";"4.89116002";"52.34748022";"12"
"11/23/2020 12:00:00 AM";"08:00 - 08:59";"09082";"Waalstraat";"4.89974094";"52.34656317";"54"
"11/23/2020 12:00:00 AM";"08:00 - 08:59";"09083";"Waalstraat";"4.90032528";"52.34680824";"69"
"11/23/2020 12:00:00 AM";"08:00 - 08:59";"09097";"Van Woustraat";"4.90084070";"52.35468363";"33"
"11/23/2020 12:00:00 AM";"08:00 - 08:59";"09108";"2e v.d.Helststraat";"4.89423729";"52.35319131";"19"
"11/23/2020 12:00:00 AM";"08:00 - 08:59";"09109";"2e v.d.Helststraat";"4.89488170";"52.35331982";"15"
"11/23/2020 12:00:00 AM";"08:00 - 08:59";"09111";"De Pijp";"4.89073444";"52.35272728";"29"
"11/23/2020 12:00:00 AM";"08:00 - 08:59";"09114";"De Pijp";"4.88948829";"52.35259622";"36"
"11/23/2020 12:00:00 AM";"08:00 - 08:59";"09120";"Cornelis Troostplein";"4.89161100";"52.35046604";"17"
"11/23/2020 12:00:00 AM";"08:00 - 08:59";"09176";"James Wattstraat";"4.92329155";"52.35116068";"41"
"11/23/2020 12:00:00 AM";"08:00 - 08:59";"09178";"Krugerplein";"4.92080670";"52.35297542";"15"
"11/23/2020 12:00:00 AM";"08:00 - 08:59";"ASA";"Amstelstation";"4.91751426";"52.34647326";"390"
"11/23/2020 12:00:00 AM";"08:00 - 08:59";"ASW";"Amstelveenseweg";"4.85798324";"52.33836671";"404"
"11/23/2020 12:00:00 AM";"08:00 - 08:59";"BLW";"Bullewijk";"4.95233581";"52.30642205";"138"
"11/23/2020 12:00:00 AM";"08:00 - 08:59";"BMR";"Station Bijlmer ArenA";"4.94713474";"52.31193030";"416"
"11/23/2020 12:00:00 AM";"08:00 - 08:59";"CLL";"Station Lelylaan";"4.83426589";"52.35766291";"258"
"11/23/2020 12:00:00 AM";"08:00 - 08:59";"CS";"Centraal Station";"4.90078150";"52.37749421";"601"
"11/23/2020 12:00:00 AM";"08:00 - 08:59";"DMZ";"Station Diemen-Zuid";"4.95713273";"52.33042795";"61"
"11/23/2020 12:00:00 AM";"08:00 - 08:59";"DPP";"De Pijp";"4.89101069";"52.35296212";"385"
"11/23/2020 12:00:00 AM";"08:00 - 08:59";"DVD";"Station Duivendrecht";"4.93678429";"52.32325190";"89"
"11/23/2020 12:00:00 AM";"08:00 - 08:59";"EPP";"Europaplein";"4.89138430";"52.34185482";"466"
"11/23/2020 12:00:00 AM";"08:00 - 08:59";"GN";"Gein";"4.98952268";"52.29627089";"104"
"11/23/2020 12:00:00 AM";"08:00 - 08:59";"GPP";"Gaasperplas";"4.98468551";"52.31080575";"33"
"11/23/2020 12:00:00 AM";"08:00 - 08:59";"GZH";"Station Ganzenhoef";"4.97323379";"52.32331315";"53"
"11/23/2020 12:00:00 AM";"08:00 - 08:59";"HDS";"Heemstedestraat";"4.83421208";"52.35255760";"90"
"11/23/2020 12:00:00 AM";"08:00 - 08:59";"HLD";"Station Holendrecht";"4.96021904";"52.29780451";"494"
"11/23/2020 12:00:00 AM";"08:00 - 08:59";"HVW";"Henk Sneevlietweg";"4.83439318";"52.34626699";"518"
"11/23/2020 12:00:00 AM";"08:00 - 08:59";"ITW";"Isolatorweg";"4.85013475";"52.39523277";"297"
"11/23/2020 12:00:00 AM";"08:00 - 08:59";"JLS";"Jan v.Galenstraat";"4.83492461";"52.37196551";"335"
"11/23/2020 12:00:00 AM";"08:00 - 08:59";"KEN";"Kraaienneststation";"4.97963450";"52.31632492";"42"
"11/23/2020 12:00:00 AM";"08:00 - 08:59";"MDW";"Van der Madeweg";"4.93048657";"52.32945629";"124"
"11/23/2020 12:00:00 AM";"08:00 - 08:59";"ND";"Noord";"4.93123182";"52.40117202";"273"
"11/23/2020 12:00:00 AM";"08:00 - 08:59";"NDP";"Noorderpark";"4.91789115";"52.38855518";"239"
"11/23/2020 12:00:00 AM";"08:00 - 08:59";"NMT";"Nieuwmarkt";"4.90123885";"52.37194169";"106"
"11/23/2020 12:00:00 AM";"08:00 - 08:59";"OAS";"Overamstel";"4.91815361";"52.33179879";"104"
"11/23/2020 12:00:00 AM";"08:00 - 08:59";"PJW";"Postjesweg";"4.83385543";"52.36468044";"306"
"11/23/2020 12:00:00 AM";"08:00 - 08:59";"RAI";"Station RAI";"4.88982004";"52.33739931";"274"
"11/23/2020 12:00:00 AM";"08:00 - 08:59";"RGB";"Reigersbos";"4.97473728";"52.29566301";"225"
"11/23/2020 12:00:00 AM";"08:00 - 08:59";"RKN";"Rokin";"4.89229651";"52.36928023";"267"
"11/23/2020 12:00:00 AM";"08:00 - 08:59";"SLW";"Spaklerweg";"4.92085640";"52.33986250";"118"
"11/23/2020 12:00:00 AM";"08:00 - 08:59";"STD";"Station Sloterdijk";"4.83878389";"52.38880848";"302"
"11/23/2020 12:00:00 AM";"08:00 - 08:59";"SVT";"Strandvliet";"4.94152820";"52.31825469";"160"
"11/23/2020 12:00:00 AM";"08:00 - 08:59";"VLN";"Burg.de Vlugtlaan";"4.83809109";"52.37951196";"50"
"11/23/2020 12:00:00 AM";"08:00 - 08:59";"VPD";"Venserpolder";"4.94665009";"52.32679428";"105"
"11/23/2020 12:00:00 AM";"08:00 - 08:59";"VSW";"Verrijn Stuartweg";"4.96693669";"52.32844093";"55"
"11/23/2020 12:00:00 AM";"08:00 - 08:59";"VZG";"Vijzelgracht";"4.89072870";"52.35980061";"195"
"11/23/2020 12:00:00 AM";"08:00 - 08:59";"WBS";"Wibautstraat";"4.91202993";"52.35428867";"281"
"11/23/2020 12:00:00 AM";"08:00 - 08:59";"WLP";"Waterlooplein";"4.90298171";"52.36697862";"260"
"11/23/2020 12:00:00 AM";"08:00 - 08:59";"WPP";"Weesperplein";"4.90787469";"52.36120146";"497"
"11/23/2020 12:00:00 AM";"08:00 - 08:59";"WTC";"Station Zuid";"4.87509853";"52.33908015";"928"
"11/23/2020 12:00:00 AM";"09:00 - 09:59";"";"Overig";"";"";"2347"
"11/23/2020 12:00:00 AM";"09:00 - 09:59";"[[ Onb";"[[ Onbekend ]]";"0.00000000";"0.00000000";"235"
"11/23/2020 12:00:00 AM";"09:00 - 09:59";"00005";"Muiderpoortstation";"4.93280219";"52.36121887";"36"
"11/23/2020 12:00:00 AM";"09:00 - 09:59";"00006";"Muiderpoortstation";"4.93368466";"52.36106048";"12"
"11/23/2020 12:00:00 AM";"09:00 - 09:59";"00008";"Dapperstraat";"4.92977913";"52.36110836";"39"
"11/23/2020 12:00:00 AM";"09:00 - 09:59";"00010";"Dapperstraat";"4.92891486";"52.36092527";"21"
"11/23/2020 12:00:00 AM";"09:00 - 09:59";"00017";"Linnaeusstraat";"4.92573745";"52.36013099";"18"
"11/23/2020 12:00:00 AM";"09:00 - 09:59";"00020";"Beukenweg";"4.91674979";"52.35906203";"19"
"11/23/2020 12:00:00 AM";"09:00 - 09:59";"00021";"Beukenweg";"4.91721293";"52.35829991";"35"
"11/23/2020 12:00:00 AM";"09:00 - 09:59";"00023";"Beukenplein";"4.91809259";"52.35701816";"21"
"11/23/2020 12:00:00 AM";"09:00 - 09:59";"00029";"Oostpoort";"4.92719316";"52.35707185";"35"
"11/23/2020 12:00:00 AM";"09:00 - 09:59";"00030";"Oostpoort";"4.92694026";"52.35739442";"24"
"11/23/2020 12:00:00 AM";"09:00 - 09:59";"00039";"Hogeweg";"4.93084015";"52.35358075";"21"
"11/23/2020 12:00:00 AM";"09:00 - 09:59";"00040";"Hogeweg";"4.93135765";"52.35321425";"17"
"11/23/2020 12:00:00 AM";"09:00 - 09:59";"00059";"Radioweg";"4.93945830";"52.35337100";"26"
"11/23/2020 12:00:00 AM";"09:00 - 09:59";"00060";"Radioweg";"4.93979325";"52.35363291";"10"
"11/23/2020 12:00:00 AM";"09:00 - 09:59";"00070";"Kruislaan";"4.93993910";"52.34789929";"13"
"11/23/2020 12:00:00 AM";"09:00 - 09:59";"00074";"Brinkstraat";"4.94797289";"52.34285131";"12"
"11/23/2020 12:00:00 AM";"09:00 - 09:59";"00114";"Dennenrode";"4.95213839";"52.32209601";"16"
"11/23/2020 12:00:00 AM";"09:00 - 09:59";"00116";"Station Ganzenhoef";"4.97272915";"52.32237665";"14"
"11/23/2020 12:00:00 AM";"09:00 - 09:59";"00141";"Kraaienneststation";"4.97868390";"52.31603403";"19"
"11/23/2020 12:00:00 AM";"09:00 - 09:59";"00150";"Tulastraat";"4.96535973";"52.31994189";"52"
"11/23/2020 12:00:00 AM";"09:00 - 09:59";"00151";"Tulastraat";"4.96584458";"52.31985374";"34"
"11/23/2020 12:00:00 AM";"09:00 - 09:59";"00152";"Florijn";"4.95859163";"52.31758973";"12"
"11/23/2020 12:00:00 AM";"09:00 - 09:59";"00197";"Annie Romeinplein";"4.97162041";"52.32173463";"10"
"11/23/2020 12:00:00 AM";"09:00 - 09:59";"00205";"Station Holendrecht";"4.95865657";"52.29716971";"17"
"11/23/2020 12:00:00 AM";"09:00 - 09:59";"00238";"Anton de Komplein";"4.95413359";"52.31603659";"34"
"11/23/2020 12:00:00 AM";"09:00 - 09:59";"00239";"Anton de Komplein";"4.95597669";"52.31652866";"19"
"11/23/2020 12:00:00 AM";"09:00 - 09:59";"00330";"Middenweg";"4.93455629";"52.35044932";"13"
"11/23/2020 12:00:00 AM";"09:00 - 09:59";"00331";"Station Reigersbos";"4.97350466";"52.29737537";"25"
"11/23/2020 12:00:00 AM";"09:00 - 09:59";"00351";"Dostojevskisingel";"4.94525272";"52.32275356";"21"
"11/23/2020 12:00:00 AM";"09:00 - 09:59";"00432";"Diemerbrug";"4.96142958";"52.33824484";"18"
"11/23/2020 12:00:00 AM";"09:00 - 09:59";"00441";"Muiderpoortstation";"4.93254137";"52.36088532";"12"
"11/23/2020 12:00:00 AM";"09:00 - 09:59";"00444";"Linnaeusstraat";"4.92490296";"52.35991203";"25"
"11/23/2020 12:00:00 AM";"09:00 - 09:59";"00464";"Hogeschool InHolland";"4.95958754";"52.32687769";"10"
"11/23/2020 12:00:00 AM";"09:00 - 09:59";"00491";"Science Park Aer";"4.95218495";"52.35478458";"10"
"11/23/2020 12:00:00 AM";"09:00 - 09:59";"00515";"Station Duivendrecht";"4.93669692";"52.32318866";"12"
"11/23/2020 12:00:00 AM";"09:00 - 09:59";"00538";"Station Science Park";"4.94808393";"52.35239669";"11"
"11/23/2020 12:00:00 AM";"09:00 - 09:59";"00553";"Kraaienneststation";"4.98073727";"52.31601414";"13"
"11/23/2020 12:00:00 AM";"09:00 - 09:59";"00561";"Station Bijlmer ArenA";"4.94741931";"52.31132918";"34"
"11/23/2020 12:00:00 AM";"09:00 - 09:59";"00562";"Station Bijlmer ArenA";"4.94736012";"52.31138289";"21"
"11/23/2020 12:00:00 AM";"09:00 - 09:59";"00568";"Station Bijlmer ArenA";"4.94762664";"52.31112323";"10"
"11/23/2020 12:00:00 AM";"09:00 - 09:59";"01078";"Dijkmanshuizenstraat";"4.95475323";"52.39549915";"10"
"11/23/2020 12:00:00 AM";"09:00 - 09:59";"01110";"Rode Kruisstraat";"4.92847908";"52.39455548";"37"
"11/23/2020 12:00:00 AM";"09:00 - 09:59";"01111";"Rode Kruisstraat";"4.92881363";"52.39488033";"81"
"11/23/2020 12:00:00 AM";"09:00 - 09:59";"01116";"Merelstraat";"4.92492850";"52.38986809";"14"
"11/23/2020 12:00:00 AM";"09:00 - 09:59";"01117";"Merelstraat";"4.92505977";"52.38995848";"13"
"11/23/2020 12:00:00 AM";"09:00 - 09:59";"01155";"Mosplein";"4.91358361";"52.39300490";"13"
"11/23/2020 12:00:00 AM";"09:00 - 09:59";"01191";"Pinksterbloemstraat";"4.91203754";"52.39881372";"28"
"11/23/2020 12:00:00 AM";"09:00 - 09:59";"01237";"Beemsterstraat";"4.95210741";"52.39712521";"15"
"11/23/2020 12:00:00 AM";"09:00 - 09:59";"01305";"Station Noord";"4.93215715";"52.40264056";"10"
"11/23/2020 12:00:00 AM";"09:00 - 09:59";"01315";"Station Noord";"4.93339740";"52.40206112";"26"
"11/23/2020 12:00:00 AM";"09:00 - 09:59";"01316";"Station Noord";"4.93336820";"52.40204304";"19"
"11/23/2020 12:00:00 AM";"09:00 - 09:59";"01369";"Pomonastraat";"4.89546974";"52.40886620";"12"
"11/23/2020 12:00:00 AM";"09:00 - 09:59";"01414";"Olof Palmeplein";"4.94012168";"52.39679298";"13"
"11/23/2020 12:00:00 AM";"09:00 - 09:59";"01417";"Johan v.Hasseltweg";"4.92309870";"52.38784770";"14"
"11/23/2020 12:00:00 AM";"09:00 - 09:59";"01422";"Noorderpark";"4.91956087";"52.38902016";"21"
"11/23/2020 12:00:00 AM";"09:00 - 09:59";"01443";"Volendammerweg";"4.95697086";"52.39255928";"11"
"11/23/2020 12:00:00 AM";"09:00 - 09:59";"02018";"Koivistokade";"4.87577082";"52.39789874";"22"
"11/23/2020 12:00:00 AM";"09:00 - 09:59";"02081";"Haparandaweg";"4.87212228";"52.39451255";"20"
"11/23/2020 12:00:00 AM";"09:00 - 09:59";"02103";"Spaarndammerstraat";"4.87765867";"52.39216375";"25"
"11/23/2020 12:00:00 AM";"09:00 - 09:59";"02113";"Haarlemmerplein";"4.88371739";"52.38516129";"19"
"11/23/2020 12:00:00 AM";"09:00 - 09:59";"02114";"Haarlemmerplein";"4.88341252";"52.38484542";"29"
"11/23/2020 12:00:00 AM";"09:00 - 09:59";"02126";"Bloemgracht";"4.87658402";"52.37449829";"10"
"11/23/2020 12:00:00 AM";"09:00 - 09:59";"02130";"Hugo de Grootplein";"4.87259092";"52.37439113";"14"
"11/23/2020 12:00:00 AM";"09:00 - 09:59";"02132";"Fred. Hendrikplants.";"4.87543499";"52.37862768";"26"
"11/23/2020 12:00:00 AM";"09:00 - 09:59";"02145";"Van Hallstraat";"4.86990682";"52.38418503";"10"
"11/23/2020 12:00:00 AM";"09:00 - 09:59";"02155";"Willem de Zwijgerlaan";"4.86360306";"52.37071170";"16"
"11/23/2020 12:00:00 AM";"09:00 - 09:59";"02156";"Willem de Zwijgerlaan";"4.86425293";"52.37039101";"20"
"11/23/2020 12:00:00 AM";"09:00 - 09:59";"02157";"Adm. de Ruijterweg";"4.86009910";"52.37148707";"16"
"11/23/2020 12:00:00 AM";"09:00 - 09:59";"02158";"Adm. de Ruijterweg";"4.86096776";"52.37129320";"12"
"11/23/2020 12:00:00 AM";"09:00 - 09:59";"02160";"Haparandaweg";"4.87389760";"52.39471799";"12"
"11/23/2020 12:00:00 AM";"09:00 - 09:59";"02170";"Spaarndammerstraat";"4.87723089";"52.39231470";"12"
"11/23/2020 12:00:00 AM";"09:00 - 09:59";"02177";"Bos en Lommerweg";"4.85521256";"52.38101018";"15"
"11/23/2020 12:00:00 AM";"09:00 - 09:59";"02182";"Markthallen";"4.86695146";"52.37567869";"42"
"11/23/2020 12:00:00 AM";"09:00 - 09:59";"02183";"Markthallen";"4.86667150";"52.37575835";"13"
"11/23/2020 12:00:00 AM";"09:00 - 09:59";"02193";"Marnixplein";"4.87844490";"52.37741832";"46"
"11/23/2020 12:00:00 AM";"09:00 - 09:59";"02222";"Jan van Galenstraat";"4.85874763";"52.37399761";"24"
"11/23/2020 12:00:00 AM";"09:00 - 09:59";"02259";"Contactweg";"4.85657970";"52.39195435";"48"
"11/23/2020 12:00:00 AM";"09:00 - 09:59";"02260";"Contactweg";"4.85432952";"52.39215995";"28"
"11/23/2020 12:00:00 AM";"09:00 - 09:59";"02301";"Fred. Hendrikplants.";"4.87521585";"52.37852787";"23"
"11/23/2020 12:00:00 AM";"09:00 - 09:59";"02302";"Fred. Hendrikplants.";"4.87549415";"52.37859198";"26"
"11/23/2020 12:00:00 AM";"09:00 - 09:59";"02309";"Plesostraat";"4.82645527";"52.38795084";"21"
"11/23/2020 12:00:00 AM";"09:00 - 09:59";"02310";"Plesostraat";"4.82849791";"52.38788859";"24"
"11/23/2020 12:00:00 AM";"09:00 - 09:59";"02319";"Solebaystraat";"4.85540788";"52.38431853";"14"
"11/23/2020 12:00:00 AM";"09:00 - 09:59";"02321";"Van Hallstraat";"4.86864429";"52.38538386";"17"
"11/23/2020 12:00:00 AM";"09:00 - 09:59";"02361";"Station Sloterdijk";"4.83931858";"52.38833460";"54"
"11/23/2020 12:00:00 AM";"09:00 - 09:59";"02366";"Station Sloterdijk";"4.83873347";"52.38813416";"18"
"11/23/2020 12:00:00 AM";"09:00 - 09:59";"02367";"Station Sloterdijk";"4.83876429";"52.38801747";"19"
"11/23/2020 12:00:00 AM";"09:00 - 09:59";"02368";"Station Sloterdijk";"4.83877999";"52.38793665";"12"
"11/23/2020 12:00:00 AM";"09:00 - 09:59";"02370";"Station Sloterdijk";"4.83879745";"52.38771204";"22"
"11/23/2020 12:00:00 AM";"09:00 - 09:59";"03009";"Witte de Withstraat";"4.85851970";"52.36478416";"29"
"11/23/2020 12:00:00 AM";"09:00 - 09:59";"03010";"Witte de Withstraat";"4.85928290";"52.36480554";"29"
"11/23/2020 12:00:00 AM";"09:00 - 09:59";"03022";"Mercatorplein";"4.85070310";"52.37012367";"10"
"11/23/2020 12:00:00 AM";"09:00 - 09:59";"03034";"Erasmusgracht";"4.84691117";"52.37644278";"11"
"11/23/2020 12:00:00 AM";"09:00 - 09:59";"03038";"Bos en Lommerweg";"4.85369544";"52.38014952";"10"
"11/23/2020 12:00:00 AM";"09:00 - 09:59";"03052";"Burg. Eliasstraat";"4.82565009";"52.38077481";"10"
"11/23/2020 12:00:00 AM";"09:00 - 09:59";"03055";"Burg. Fockstraat";"4.83108040";"52.37991964";"11"
"11/23/2020 12:00:00 AM";"09:00 - 09:59";"03061";"Bos en Lommerplein";"4.84523530";"52.37778328";"23"
"11/23/2020 12:00:00 AM";"09:00 - 09:59";"03076";"Jan Tooropstraat";"4.83810313";"52.37142305";"15"
"11/23/2020 12:00:00 AM";"09:00 - 09:59";"03077";"Jan Tooropstraat";"4.83817288";"52.37171997";"14"
"11/23/2020 12:00:00 AM";"09:00 - 09:59";"03087";"Plein '40 - '45";"4.82063128";"52.38159575";"31"
"11/23/2020 12:00:00 AM";"09:00 - 09:59";"03090";"Slotermeerlaan";"4.81728149";"52.37596234";"20"
"11/23/2020 12:00:00 AM";"09:00 - 09:59";"03108";"Herman Bonpad";"4.80080718";"52.36796367";"78"
"11/23/2020 12:00:00 AM";"09:00 - 09:59";"03109";"Herman Bonpad";"4.80064754";"52.36893356";"16"
"11/23/2020 12:00:00 AM";"09:00 - 09:59";"03121";"Aalbersestraat";"4.79774249";"52.38202329";"15"
"11/23/2020 12:00:00 AM";"09:00 - 09:59";"03129";"Plein '40 - '45";"4.82112672";"52.38075328";"16"
"11/23/2020 12:00:00 AM";"09:00 - 09:59";"03150";"Mercatorplein";"4.85011339";"52.37031872";"15"
"11/23/2020 12:00:00 AM";"09:00 - 09:59";"03157";"Lambertus Zijlplein";"4.80338637";"52.37726977";"10"
"11/23/2020 12:00:00 AM";"09:00 - 09:59";"03167";"Bos en Lommerplein";"4.84650668";"52.37709704";"23"
"11/23/2020 12:00:00 AM";"09:00 - 09:59";"03168";"Mercatorplein";"4.85152392";"52.37024423";"15"
"11/23/2020 12:00:00 AM";"09:00 - 09:59";"03169";"Jan v.Galenstraat";"4.83601291";"52.37301316";"12"
"11/23/2020 12:00:00 AM";"09:00 - 09:59";"03171";"Burg. Rendorpstraat";"4.82768433";"52.37436719";"14"
"11/23/2020 12:00:00 AM";"09:00 - 09:59";"03172";"Burg. Rendorpstraat";"4.82691962";"52.37445346";"20"
"11/23/2020 12:00:00 AM";"09:00 - 09:59";"03180";"Adm. Helfrichstraat";"4.84458860";"52.36942172";"11"
"11/23/2020 12:00:00 AM";"09:00 - 09:59";"03181";"Jan Voermanstraat";"4.83788946";"52.36970540";"10"
"11/23/2020 12:00:00 AM";"09:00 - 09:59";"03182";"Jan Voermanstraat";"4.83852226";"52.36959149";"10"
"11/23/2020 12:00:00 AM";"09:00 - 09:59";"04008";"Dijkgraafplein";"4.78646982";"52.35545267";"14"
"11/23/2020 12:00:00 AM";"09:00 - 09:59";"04009";"Dijkgraafplein";"4.78689401";"52.35556268";"10"
"11/23/2020 12:00:00 AM";"09:00 - 09:59";"04012";"Baden Powellweg";"4.79137362";"52.35646612";"16"
"11/23/2020 12:00:00 AM";"09:00 - 09:59";"04016";"Hoekenes";"4.79854723";"52.35791310";"13"
"11/23/2020 12:00:00 AM";"09:00 - 09:59";"04021";"Osdorpplein";"4.80322868";"52.35913166";"28"
"11/23/2020 12:00:00 AM";"09:00 - 09:59";"04043";"Ruimzicht";"4.80749209";"52.35978176";"20"
"11/23/2020 12:00:00 AM";"09:00 - 09:59";"04050";"Meer en Vaart";"4.80994403";"52.35636940";"24"
"11/23/2020 12:00:00 AM";"09:00 - 09:59";"04060";"Derkinderenstraat";"4.83972293";"52.35796689";"13"
"11/23/2020 12:00:00 AM";"09:00 - 09:59";"04061";"Derkinderenstraat";"4.84014895";"52.35794190";"12"
"11/23/2020 12:00:00 AM";"09:00 - 09:59";"04062";"Johan Huizingalaan";"4.82582327";"52.35781191";"13"
"11/23/2020 12:00:00 AM";"09:00 - 09:59";"04063";"Johan Huizingalaan";"4.82626398";"52.35778704";"17"
"11/23/2020 12:00:00 AM";"09:00 - 09:59";"04088";"Louwesweg";"4.82436420";"52.34669608";"17"
"11/23/2020 12:00:00 AM";"09:00 - 09:59";"04112";"Johan Huizingalaan";"4.82742878";"52.34923618";"23"
"11/23/2020 12:00:00 AM";"09:00 - 09:59";"04120";"Delflandlaan";"4.83969924";"52.35155850";"10"
"11/23/2020 12:00:00 AM";"09:00 - 09:59";"04129";"Derkinderenstraat";"4.83926482";"52.36415734";"10"
"11/23/2020 12:00:00 AM";"09:00 - 09:59";"04133";"Robert Fruinlaan";"4.82910660";"52.36403799";"15"
"11/23/2020 12:00:00 AM";"09:00 - 09:59";"04148";"Louis Davidsstraat";"4.80952552";"52.35356316";"28"
"11/23/2020 12:00:00 AM";"09:00 - 09:59";"04195";"Station Lelylaan";"4.83460082";"52.35788018";"41"
"11/23/2020 12:00:00 AM";"09:00 - 09:59";"04196";"Station Lelylaan";"4.83382251";"52.35790351";"39"
"11/23/2020 12:00:00 AM";"09:00 - 09:59";"04267";"Schiphol Airport/Plaza";"4.76139455";"52.30887344";"12"
"11/23/2020 12:00:00 AM";"09:00 - 09:59";"04279";"Kasterleepark";"4.81104243";"52.34638930";"14"
"11/23/2020 12:00:00 AM";"09:00 - 09:59";"04314";"Oudenaardeplantsoen";"4.80382615";"52.34495185";"14"
"11/23/2020 12:00:00 AM";"09:00 - 09:59";"04379";"Knooppunt Schiphol Nrd";"4.79320459";"52.32276196";"20"
"11/23/2020 12:00:00 AM";"09:00 - 09:59";"04403";"Pilatus";"4.77696371";"52.35289644";"11"
"11/23/2020 12:00:00 AM";"09:00 - 09:59";"04407";"Ecuplein";"4.78817670";"52.34970912";"15"
"11/23/2020 12:00:00 AM";"09:00 - 09:59";"04409";"Baden Powellweg";"4.79441281";"52.35092691";"72"
"11/23/2020 12:00:00 AM";"09:00 - 09:59";"04411";"Hoekenes";"4.80183430";"52.35243785";"21"
"11/23/2020 12:00:00 AM";"09:00 - 09:59";"04413";"Louis Davidsstraat";"4.80850916";"52.35383682";"30"
"11/23/2020 12:00:00 AM";"09:00 - 09:59";"05011";"Centraal Station";"4.89921803";"52.37810793";"122"
"11/23/2020 12:00:00 AM";"09:00 - 09:59";"05022";"Centraal Station";"4.90104337";"52.37771998";"110"
"11/23/2020 12:00:00 AM";"09:00 - 09:59";"05031";"Dam";"4.89348394";"52.37341055";"14"
"11/23/2020 12:00:00 AM";"09:00 - 09:59";"05032";"Dam";"4.89549360";"52.37492885";"10"
"11/23/2020 12:00:00 AM";"09:00 - 09:59";"05036";"Rokin";"4.89230478";"52.36985548";"15"
"11/23/2020 12:00:00 AM";"09:00 - 09:59";"05046";"Rembrandtplein";"4.89627976";"52.36625897";"12"
"11/23/2020 12:00:00 AM";"09:00 - 09:59";"05047";"Rembrandtplein";"4.89702882";"52.36623511";"18"
"11/23/2020 12:00:00 AM";"09:00 - 09:59";"05062";"Spui";"4.88925912";"52.36909673";"28"
"11/23/2020 12:00:00 AM";"09:00 - 09:59";"05063";"Dam";"4.89064590";"52.37244599";"29"
"11/23/2020 12:00:00 AM";"09:00 - 09:59";"05065";"Dam";"4.89079364";"52.37367792";"31"
"11/23/2020 12:00:00 AM";"09:00 - 09:59";"05066";"Dam";"4.89027056";"52.37318140";"48"
"11/23/2020 12:00:00 AM";"09:00 - 09:59";"05069";"Nieuwezijds Kolk";"4.89373093";"52.37628765";"20"
"11/23/2020 12:00:00 AM";"09:00 - 09:59";"05070";"Nieuwezijds Kolk";"4.89284106";"52.37575366";"17"
"11/23/2020 12:00:00 AM";"09:00 - 09:59";"05073";"Westermarkt";"4.88453426";"52.37400204";"31"
"11/23/2020 12:00:00 AM";"09:00 - 09:59";"05074";"Westermarkt";"4.88354950";"52.37407874";"57"
"11/23/2020 12:00:00 AM";"09:00 - 09:59";"05077";"Marnixstraat";"4.87615428";"52.37228546";"21"
"11/23/2020 12:00:00 AM";"09:00 - 09:59";"05080";"Buiten Oranjestraat";"4.88782167";"52.38330923";"22"
"11/23/2020 12:00:00 AM";"09:00 - 09:59";"05082";"Buiten Brouwersstraat";"4.89129168";"52.38167008";"12"
"11/23/2020 12:00:00 AM";"09:00 - 09:59";"05097";"Centraal Station";"4.90087651";"52.37954379";"33"
"11/23/2020 12:00:00 AM";"09:00 - 09:59";"05103";"Centraal Station";"4.90127481";"52.37938365";"22"
"11/23/2020 12:00:00 AM";"09:00 - 09:59";"05104";"Centraal Station";"4.90164343";"52.37925034";"18"
"11/23/2020 12:00:00 AM";"09:00 - 09:59";"05105";"Centraal Station";"4.90187762";"52.37932321";"10"
"11/23/2020 12:00:00 AM";"09:00 - 09:59";"05154";"Marnixstraat";"4.87536375";"52.37207533";"20"
"11/23/2020 12:00:00 AM";"09:00 - 09:59";"06001";"Surinameplein";"4.85252231";"52.35807034";"33"
"11/23/2020 12:00:00 AM";"09:00 - 09:59";"06015";"Postjesweg";"4.85316124";"52.36352879";"17"
"11/23/2020 12:00:00 AM";"09:00 - 09:59";"06016";"J.P. Heijestraat";"4.86239635";"52.36472951";"17"
"11/23/2020 12:00:00 AM";"09:00 - 09:59";"06017";"J.P. Heijestraat";"4.86292316";"52.36487565";"18"
"11/23/2020 12:00:00 AM";"09:00 - 09:59";"06019";"Ten Katestraat";"4.86737423";"52.36591988";"20"
"11/23/2020 12:00:00 AM";"09:00 - 09:59";"06020";"Ten Katestraat";"4.86773990";"52.36603832";"51"
"11/23/2020 12:00:00 AM";"09:00 - 09:59";"06021";"Bilderdijkstraat";"4.87176488";"52.36712545";"47"
"11/23/2020 12:00:00 AM";"09:00 - 09:59";"06023";"Bilderdijkstraat";"4.87254032";"52.36736251";"15"
"11/23/2020 12:00:00 AM";"09:00 - 09:59";"06027";"Elandsgracht";"4.87855189";"52.36808953";"29"
"11/23/2020 12:00:00 AM";"09:00 - 09:59";"06028";"Elandsgracht";"4.87741694";"52.36974738";"40"
"11/23/2020 12:00:00 AM";"09:00 - 09:59";"06029";"Elandsgracht";"4.87684368";"52.36852258";"61"
"11/23/2020 12:00:00 AM";"09:00 - 09:59";"06030";"Rozengracht";"4.87590932";"52.37187996";"14"
"11/23/2020 12:00:00 AM";"09:00 - 09:59";"06034";"Bilderdijkstraat";"4.87082347";"52.37105798";"16"
"11/23/2020 12:00:00 AM";"09:00 - 09:59";"06037";"Bilderdijkstraat";"4.86985701";"52.37082906";"34"
"11/23/2020 12:00:00 AM";"09:00 - 09:59";"06043";"Overtoom";"4.87510145";"52.36299659";"10"
"11/23/2020 12:00:00 AM";"09:00 - 09:59";"06044";"Overtoom";"4.87483191";"52.36345380";"10"
"11/23/2020 12:00:00 AM";"09:00 - 09:59";"06045";"1e Con. Huygensstraat";"4.87399228";"52.36242556";"28"
"11/23/2020 12:00:00 AM";"09:00 - 09:59";"06046";"1e Con. Huygensstraat";"4.87487082";"52.36262709";"34"
"11/23/2020 12:00:00 AM";"09:00 - 09:59";"06048";"J.P. Heijestraat";"4.86585368";"52.36037674";"17"
"11/23/2020 12:00:00 AM";"09:00 - 09:59";"06049";"J.P. Heijestraat";"4.86671778";"52.36055131";"17"
"11/23/2020 12:00:00 AM";"09:00 - 09:59";"06059";"Spiegelgracht";"4.88762090";"52.36071327";"14"
"11/23/2020 12:00:00 AM";"09:00 - 09:59";"06061";"Leidseplein";"4.88339576";"52.36305015";"28"
"11/23/2020 12:00:00 AM";"09:00 - 09:59";"06062";"Leidseplein";"4.88324640";"52.36327421";"11"
"11/23/2020 12:00:00 AM";"09:00 - 09:59";"06063";"Leidseplein";"4.88064547";"52.36476406";"41"
"11/23/2020 12:00:00 AM";"09:00 - 09:59";"06067";"Leidseplein";"4.88301434";"52.36431580";"17"
"11/23/2020 12:00:00 AM";"09:00 - 09:59";"06072";"Prinsengracht";"4.88428435";"52.36495933";"40"
"11/23/2020 12:00:00 AM";"09:00 - 09:59";"06073";"Keizersgracht";"4.88666521";"52.36604795";"11"
"11/23/2020 12:00:00 AM";"09:00 - 09:59";"06074";"Keizersgracht";"4.88624128";"52.36588437";"25"
"11/23/2020 12:00:00 AM";"09:00 - 09:59";"06075";"Koningsplein";"4.88942793";"52.36713812";"16"
"11/23/2020 12:00:00 AM";"09:00 - 09:59";"06076";"Koningsplein";"4.88857910";"52.36689188";"34"
"11/23/2020 12:00:00 AM";"09:00 - 09:59";"06081";"Rhijnvis Feithstraat";"4.86039355";"52.35905833";"15"
"11/23/2020 12:00:00 AM";"09:00 - 09:59";"06082";"Rhijnvis Feithstraat";"4.85967683";"52.35883943";"14"
"11/23/2020 12:00:00 AM";"09:00 - 09:59";"06089";"Leidseplein";"4.88085541";"52.36309324";"67"
"11/23/2020 12:00:00 AM";"09:00 - 09:59";"06114";"Hoofdweg";"4.85444451";"52.36425359";"13"
"11/23/2020 12:00:00 AM";"09:00 - 09:59";"06115";"Postjesweg";"4.85319014";"52.36478720";"12"
"11/23/2020 12:00:00 AM";"09:00 - 09:59";"07005";"De Boelelaan/VU";"4.86720539";"52.33522592";"11"
"11/23/2020 12:00:00 AM";"09:00 - 09:59";"07006";"Museumplein";"4.87980116";"52.35642881";"31"
"11/23/2020 12:00:00 AM";"09:00 - 09:59";"07007";"Museumplein";"4.87950215";"52.35690388";"88"
"11/23/2020 12:00:00 AM";"09:00 - 09:59";"07015";"Roelof Hartplein";"4.88206971";"52.35314900";"25"
"11/23/2020 12:00:00 AM";"09:00 - 09:59";"07016";"Roelof Hartplein";"4.88286688";"52.35274795";"63"
"11/23/2020 12:00:00 AM";"09:00 - 09:59";"07017";"Roelof Hartplein";"4.88206086";"52.35263666";"20"
"11/23/2020 12:00:00 AM";"09:00 - 09:59";"07021";"Kastelenstraat";"4.87955984";"52.32619291";"10"
"11/23/2020 12:00:00 AM";"09:00 - 09:59";"07027";"Corn. Schuytstraat";"4.87051458";"52.35597520";"22"
"11/23/2020 12:00:00 AM";"09:00 - 09:59";"07028";"Corn. Schuytstraat";"4.87088070";"52.35604870";"14"
"11/23/2020 12:00:00 AM";"09:00 - 09:59";"07031";"Valeriusplein";"4.86374943";"52.35333004";"17"
"11/23/2020 12:00:00 AM";"09:00 - 09:59";"07032";"Valeriusplein";"4.86326678";"52.35318410";"31"
"11/23/2020 12:00:00 AM";"09:00 - 09:59";"07033";"Amstelveenseweg";"4.85695925";"52.35161911";"12"
"11/23/2020 12:00:00 AM";"09:00 - 09:59";"07035";"Zeilstraat";"4.85672894";"52.35124059";"11"
"11/23/2020 12:00:00 AM";"09:00 - 09:59";"07046";"Hoofddorpplein";"4.85048172";"52.35201234";"10"
"11/23/2020 12:00:00 AM";"09:00 - 09:59";"07048";"Hoofddorpplein";"4.85010578";"52.35154327";"11"
"11/23/2020 12:00:00 AM";"09:00 - 09:59";"07049";"Hoofddorpplein";"4.84958188";"52.35117239";"25"
"11/23/2020 12:00:00 AM";"09:00 - 09:59";"07050";"Haarlemmermeerstation";"4.85744749";"52.34883508";"14"
"11/23/2020 12:00:00 AM";"09:00 - 09:59";"07083";"Gerrit v.d. Veenstraat";"4.87735929";"52.34921014";"19"
"11/23/2020 12:00:00 AM";"09:00 - 09:59";"07084";"Gerrit v.d. Veenstraat";"4.87720177";"52.34886793";"19"
"11/23/2020 12:00:00 AM";"09:00 - 09:59";"07088";"Stadionweg";"4.87687497";"52.34665553";"12"
"11/23/2020 12:00:00 AM";"09:00 - 09:59";"07091";"Minervaplein";"4.87299918";"52.34677357";"11"
"11/23/2020 12:00:00 AM";"09:00 - 09:59";"07097";"Olympiaplein";"4.86582821";"52.34630180";"15"
"11/23/2020 12:00:00 AM";"09:00 - 09:59";"07098";"Olympiaplein";"4.86659057";"52.34636807";"14"
"11/23/2020 12:00:00 AM";"09:00 - 09:59";"07130";"Pr. Irenestraat";"4.86819699";"52.34202504";"10"
"11/23/2020 12:00:00 AM";"09:00 - 09:59";"07131";"Pr. Irenestraat";"4.86833196";"52.34303226";"11"
"11/23/2020 12:00:00 AM";"09:00 - 09:59";"07191";"Station Zuid";"4.87340673";"52.34072657";"18"
"11/23/2020 12:00:00 AM";"09:00 - 09:59";"07193";"Station Zuid";"4.87334616";"52.34088808";"16"
"11/23/2020 12:00:00 AM";"09:00 - 09:59";"07195";"Oranjebaan";"4.87311228";"52.30278774";"10"
"11/23/2020 12:00:00 AM";"09:00 - 09:59";"07205";"IJsbaanpad";"4.85773817";"52.34169110";"10"
"11/23/2020 12:00:00 AM";"09:00 - 09:59";"07260";"Station RAI";"4.89077724";"52.33708876";"10"
"11/23/2020 12:00:00 AM";"09:00 - 09:59";"07266";"Station Zuid";"4.87252654";"52.34070477";"19"
"11/23/2020 12:00:00 AM";"09:00 - 09:59";"07268";"Station Zuid";"4.87428608";"52.34082026";"22"
"11/23/2020 12:00:00 AM";"09:00 - 09:59";"07269";"Station Zuid";"4.87374306";"52.34082689";"23"
"11/23/2020 12:00:00 AM";"09:00 - 09:59";"07270";"Parnassusweg";"4.86874218";"52.33806382";"19"
"11/23/2020 12:00:00 AM";"09:00 - 09:59";"07271";"Parnassusweg";"4.86866745";"52.33818033";"11"
"11/23/2020 12:00:00 AM";"09:00 - 09:59";"07303";"VU medisch centrum";"4.86097062";"52.33515342";"24"
"11/23/2020 12:00:00 AM";"09:00 - 09:59";"07321";"Van Baerlestraat";"4.87895796";"52.35827667";"28"
"11/23/2020 12:00:00 AM";"09:00 - 09:59";"07322";"Van Baerlestraat";"4.87971942";"52.35844171";"56"
"11/23/2020 12:00:00 AM";"09:00 - 09:59";"07323";"Rijksmuseum";"4.88355043";"52.35977029";"43"
"11/23/2020 12:00:00 AM";"09:00 - 09:59";"07324";"Rijksmuseum";"4.88332565";"52.36017378";"18"
"11/23/2020 12:00:00 AM";"09:00 - 09:59";"07391";"Kronenburg";"4.87070592";"52.31556694";"11"
"11/23/2020 12:00:00 AM";"09:00 - 09:59";"07418";"Van Boshuizenstraat";"4.86902148";"52.32544617";"11"
"11/23/2020 12:00:00 AM";"09:00 - 09:59";"07419";"Van Boshuizenstraat";"4.86896941";"52.32487971";"138"
"11/23/2020 12:00:00 AM";"09:00 - 09:59";"07423";"Uilenstede";"4.86910951";"52.32167168";"27"
"11/23/2020 12:00:00 AM";"09:00 - 09:59";"07442";"Zonnestein";"4.87236664";"52.31146674";"11"
"11/23/2020 12:00:00 AM";"09:00 - 09:59";"07445";"Amstelveen Stadshart";"4.86751502";"52.30124433";"20"
"11/23/2020 12:00:00 AM";"09:00 - 09:59";"07448";"A.J. Ernststraat";"4.86887597";"52.33288743";"19"
"11/23/2020 12:00:00 AM";"09:00 - 09:59";"07449";"A.J. Ernststraat";"4.86879476";"52.33230287";"26"
"11/23/2020 12:00:00 AM";"09:00 - 09:59";"07505";"Ziekenhuis";"4.87154263";"52.29401774";"11"
"11/23/2020 12:00:00 AM";"09:00 - 09:59";"07513";"Sacharovlaan";"4.83264484";"52.28179795";"14"
"11/23/2020 12:00:00 AM";"09:00 - 09:59";"08011";"C. van Eesterenlaan";"4.93855181";"52.37334722";"14"
"11/23/2020 12:00:00 AM";"09:00 - 09:59";"08013";"Azartplein";"4.93734445";"52.37656023";"12"
"11/23/2020 12:00:00 AM";"09:00 - 09:59";"08027";"Kadijksplein";"4.91357159";"52.37075136";"13"
"11/23/2020 12:00:00 AM";"09:00 - 09:59";"08043";"Artis";"4.91141423";"52.36653646";"13"
"11/23/2020 12:00:00 AM";"09:00 - 09:59";"08052";"K. 's-Gravesandestr.";"4.91550720";"52.36271509";"16"
"11/23/2020 12:00:00 AM";"09:00 - 09:59";"08053";"Weesperplein";"4.90655690";"52.36088154";"21"
"11/23/2020 12:00:00 AM";"09:00 - 09:59";"08054";"Weesperplein";"4.90941338";"52.36145933";"40"
"11/23/2020 12:00:00 AM";"09:00 - 09:59";"08057";"Frederiksplein";"4.90024241";"52.35971430";"46"
"11/23/2020 12:00:00 AM";"09:00 - 09:59";"08058";"Veelaan";"4.93961588";"52.36830916";"15"
"11/23/2020 12:00:00 AM";"09:00 - 09:59";"08059";"Veelaan";"4.93944523";"52.36776026";"17"
"11/23/2020 12:00:00 AM";"09:00 - 09:59";"08066";"Frederiksplein";"4.89751569";"52.35937050";"19"
"11/23/2020 12:00:00 AM";"09:00 - 09:59";"08072";"Vijzelgracht";"4.89159781";"52.35953462";"17"
"11/23/2020 12:00:00 AM";"09:00 - 09:59";"08073";"Vijzelgracht";"4.89227386";"52.35946554";"22"
"11/23/2020 12:00:00 AM";"09:00 - 09:59";"08080";"Spiegelgracht";"4.88691222";"52.36106979";"33"
"11/23/2020 12:00:00 AM";"09:00 - 09:59";"08095";"Alexanderplein";"4.91969863";"52.36341478";"13"
"11/23/2020 12:00:00 AM";"09:00 - 09:59";"08119";"Insulindeweg";"4.94765323";"52.36476217";"11"
"11/23/2020 12:00:00 AM";"09:00 - 09:59";"08120";"Insulindeweg";"4.94763926";"52.36469021";"20"
"11/23/2020 12:00:00 AM";"09:00 - 09:59";"08124";"Soembawastraat";"4.94346569";"52.36214910";"15"
"11/23/2020 12:00:00 AM";"09:00 - 09:59";"08129";"Molukkenstraat";"4.93861286";"52.36150167";"16"
"11/23/2020 12:00:00 AM";"09:00 - 09:59";"08139";"Zuiderzeeweg";"4.96240105";"52.37166461";"10"
"11/23/2020 12:00:00 AM";"09:00 - 09:59";"08179";"K. 's-Gravesandestr.";"4.91480799";"52.36220000";"12"
"11/23/2020 12:00:00 AM";"09:00 - 09:59";"08190";"Molukkenstraat";"4.93934614";"52.36157635";"11"
"11/23/2020 12:00:00 AM";"09:00 - 09:59";"08195";"Oostenburgergracht";"4.92452709";"52.36780177";"10"
"11/23/2020 12:00:00 AM";"09:00 - 09:59";"08233";"C. van Eesterenlaan";"4.93812487";"52.37345346";"12"
"11/23/2020 12:00:00 AM";"09:00 - 09:59";"08235";"Muziekgeb. Bimhuis";"4.91290020";"52.37723779";"11"
