"Datum";"UurgroepOmschrijving (van aankomst)";"AankomstHalteCode";"AankomstHalteNaam";"AankomstLat";"AankomstLon";"AantalReizen"
"6/22/2020 12:00:00 AM";"00:00 - 00:59";"";"Overig";"";"";"9"
"6/22/2020 12:00:00 AM";"01:00 - 01:59";"";"Overig";"";"";"67"
"6/22/2020 12:00:00 AM";"02:00 - 02:59";"";"Overig";"";"";"68"
"6/22/2020 12:00:00 AM";"03:00 - 03:59";"";"Overig";"";"";"50"
"6/22/2020 12:00:00 AM";"04:00 - 04:59";"";"Overig";"";"";"74"
"6/22/2020 12:00:00 AM";"05:00 - 05:59";"";"Overig";"";"";"241"
"6/22/2020 12:00:00 AM";"05:00 - 05:59";"[[ Onb";"[[ Onbekend ]]";"0.00000000";"0.00000000";"17"
"6/22/2020 12:00:00 AM";"05:00 - 05:59";"04267";"Schiphol Airport/Plaza";"4.76139455";"52.30887344";"31"
"6/22/2020 12:00:00 AM";"05:00 - 05:59";"04379";"Knooppunt Schiphol Nrd";"4.79320459";"52.32276196";"32"
"6/22/2020 12:00:00 AM";"05:00 - 05:59";"BMR";"Station Bijlmer ArenA";"4.94713474";"52.31193030";"17"
"6/22/2020 12:00:00 AM";"05:00 - 05:59";"CS";"Centraal Station";"4.90078150";"52.37749421";"33"
"6/22/2020 12:00:00 AM";"06:00 - 06:59";"";"Overig";"";"";"1297"
"6/22/2020 12:00:00 AM";"06:00 - 06:59";"[[ Onb";"[[ Onbekend ]]";"0.00000000";"0.00000000";"71"
"6/22/2020 12:00:00 AM";"06:00 - 06:59";"00023";"Beukenplein";"4.91809259";"52.35701816";"11"
"6/22/2020 12:00:00 AM";"06:00 - 06:59";"00205";"Station Holendrecht";"4.95865657";"52.29716971";"11"
"6/22/2020 12:00:00 AM";"06:00 - 06:59";"00453";"Diemen Sniep";"4.96964866";"52.33644962";"31"
"6/22/2020 12:00:00 AM";"06:00 - 06:59";"00491";"Science Park Aer";"4.95218495";"52.35478458";"10"
"6/22/2020 12:00:00 AM";"06:00 - 06:59";"00561";"Station Bijlmer ArenA";"4.94741931";"52.31132918";"28"
"6/22/2020 12:00:00 AM";"06:00 - 06:59";"00562";"Station Bijlmer ArenA";"4.94736012";"52.31138289";"29"
"6/22/2020 12:00:00 AM";"06:00 - 06:59";"00902";"Stammerkamp";"4.98344083";"52.33320797";"14"
"6/22/2020 12:00:00 AM";"06:00 - 06:59";"01365";"Atat?rk";"4.89794256";"52.40319625";"16"
"6/22/2020 12:00:00 AM";"06:00 - 06:59";"02018";"Koivistokade";"4.87577082";"52.39789874";"10"
"6/22/2020 12:00:00 AM";"06:00 - 06:59";"02019";"Koivistokade";"4.87537403";"52.39790601";"14"
"6/22/2020 12:00:00 AM";"06:00 - 06:59";"02066";"La Guardiaweg";"4.84008244";"52.39190625";"10"
"6/22/2020 12:00:00 AM";"06:00 - 06:59";"02183";"Markthallen";"4.86667150";"52.37575835";"12"
"6/22/2020 12:00:00 AM";"06:00 - 06:59";"02311";"Seineweg";"4.81857317";"52.38632242";"32"
"6/22/2020 12:00:00 AM";"06:00 - 06:59";"02312";"Seineweg";"4.81892292";"52.38653981";"10"
"6/22/2020 12:00:00 AM";"06:00 - 06:59";"02317";"Naritaweg";"4.82102069";"52.38790700";"10"
"6/22/2020 12:00:00 AM";"06:00 - 06:59";"02361";"Station Sloterdijk";"4.83931858";"52.38833460";"15"
"6/22/2020 12:00:00 AM";"06:00 - 06:59";"02365";"Station Sloterdijk";"4.83873236";"52.38822404";"18"
"6/22/2020 12:00:00 AM";"06:00 - 06:59";"02368";"Station Sloterdijk";"4.83877999";"52.38793665";"14"
"6/22/2020 12:00:00 AM";"06:00 - 06:59";"02370";"Station Sloterdijk";"4.83879745";"52.38771204";"24"
"6/22/2020 12:00:00 AM";"06:00 - 06:59";"04195";"Station Lelylaan";"4.83460082";"52.35788018";"17"
"6/22/2020 12:00:00 AM";"06:00 - 06:59";"04267";"Schiphol Airport/Plaza";"4.76139455";"52.30887344";"42"
"6/22/2020 12:00:00 AM";"06:00 - 06:59";"04300";"Knooppunt Schiphol Nrd";"4.79292928";"52.32250892";"10"
"6/22/2020 12:00:00 AM";"06:00 - 06:59";"04379";"Knooppunt Schiphol Nrd";"4.79320459";"52.32276196";"26"
"6/22/2020 12:00:00 AM";"06:00 - 06:59";"05022";"Centraal Station";"4.90104337";"52.37771998";"11"
"6/22/2020 12:00:00 AM";"06:00 - 06:59";"05024";"Centraal Station";"4.89813942";"52.37736648";"30"
"6/22/2020 12:00:00 AM";"06:00 - 06:59";"05029";"Centraal Station";"4.90334975";"52.37900567";"39"
"6/22/2020 12:00:00 AM";"06:00 - 06:59";"05031";"Dam";"4.89348394";"52.37341055";"12"
"6/22/2020 12:00:00 AM";"06:00 - 06:59";"05047";"Rembrandtplein";"4.89702882";"52.36623511";"11"
"6/22/2020 12:00:00 AM";"06:00 - 06:59";"05065";"Dam";"4.89079364";"52.37367792";"14"
"6/22/2020 12:00:00 AM";"06:00 - 06:59";"05066";"Dam";"4.89027056";"52.37318140";"20"
"6/22/2020 12:00:00 AM";"06:00 - 06:59";"05074";"Westermarkt";"4.88354950";"52.37407874";"11"
"6/22/2020 12:00:00 AM";"06:00 - 06:59";"05097";"Centraal Station";"4.90087651";"52.37954379";"16"
"6/22/2020 12:00:00 AM";"06:00 - 06:59";"06028";"Elandsgracht";"4.87741694";"52.36974738";"11"
"6/22/2020 12:00:00 AM";"06:00 - 06:59";"06029";"Elandsgracht";"4.87684368";"52.36852258";"12"
"6/22/2020 12:00:00 AM";"06:00 - 06:59";"06059";"Spiegelgracht";"4.88762090";"52.36071327";"10"
"6/22/2020 12:00:00 AM";"06:00 - 06:59";"06063";"Leidseplein";"4.88064547";"52.36476406";"19"
"6/22/2020 12:00:00 AM";"06:00 - 06:59";"06089";"Leidseplein";"4.88085541";"52.36309324";"23"
"6/22/2020 12:00:00 AM";"06:00 - 06:59";"07007";"Museumplein";"4.87950215";"52.35690388";"12"
"6/22/2020 12:00:00 AM";"06:00 - 06:59";"07050";"Haarlemmermeerstation";"4.85744749";"52.34883508";"10"
"6/22/2020 12:00:00 AM";"06:00 - 06:59";"07303";"VU medisch centrum";"4.86097062";"52.33515342";"24"
"6/22/2020 12:00:00 AM";"06:00 - 06:59";"07411";"De Boelelaan/VU";"4.86881254";"52.33454990";"16"
"6/22/2020 12:00:00 AM";"06:00 - 06:59";"08057";"Frederiksplein";"4.90024241";"52.35971430";"11"
"6/22/2020 12:00:00 AM";"06:00 - 06:59";"08080";"Spiegelgracht";"4.88691222";"52.36106979";"11"
"6/22/2020 12:00:00 AM";"06:00 - 06:59";"08239";"Rietlandpark";"4.93413567";"52.37296191";"20"
"6/22/2020 12:00:00 AM";"06:00 - 06:59";"08241";"Zuiderzeeweg";"4.96185517";"52.37193228";"10"
"6/22/2020 12:00:00 AM";"06:00 - 06:59";"08259";"1e Leeghwaterstraat";"4.93004964";"52.37047459";"14"
"6/22/2020 12:00:00 AM";"06:00 - 06:59";"ASA";"Amstelstation";"4.91751426";"52.34647326";"104"
"6/22/2020 12:00:00 AM";"06:00 - 06:59";"ASW";"Amstelveenseweg";"4.85798324";"52.33836671";"124"
"6/22/2020 12:00:00 AM";"06:00 - 06:59";"BLW";"Bullewijk";"4.95233581";"52.30642205";"37"
"6/22/2020 12:00:00 AM";"06:00 - 06:59";"BMR";"Station Bijlmer ArenA";"4.94713474";"52.31193030";"118"
"6/22/2020 12:00:00 AM";"06:00 - 06:59";"CLL";"Station Lelylaan";"4.83426589";"52.35766291";"27"
"6/22/2020 12:00:00 AM";"06:00 - 06:59";"CS";"Centraal Station";"4.90078150";"52.37749421";"259"
"6/22/2020 12:00:00 AM";"06:00 - 06:59";"DMZ";"Station Diemen-Zuid";"4.95713273";"52.33042795";"13"
"6/22/2020 12:00:00 AM";"06:00 - 06:59";"DPP";"De Pijp";"4.89101069";"52.35296212";"38"
"6/22/2020 12:00:00 AM";"06:00 - 06:59";"DVD";"Station Duivendrecht";"4.93678429";"52.32325190";"28"
"6/22/2020 12:00:00 AM";"06:00 - 06:59";"EPP";"Europaplein";"4.89138430";"52.34185482";"21"
"6/22/2020 12:00:00 AM";"06:00 - 06:59";"GN";"Gein";"4.98952268";"52.29627089";"10"
"6/22/2020 12:00:00 AM";"06:00 - 06:59";"GZH";"Station Ganzenhoef";"4.97323379";"52.32331315";"12"
"6/22/2020 12:00:00 AM";"06:00 - 06:59";"HDS";"Heemstedestraat";"4.83421208";"52.35255760";"22"
"6/22/2020 12:00:00 AM";"06:00 - 06:59";"HLD";"Station Holendrecht";"4.96021904";"52.29780451";"78"
"6/22/2020 12:00:00 AM";"06:00 - 06:59";"HVW";"Henk Sneevlietweg";"4.83439318";"52.34626699";"60"
"6/22/2020 12:00:00 AM";"06:00 - 06:59";"ITW";"Isolatorweg";"4.85013475";"52.39523277";"13"
"6/22/2020 12:00:00 AM";"06:00 - 06:59";"JLS";"Jan v.Galenstraat";"4.83492461";"52.37196551";"58"
"6/22/2020 12:00:00 AM";"06:00 - 06:59";"KEN";"Kraaienneststation";"4.97963450";"52.31632492";"10"
"6/22/2020 12:00:00 AM";"06:00 - 06:59";"MDW";"Van der Madeweg";"4.93048657";"52.32945629";"35"
"6/22/2020 12:00:00 AM";"06:00 - 06:59";"ND";"Noord";"4.93123182";"52.40117202";"42"
"6/22/2020 12:00:00 AM";"06:00 - 06:59";"NDP";"Noorderpark";"4.91789115";"52.38855518";"22"
"6/22/2020 12:00:00 AM";"06:00 - 06:59";"NMT";"Nieuwmarkt";"4.90123885";"52.37194169";"26"
"6/22/2020 12:00:00 AM";"06:00 - 06:59";"OAS";"Overamstel";"4.91815361";"52.33179879";"29"
"6/22/2020 12:00:00 AM";"06:00 - 06:59";"RAI";"Station RAI";"4.88982004";"52.33739931";"53"
"6/22/2020 12:00:00 AM";"06:00 - 06:59";"RGB";"Reigersbos";"4.97473728";"52.29566301";"23"
"6/22/2020 12:00:00 AM";"06:00 - 06:59";"RKN";"Rokin";"4.89229651";"52.36928023";"72"
"6/22/2020 12:00:00 AM";"06:00 - 06:59";"SLW";"Spaklerweg";"4.92085640";"52.33986250";"25"
"6/22/2020 12:00:00 AM";"06:00 - 06:59";"STD";"Station Sloterdijk";"4.83878389";"52.38880848";"103"
"6/22/2020 12:00:00 AM";"06:00 - 06:59";"SVT";"Strandvliet";"4.94152820";"52.31825469";"12"
"6/22/2020 12:00:00 AM";"06:00 - 06:59";"VLN";"Burg.de Vlugtlaan";"4.83809109";"52.37951196";"13"
"6/22/2020 12:00:00 AM";"06:00 - 06:59";"VSW";"Verrijn Stuartweg";"4.96693669";"52.32844093";"17"
"6/22/2020 12:00:00 AM";"06:00 - 06:59";"VZG";"Vijzelgracht";"4.89072870";"52.35980061";"41"
"6/22/2020 12:00:00 AM";"06:00 - 06:59";"WBS";"Wibautstraat";"4.91202993";"52.35428867";"46"
"6/22/2020 12:00:00 AM";"06:00 - 06:59";"WLP";"Waterlooplein";"4.90298171";"52.36697862";"83"
"6/22/2020 12:00:00 AM";"06:00 - 06:59";"WPP";"Weesperplein";"4.90787469";"52.36120146";"77"
"6/22/2020 12:00:00 AM";"06:00 - 06:59";"WTC";"Station Zuid";"4.87509853";"52.33908015";"213"
"6/22/2020 12:00:00 AM";"07:00 - 07:59";"";"Overig";"";"";"2069"
"6/22/2020 12:00:00 AM";"07:00 - 07:59";"[[ Onb";"[[ Onbekend ]]";"0.00000000";"0.00000000";"133"
"6/22/2020 12:00:00 AM";"07:00 - 07:59";"00005";"Muiderpoortstation";"4.93280219";"52.36121887";"10"
"6/22/2020 12:00:00 AM";"07:00 - 07:59";"00008";"Dapperstraat";"4.92977913";"52.36110836";"11"
"6/22/2020 12:00:00 AM";"07:00 - 07:59";"00018";"Diemerknoop";"5.00286153";"52.33537576";"20"
"6/22/2020 12:00:00 AM";"07:00 - 07:59";"00020";"Beukenweg";"4.91674979";"52.35906203";"20"
"6/22/2020 12:00:00 AM";"07:00 - 07:59";"00021";"Beukenweg";"4.91721293";"52.35829991";"17"
"6/22/2020 12:00:00 AM";"07:00 - 07:59";"00205";"Station Holendrecht";"4.95865657";"52.29716971";"17"
"6/22/2020 12:00:00 AM";"07:00 - 07:59";"00444";"Linnaeusstraat";"4.92490296";"52.35991203";"11"
"6/22/2020 12:00:00 AM";"07:00 - 07:59";"00453";"Diemen Sniep";"4.96964866";"52.33644962";"34"
"6/22/2020 12:00:00 AM";"07:00 - 07:59";"00560";"Station Bijlmer ArenA";"4.94747867";"52.31125750";"18"
"6/22/2020 12:00:00 AM";"07:00 - 07:59";"00561";"Station Bijlmer ArenA";"4.94741931";"52.31132918";"50"
"6/22/2020 12:00:00 AM";"07:00 - 07:59";"00562";"Station Bijlmer ArenA";"4.94736012";"52.31138289";"35"
"6/22/2020 12:00:00 AM";"07:00 - 07:59";"00999";"Vinkenbrug";"4.97831599";"52.33370267";"10"
"6/22/2020 12:00:00 AM";"07:00 - 07:59";"01111";"Rode Kruisstraat";"4.92881363";"52.39488033";"12"
"6/22/2020 12:00:00 AM";"07:00 - 07:59";"01352";"Oosterlengte";"4.92206974";"52.40611555";"13"
"6/22/2020 12:00:00 AM";"07:00 - 07:59";"01365";"Atat?rk";"4.89794256";"52.40319625";"18"
"6/22/2020 12:00:00 AM";"07:00 - 07:59";"02114";"Haarlemmerplein";"4.88341252";"52.38484542";"18"
"6/22/2020 12:00:00 AM";"07:00 - 07:59";"02118";"Nw.Willemsstraat";"4.88088280";"52.38127551";"11"
"6/22/2020 12:00:00 AM";"07:00 - 07:59";"02155";"Willem de Zwijgerlaan";"4.86360306";"52.37071170";"10"
"6/22/2020 12:00:00 AM";"07:00 - 07:59";"02222";"Jan van Galenstraat";"4.85874763";"52.37399761";"10"
"6/22/2020 12:00:00 AM";"07:00 - 07:59";"02311";"Seineweg";"4.81857317";"52.38632242";"15"
"6/22/2020 12:00:00 AM";"07:00 - 07:59";"02361";"Station Sloterdijk";"4.83931858";"52.38833460";"29"
"6/22/2020 12:00:00 AM";"07:00 - 07:59";"02365";"Station Sloterdijk";"4.83873236";"52.38822404";"15"
"6/22/2020 12:00:00 AM";"07:00 - 07:59";"02367";"Station Sloterdijk";"4.83876429";"52.38801747";"14"
"6/22/2020 12:00:00 AM";"07:00 - 07:59";"02370";"Station Sloterdijk";"4.83879745";"52.38771204";"32"
"6/22/2020 12:00:00 AM";"07:00 - 07:59";"03010";"Witte de Withstraat";"4.85928290";"52.36480554";"12"
"6/22/2020 12:00:00 AM";"07:00 - 07:59";"03052";"Burg. Eliasstraat";"4.82565009";"52.38077481";"10"
"6/22/2020 12:00:00 AM";"07:00 - 07:59";"03061";"Bos en Lommerplein";"4.84523530";"52.37778328";"14"
"6/22/2020 12:00:00 AM";"07:00 - 07:59";"03076";"Jan Tooropstraat";"4.83810313";"52.37142305";"15"
"6/22/2020 12:00:00 AM";"07:00 - 07:59";"03101";"Lambertus Zijlplein";"4.80300456";"52.37726788";"13"
"6/22/2020 12:00:00 AM";"07:00 - 07:59";"03145";"J. Cabeliaustraat";"4.80409638";"52.38246819";"13"
"6/22/2020 12:00:00 AM";"07:00 - 07:59";"03167";"Bos en Lommerplein";"4.84650668";"52.37709704";"15"
"6/22/2020 12:00:00 AM";"07:00 - 07:59";"03168";"Mercatorplein";"4.85152392";"52.37024423";"11"
"6/22/2020 12:00:00 AM";"07:00 - 07:59";"04012";"Baden Powellweg";"4.79137362";"52.35646612";"11"
"6/22/2020 12:00:00 AM";"07:00 - 07:59";"04050";"Meer en Vaart";"4.80994403";"52.35636940";"11"
"6/22/2020 12:00:00 AM";"07:00 - 07:59";"04061";"Derkinderenstraat";"4.84014895";"52.35794190";"10"
"6/22/2020 12:00:00 AM";"07:00 - 07:59";"04088";"Louwesweg";"4.82436420";"52.34669608";"19"
"6/22/2020 12:00:00 AM";"07:00 - 07:59";"04112";"Johan Huizingalaan";"4.82742878";"52.34923618";"30"
"6/22/2020 12:00:00 AM";"07:00 - 07:59";"04195";"Station Lelylaan";"4.83460082";"52.35788018";"33"
"6/22/2020 12:00:00 AM";"07:00 - 07:59";"04196";"Station Lelylaan";"4.83382251";"52.35790351";"29"
"6/22/2020 12:00:00 AM";"07:00 - 07:59";"04267";"Schiphol Airport/Plaza";"4.76139455";"52.30887344";"13"
"6/22/2020 12:00:00 AM";"07:00 - 07:59";"04379";"Knooppunt Schiphol Nrd";"4.79320459";"52.32276196";"21"
"6/22/2020 12:00:00 AM";"07:00 - 07:59";"05022";"Centraal Station";"4.90104337";"52.37771998";"32"
"6/22/2020 12:00:00 AM";"07:00 - 07:59";"05024";"Centraal Station";"4.89813942";"52.37736648";"55"
"6/22/2020 12:00:00 AM";"07:00 - 07:59";"05029";"Centraal Station";"4.90334975";"52.37900567";"84"
"6/22/2020 12:00:00 AM";"07:00 - 07:59";"05031";"Dam";"4.89348394";"52.37341055";"12"
"6/22/2020 12:00:00 AM";"07:00 - 07:59";"05032";"Dam";"4.89549360";"52.37492885";"14"
"6/22/2020 12:00:00 AM";"07:00 - 07:59";"05036";"Rokin";"4.89230478";"52.36985548";"10"
"6/22/2020 12:00:00 AM";"07:00 - 07:59";"05047";"Rembrandtplein";"4.89702882";"52.36623511";"14"
"6/22/2020 12:00:00 AM";"07:00 - 07:59";"05062";"Spui";"4.88925912";"52.36909673";"11"
"6/22/2020 12:00:00 AM";"07:00 - 07:59";"05063";"Dam";"4.89064590";"52.37244599";"15"
"6/22/2020 12:00:00 AM";"07:00 - 07:59";"05065";"Dam";"4.89079364";"52.37367792";"13"
"6/22/2020 12:00:00 AM";"07:00 - 07:59";"05066";"Dam";"4.89027056";"52.37318140";"15"
"6/22/2020 12:00:00 AM";"07:00 - 07:59";"05074";"Westermarkt";"4.88354950";"52.37407874";"16"
"6/22/2020 12:00:00 AM";"07:00 - 07:59";"05077";"Marnixstraat";"4.87615428";"52.37228546";"10"
"6/22/2020 12:00:00 AM";"07:00 - 07:59";"05097";"Centraal Station";"4.90087651";"52.37954379";"37"
"6/22/2020 12:00:00 AM";"07:00 - 07:59";"05103";"Centraal Station";"4.90127481";"52.37938365";"19"
"6/22/2020 12:00:00 AM";"07:00 - 07:59";"05104";"Centraal Station";"4.90164343";"52.37925034";"12"
"6/22/2020 12:00:00 AM";"07:00 - 07:59";"06001";"Surinameplein";"4.85252231";"52.35807034";"14"
"6/22/2020 12:00:00 AM";"07:00 - 07:59";"06020";"Ten Katestraat";"4.86773990";"52.36603832";"11"
"6/22/2020 12:00:00 AM";"07:00 - 07:59";"06029";"Elandsgracht";"4.87684368";"52.36852258";"22"
"6/22/2020 12:00:00 AM";"07:00 - 07:59";"06034";"Bilderdijkstraat";"4.87082347";"52.37105798";"16"
"6/22/2020 12:00:00 AM";"07:00 - 07:59";"06037";"Bilderdijkstraat";"4.86985701";"52.37082906";"14"
"6/22/2020 12:00:00 AM";"07:00 - 07:59";"06048";"J.P. Heijestraat";"4.86585368";"52.36037674";"19"
"6/22/2020 12:00:00 AM";"07:00 - 07:59";"06059";"Spiegelgracht";"4.88762090";"52.36071327";"11"
"6/22/2020 12:00:00 AM";"07:00 - 07:59";"06063";"Leidseplein";"4.88064547";"52.36476406";"13"
"6/22/2020 12:00:00 AM";"07:00 - 07:59";"06076";"Koningsplein";"4.88857910";"52.36689188";"11"
"6/22/2020 12:00:00 AM";"07:00 - 07:59";"06081";"Rhijnvis Feithstraat";"4.86039355";"52.35905833";"10"
"6/22/2020 12:00:00 AM";"07:00 - 07:59";"06082";"Rhijnvis Feithstraat";"4.85967683";"52.35883943";"14"
"6/22/2020 12:00:00 AM";"07:00 - 07:59";"06089";"Leidseplein";"4.88085541";"52.36309324";"21"
"6/22/2020 12:00:00 AM";"07:00 - 07:59";"06115";"Postjesweg";"4.85319014";"52.36478720";"11"
"6/22/2020 12:00:00 AM";"07:00 - 07:59";"07007";"Museumplein";"4.87950215";"52.35690388";"32"
"6/22/2020 12:00:00 AM";"07:00 - 07:59";"07027";"Corn. Schuytstraat";"4.87051458";"52.35597520";"11"
"6/22/2020 12:00:00 AM";"07:00 - 07:59";"07031";"Valeriusplein";"4.86374943";"52.35333004";"19"
"6/22/2020 12:00:00 AM";"07:00 - 07:59";"07049";"Hoofddorpplein";"4.84958188";"52.35117239";"13"
"6/22/2020 12:00:00 AM";"07:00 - 07:59";"07050";"Haarlemmermeerstation";"4.85744749";"52.34883508";"11"
"6/22/2020 12:00:00 AM";"07:00 - 07:59";"07084";"Gerrit v.d. Veenstraat";"4.87720177";"52.34886793";"12"
"6/22/2020 12:00:00 AM";"07:00 - 07:59";"07097";"Olympiaplein";"4.86582821";"52.34630180";"12"
"6/22/2020 12:00:00 AM";"07:00 - 07:59";"07193";"Station Zuid";"4.87334616";"52.34088808";"13"
"6/22/2020 12:00:00 AM";"07:00 - 07:59";"07260";"Station RAI";"4.89077724";"52.33708876";"13"
"6/22/2020 12:00:00 AM";"07:00 - 07:59";"07266";"Station Zuid";"4.87252654";"52.34070477";"24"
"6/22/2020 12:00:00 AM";"07:00 - 07:59";"07269";"Station Zuid";"4.87374306";"52.34082689";"10"
"6/22/2020 12:00:00 AM";"07:00 - 07:59";"07303";"VU medisch centrum";"4.86097062";"52.33515342";"39"
"6/22/2020 12:00:00 AM";"07:00 - 07:59";"07321";"Van Baerlestraat";"4.87895796";"52.35827667";"12"
"6/22/2020 12:00:00 AM";"07:00 - 07:59";"07322";"Van Baerlestraat";"4.87971942";"52.35844171";"13"
"6/22/2020 12:00:00 AM";"07:00 - 07:59";"07323";"Rijksmuseum";"4.88355043";"52.35977029";"12"
"6/22/2020 12:00:00 AM";"07:00 - 07:59";"07339";"Nieuw Herlaer";"4.88985946";"52.32602094";"10"
"6/22/2020 12:00:00 AM";"07:00 - 07:59";"07419";"Van Boshuizenstraat";"4.86896941";"52.32487971";"20"
"6/22/2020 12:00:00 AM";"07:00 - 07:59";"07435";"Onderuit";"4.87243689";"52.30793483";"10"
"6/22/2020 12:00:00 AM";"07:00 - 07:59";"07505";"Ziekenhuis";"4.87154263";"52.29401774";"11"
"6/22/2020 12:00:00 AM";"07:00 - 07:59";"07513";"Sacharovlaan";"4.83264484";"52.28179795";"21"
"6/22/2020 12:00:00 AM";"07:00 - 07:59";"07523";"Zagerij";"4.84179654";"52.28120238";"10"
"6/22/2020 12:00:00 AM";"07:00 - 07:59";"08043";"Artis";"4.91141423";"52.36653646";"11"
"6/22/2020 12:00:00 AM";"07:00 - 07:59";"08054";"Weesperplein";"4.90941338";"52.36145933";"13"
"6/22/2020 12:00:00 AM";"07:00 - 07:59";"08057";"Frederiksplein";"4.90024241";"52.35971430";"18"
"6/22/2020 12:00:00 AM";"07:00 - 07:59";"08066";"Frederiksplein";"4.89751569";"52.35937050";"10"
"6/22/2020 12:00:00 AM";"07:00 - 07:59";"08073";"Vijzelgracht";"4.89227386";"52.35946554";"16"
"6/22/2020 12:00:00 AM";"07:00 - 07:59";"08080";"Spiegelgracht";"4.88691222";"52.36106979";"12"
"6/22/2020 12:00:00 AM";"07:00 - 07:59";"08237";"Kattenburgerstraat";"4.92126795";"52.37614755";"14"
"6/22/2020 12:00:00 AM";"07:00 - 07:59";"08239";"Rietlandpark";"4.93413567";"52.37296191";"17"
"6/22/2020 12:00:00 AM";"07:00 - 07:59";"08241";"Zuiderzeeweg";"4.96185517";"52.37193228";"14"
"6/22/2020 12:00:00 AM";"07:00 - 07:59";"08245";"Steigereiland";"4.98012952";"52.36313467";"11"
"6/22/2020 12:00:00 AM";"07:00 - 07:59";"08247";"Vennepluimstraat";"4.99057242";"52.35769662";"18"
"6/22/2020 12:00:00 AM";"07:00 - 07:59";"08249";"Diemerparklaan";"4.99499716";"52.35532962";"15"
"6/22/2020 12:00:00 AM";"07:00 - 07:59";"08252";"IJburg";"5.00432644";"52.35095620";"19"
"6/22/2020 12:00:00 AM";"07:00 - 07:59";"08257";"1e Coehoornstraat";"4.92618328";"52.36808685";"12"
"6/22/2020 12:00:00 AM";"07:00 - 07:59";"09015";"Amstelstation";"4.91940405";"52.34679531";"11"
"6/22/2020 12:00:00 AM";"07:00 - 07:59";"09051";"Victorieplein";"4.90653699";"52.34645615";"11"
"6/22/2020 12:00:00 AM";"07:00 - 07:59";"09097";"Van Woustraat";"4.90084070";"52.35468363";"11"
"6/22/2020 12:00:00 AM";"07:00 - 07:59";"09114";"De Pijp";"4.88948829";"52.35259622";"10"
"6/22/2020 12:00:00 AM";"07:00 - 07:59";"ASA";"Amstelstation";"4.91751426";"52.34647326";"136"
"6/22/2020 12:00:00 AM";"07:00 - 07:59";"ASW";"Amstelveenseweg";"4.85798324";"52.33836671";"234"
"6/22/2020 12:00:00 AM";"07:00 - 07:59";"BLW";"Bullewijk";"4.95233581";"52.30642205";"113"
"6/22/2020 12:00:00 AM";"07:00 - 07:59";"BMR";"Station Bijlmer ArenA";"4.94713474";"52.31193030";"243"
"6/22/2020 12:00:00 AM";"07:00 - 07:59";"CLL";"Station Lelylaan";"4.83426589";"52.35766291";"69"
"6/22/2020 12:00:00 AM";"07:00 - 07:59";"CS";"Centraal Station";"4.90078150";"52.37749421";"360"
"6/22/2020 12:00:00 AM";"07:00 - 07:59";"DMZ";"Station Diemen-Zuid";"4.95713273";"52.33042795";"23"
"6/22/2020 12:00:00 AM";"07:00 - 07:59";"DPP";"De Pijp";"4.89101069";"52.35296212";"99"
"6/22/2020 12:00:00 AM";"07:00 - 07:59";"DVD";"Station Duivendrecht";"4.93678429";"52.32325190";"56"
"6/22/2020 12:00:00 AM";"07:00 - 07:59";"EPP";"Europaplein";"4.89138430";"52.34185482";"59"
"6/22/2020 12:00:00 AM";"07:00 - 07:59";"GN";"Gein";"4.98952268";"52.29627089";"37"
"6/22/2020 12:00:00 AM";"07:00 - 07:59";"GPP";"Gaasperplas";"4.98468551";"52.31080575";"24"
"6/22/2020 12:00:00 AM";"07:00 - 07:59";"GZH";"Station Ganzenhoef";"4.97323379";"52.32331315";"35"
"6/22/2020 12:00:00 AM";"07:00 - 07:59";"HDS";"Heemstedestraat";"4.83421208";"52.35255760";"65"
"6/22/2020 12:00:00 AM";"07:00 - 07:59";"HLD";"Station Holendrecht";"4.96021904";"52.29780451";"250"
"6/22/2020 12:00:00 AM";"07:00 - 07:59";"HVW";"Henk Sneevlietweg";"4.83439318";"52.34626699";"103"
"6/22/2020 12:00:00 AM";"07:00 - 07:59";"ITW";"Isolatorweg";"4.85013475";"52.39523277";"36"
"6/22/2020 12:00:00 AM";"07:00 - 07:59";"JLS";"Jan v.Galenstraat";"4.83492461";"52.37196551";"125"
"6/22/2020 12:00:00 AM";"07:00 - 07:59";"KEN";"Kraaienneststation";"4.97963450";"52.31632492";"22"
"6/22/2020 12:00:00 AM";"07:00 - 07:59";"MDW";"Van der Madeweg";"4.93048657";"52.32945629";"53"
"6/22/2020 12:00:00 AM";"07:00 - 07:59";"ND";"Noord";"4.93123182";"52.40117202";"100"
"6/22/2020 12:00:00 AM";"07:00 - 07:59";"NDP";"Noorderpark";"4.91789115";"52.38855518";"53"
"6/22/2020 12:00:00 AM";"07:00 - 07:59";"NMT";"Nieuwmarkt";"4.90123885";"52.37194169";"56"
"6/22/2020 12:00:00 AM";"07:00 - 07:59";"OAS";"Overamstel";"4.91815361";"52.33179879";"37"
"6/22/2020 12:00:00 AM";"07:00 - 07:59";"PJW";"Postjesweg";"4.83385543";"52.36468044";"34"
"6/22/2020 12:00:00 AM";"07:00 - 07:59";"RAI";"Station RAI";"4.88982004";"52.33739931";"81"
"6/22/2020 12:00:00 AM";"07:00 - 07:59";"RGB";"Reigersbos";"4.97473728";"52.29566301";"35"
"6/22/2020 12:00:00 AM";"07:00 - 07:59";"RKN";"Rokin";"4.89229651";"52.36928023";"123"
"6/22/2020 12:00:00 AM";"07:00 - 07:59";"SLW";"Spaklerweg";"4.92085640";"52.33986250";"59"
"6/22/2020 12:00:00 AM";"07:00 - 07:59";"STD";"Station Sloterdijk";"4.83878389";"52.38880848";"158"
"6/22/2020 12:00:00 AM";"07:00 - 07:59";"SVT";"Strandvliet";"4.94152820";"52.31825469";"39"
"6/22/2020 12:00:00 AM";"07:00 - 07:59";"VLN";"Burg.de Vlugtlaan";"4.83809109";"52.37951196";"26"
"6/22/2020 12:00:00 AM";"07:00 - 07:59";"VPD";"Venserpolder";"4.94665009";"52.32679428";"19"
"6/22/2020 12:00:00 AM";"07:00 - 07:59";"VSW";"Verrijn Stuartweg";"4.96693669";"52.32844093";"30"
"6/22/2020 12:00:00 AM";"07:00 - 07:59";"VZG";"Vijzelgracht";"4.89072870";"52.35980061";"75"
"6/22/2020 12:00:00 AM";"07:00 - 07:59";"WBS";"Wibautstraat";"4.91202993";"52.35428867";"138"
"6/22/2020 12:00:00 AM";"07:00 - 07:59";"WLP";"Waterlooplein";"4.90298171";"52.36697862";"86"
"6/22/2020 12:00:00 AM";"07:00 - 07:59";"WPP";"Weesperplein";"4.90787469";"52.36120146";"132"
"6/22/2020 12:00:00 AM";"07:00 - 07:59";"WTC";"Station Zuid";"4.87509853";"52.33908015";"354"
"6/22/2020 12:00:00 AM";"08:00 - 08:59";"";"Overig";"";"";"2491"
"6/22/2020 12:00:00 AM";"08:00 - 08:59";"[[ Onb";"[[ Onbekend ]]";"0.00000000";"0.00000000";"243"
"6/22/2020 12:00:00 AM";"08:00 - 08:59";"00005";"Muiderpoortstation";"4.93280219";"52.36121887";"20"
"6/22/2020 12:00:00 AM";"08:00 - 08:59";"00008";"Dapperstraat";"4.92977913";"52.36110836";"25"
"6/22/2020 12:00:00 AM";"08:00 - 08:59";"00017";"Linnaeusstraat";"4.92573745";"52.36013099";"11"
"6/22/2020 12:00:00 AM";"08:00 - 08:59";"00020";"Beukenweg";"4.91674979";"52.35906203";"35"
"6/22/2020 12:00:00 AM";"08:00 - 08:59";"00021";"Beukenweg";"4.91721293";"52.35829991";"35"
"6/22/2020 12:00:00 AM";"08:00 - 08:59";"00023";"Beukenplein";"4.91809259";"52.35701816";"18"
"6/22/2020 12:00:00 AM";"08:00 - 08:59";"00029";"Oostpoort";"4.92719316";"52.35707185";"32"
"6/22/2020 12:00:00 AM";"08:00 - 08:59";"00030";"Oostpoort";"4.92694026";"52.35739442";"18"
"6/22/2020 12:00:00 AM";"08:00 - 08:59";"00039";"Hogeweg";"4.93084015";"52.35358075";"10"
"6/22/2020 12:00:00 AM";"08:00 - 08:59";"00040";"Hogeweg";"4.93135765";"52.35321425";"12"
"6/22/2020 12:00:00 AM";"08:00 - 08:59";"00059";"Radioweg";"4.93945830";"52.35337100";"16"
"6/22/2020 12:00:00 AM";"08:00 - 08:59";"00060";"Radioweg";"4.93979325";"52.35363291";"11"
"6/22/2020 12:00:00 AM";"08:00 - 08:59";"00070";"Kruislaan";"4.93993910";"52.34789929";"13"
"6/22/2020 12:00:00 AM";"08:00 - 08:59";"00116";"Station Ganzenhoef";"4.97272915";"52.32237665";"14"
"6/22/2020 12:00:00 AM";"08:00 - 08:59";"00128";"Geerdinkhof";"4.98077720";"52.32287193";"11"
"6/22/2020 12:00:00 AM";"08:00 - 08:59";"00134";"Koornhorst";"4.98400929";"52.31907218";"18"
"6/22/2020 12:00:00 AM";"08:00 - 08:59";"00141";"Kraaienneststation";"4.97868390";"52.31603403";"14"
"6/22/2020 12:00:00 AM";"08:00 - 08:59";"00151";"Tulastraat";"4.96584458";"52.31985374";"12"
"6/22/2020 12:00:00 AM";"08:00 - 08:59";"00152";"Florijn";"4.95859163";"52.31758973";"15"
"6/22/2020 12:00:00 AM";"08:00 - 08:59";"00153";"Florijn";"4.95971907";"52.31778255";"17"
"6/22/2020 12:00:00 AM";"08:00 - 08:59";"00158";"Dolingadreef";"4.94901581";"52.31895674";"14"
"6/22/2020 12:00:00 AM";"08:00 - 08:59";"00172";"Holendrechtplein";"4.96402882";"52.29952588";"17"
"6/22/2020 12:00:00 AM";"08:00 - 08:59";"00238";"Anton de Komplein";"4.95413359";"52.31603659";"12"
"6/22/2020 12:00:00 AM";"08:00 - 08:59";"00351";"Dostojevskisingel";"4.94525272";"52.32275356";"11"
"6/22/2020 12:00:00 AM";"08:00 - 08:59";"00432";"Diemerbrug";"4.96142958";"52.33824484";"10"
"6/22/2020 12:00:00 AM";"08:00 - 08:59";"00441";"Muiderpoortstation";"4.93254137";"52.36088532";"10"
"6/22/2020 12:00:00 AM";"08:00 - 08:59";"00444";"Linnaeusstraat";"4.92490296";"52.35991203";"29"
"6/22/2020 12:00:00 AM";"08:00 - 08:59";"00453";"Diemen Sniep";"4.96964866";"52.33644962";"16"
"6/22/2020 12:00:00 AM";"08:00 - 08:59";"00518";"Foppingadreef";"4.94967889";"52.31268573";"15"
"6/22/2020 12:00:00 AM";"08:00 - 08:59";"00560";"Station Bijlmer ArenA";"4.94747867";"52.31125750";"32"
"6/22/2020 12:00:00 AM";"08:00 - 08:59";"00561";"Station Bijlmer ArenA";"4.94741931";"52.31132918";"38"
"6/22/2020 12:00:00 AM";"08:00 - 08:59";"00562";"Station Bijlmer ArenA";"4.94736012";"52.31138289";"14"
"6/22/2020 12:00:00 AM";"08:00 - 08:59";"00568";"Station Bijlmer ArenA";"4.94762664";"52.31112323";"14"
"6/22/2020 12:00:00 AM";"08:00 - 08:59";"00985";"Winkelcentrum";"4.96422695";"52.34186794";"10"
"6/22/2020 12:00:00 AM";"08:00 - 08:59";"01005";"Volendammerweg";"4.95680438";"52.39306199";"14"
"6/22/2020 12:00:00 AM";"08:00 - 08:59";"01076";"Waterlandplein";"4.95247364";"52.39274059";"13"
"6/22/2020 12:00:00 AM";"08:00 - 08:59";"01078";"Dijkmanshuizenstraat";"4.95475323";"52.39549915";"13"
"6/22/2020 12:00:00 AM";"08:00 - 08:59";"01111";"Rode Kruisstraat";"4.92881363";"52.39488033";"14"
"6/22/2020 12:00:00 AM";"08:00 - 08:59";"01155";"Mosplein";"4.91358361";"52.39300490";"11"
"6/22/2020 12:00:00 AM";"08:00 - 08:59";"01191";"Pinksterbloemstraat";"4.91203754";"52.39881372";"12"
"6/22/2020 12:00:00 AM";"08:00 - 08:59";"01212";"Oostzanerdijk";"4.88149588";"52.42023965";"28"
"6/22/2020 12:00:00 AM";"08:00 - 08:59";"01315";"Station Noord";"4.93339740";"52.40206112";"11"
"6/22/2020 12:00:00 AM";"08:00 - 08:59";"01317";"Station Noord";"4.93335369";"52.40202501";"14"
"6/22/2020 12:00:00 AM";"08:00 - 08:59";"01347";"Nageljongenstraat";"4.89978361";"52.40815603";"13"
"6/22/2020 12:00:00 AM";"08:00 - 08:59";"01359";"Molenwijk";"4.89361832";"52.41807082";"10"
"6/22/2020 12:00:00 AM";"08:00 - 08:59";"01364";"Buikslotermeerplein";"4.93887054";"52.39992493";"10"
"6/22/2020 12:00:00 AM";"08:00 - 08:59";"01365";"Atat?rk";"4.89794256";"52.40319625";"12"
"6/22/2020 12:00:00 AM";"08:00 - 08:59";"01369";"Pomonastraat";"4.89546974";"52.40886620";"12"
"6/22/2020 12:00:00 AM";"08:00 - 08:59";"01402";"Floraweg";"4.90614362";"52.39899665";"14"
"6/22/2020 12:00:00 AM";"08:00 - 08:59";"01414";"Olof Palmeplein";"4.94012168";"52.39679298";"11"
"6/22/2020 12:00:00 AM";"08:00 - 08:59";"01422";"Noorderpark";"4.91956087";"52.38902016";"23"
"6/22/2020 12:00:00 AM";"08:00 - 08:59";"02018";"Koivistokade";"4.87577082";"52.39789874";"11"
"6/22/2020 12:00:00 AM";"08:00 - 08:59";"02019";"Koivistokade";"4.87537403";"52.39790601";"25"
"6/22/2020 12:00:00 AM";"08:00 - 08:59";"02064";"Kabelweg";"4.84827817";"52.39205168";"14"
"6/22/2020 12:00:00 AM";"08:00 - 08:59";"02081";"Haparandaweg";"4.87212228";"52.39451255";"25"
"6/22/2020 12:00:00 AM";"08:00 - 08:59";"02103";"Spaarndammerstraat";"4.87765867";"52.39216375";"13"
"6/22/2020 12:00:00 AM";"08:00 - 08:59";"02113";"Haarlemmerplein";"4.88371739";"52.38516129";"16"
"6/22/2020 12:00:00 AM";"08:00 - 08:59";"02114";"Haarlemmerplein";"4.88341252";"52.38484542";"28"
"6/22/2020 12:00:00 AM";"08:00 - 08:59";"02118";"Nw.Willemsstraat";"4.88088280";"52.38127551";"13"
"6/22/2020 12:00:00 AM";"08:00 - 08:59";"02132";"Fred. Hendrikplants.";"4.87543499";"52.37862768";"13"
"6/22/2020 12:00:00 AM";"08:00 - 08:59";"02155";"Willem de Zwijgerlaan";"4.86360306";"52.37071170";"12"
"6/22/2020 12:00:00 AM";"08:00 - 08:59";"02156";"Willem de Zwijgerlaan";"4.86425293";"52.37039101";"13"
"6/22/2020 12:00:00 AM";"08:00 - 08:59";"02157";"Adm. de Ruijterweg";"4.86009910";"52.37148707";"13"
"6/22/2020 12:00:00 AM";"08:00 - 08:59";"02158";"Adm. de Ruijterweg";"4.86096776";"52.37129320";"21"
"6/22/2020 12:00:00 AM";"08:00 - 08:59";"02170";"Spaarndammerstraat";"4.87723089";"52.39231470";"11"
"6/22/2020 12:00:00 AM";"08:00 - 08:59";"02183";"Markthallen";"4.86667150";"52.37575835";"15"
"6/22/2020 12:00:00 AM";"08:00 - 08:59";"02184";"Jan v.Galenstraat";"4.86033817";"52.37484954";"12"
"6/22/2020 12:00:00 AM";"08:00 - 08:59";"02195";"Marnixplein";"4.87918057";"52.37858089";"19"
"6/22/2020 12:00:00 AM";"08:00 - 08:59";"02196";"Marnixplein";"4.87951351";"52.37900474";"18"
"6/22/2020 12:00:00 AM";"08:00 - 08:59";"02222";"Jan van Galenstraat";"4.85874763";"52.37399761";"10"
"6/22/2020 12:00:00 AM";"08:00 - 08:59";"02361";"Station Sloterdijk";"4.83931858";"52.38833460";"29"
"6/22/2020 12:00:00 AM";"08:00 - 08:59";"02368";"Station Sloterdijk";"4.83877999";"52.38793665";"17"
"6/22/2020 12:00:00 AM";"08:00 - 08:59";"02370";"Station Sloterdijk";"4.83879745";"52.38771204";"32"
"6/22/2020 12:00:00 AM";"08:00 - 08:59";"03009";"Witte de Withstraat";"4.85851970";"52.36478416";"14"
"6/22/2020 12:00:00 AM";"08:00 - 08:59";"03010";"Witte de Withstraat";"4.85928290";"52.36480554";"21"
"6/22/2020 12:00:00 AM";"08:00 - 08:59";"03022";"Mercatorplein";"4.85070310";"52.37012367";"13"
"6/22/2020 12:00:00 AM";"08:00 - 08:59";"03023";"Marco Polostraat";"4.85520189";"52.37088096";"25"
"6/22/2020 12:00:00 AM";"08:00 - 08:59";"03034";"Erasmusgracht";"4.84691117";"52.37644278";"10"
"6/22/2020 12:00:00 AM";"08:00 - 08:59";"03052";"Burg. Eliasstraat";"4.82565009";"52.38077481";"18"
"6/22/2020 12:00:00 AM";"08:00 - 08:59";"03060";"Bos en Lommerplein";"4.84718407";"52.37815169";"15"
"6/22/2020 12:00:00 AM";"08:00 - 08:59";"03061";"Bos en Lommerplein";"4.84523530";"52.37778328";"34"
"6/22/2020 12:00:00 AM";"08:00 - 08:59";"03076";"Jan Tooropstraat";"4.83810313";"52.37142305";"11"
"6/22/2020 12:00:00 AM";"08:00 - 08:59";"03087";"Plein '40 - '45";"4.82063128";"52.38159575";"11"
"6/22/2020 12:00:00 AM";"08:00 - 08:59";"03090";"Slotermeerlaan";"4.81728149";"52.37596234";"14"
"6/22/2020 12:00:00 AM";"08:00 - 08:59";"03099";"Dr. H. Colijnstraat";"4.80672448";"52.37693566";"13"
"6/22/2020 12:00:00 AM";"08:00 - 08:59";"03101";"Lambertus Zijlplein";"4.80300456";"52.37726788";"11"
"6/22/2020 12:00:00 AM";"08:00 - 08:59";"03129";"Plein '40 - '45";"4.82112671";"52.38075328";"44"
"6/22/2020 12:00:00 AM";"08:00 - 08:59";"03157";"Lambertus Zijlplein";"4.80338637";"52.37726977";"10"
"6/22/2020 12:00:00 AM";"08:00 - 08:59";"03161";"Burg.de Vlugtlaan";"4.83836568";"52.37868636";"11"
"6/22/2020 12:00:00 AM";"08:00 - 08:59";"03167";"Bos en Lommerplein";"4.84650668";"52.37709704";"10"
"6/22/2020 12:00:00 AM";"08:00 - 08:59";"03168";"Mercatorplein";"4.85152392";"52.37024423";"23"
"6/22/2020 12:00:00 AM";"08:00 - 08:59";"03181";"Jan Voermanstraat";"4.83788946";"52.36970540";"20"
"6/22/2020 12:00:00 AM";"08:00 - 08:59";"03197";"W. Schoutenstraat";"4.85238084";"52.36737202";"11"
"6/22/2020 12:00:00 AM";"08:00 - 08:59";"04012";"Baden Powellweg";"4.79137362";"52.35646612";"16"
"6/22/2020 12:00:00 AM";"08:00 - 08:59";"04016";"Hoekenes";"4.79854723";"52.35791310";"13"
"6/22/2020 12:00:00 AM";"08:00 - 08:59";"04021";"Osdorpplein";"4.80322868";"52.35913166";"29"
"6/22/2020 12:00:00 AM";"08:00 - 08:59";"04036";"Tussen Meer";"4.79073981";"52.35666066";"11"
"6/22/2020 12:00:00 AM";"08:00 - 08:59";"04043";"Ruimzicht";"4.80749209";"52.35978176";"12"
"6/22/2020 12:00:00 AM";"08:00 - 08:59";"04050";"Meer en Vaart";"4.80994403";"52.35636940";"26"
"6/22/2020 12:00:00 AM";"08:00 - 08:59";"04061";"Derkinderenstraat";"4.84014895";"52.35794190";"12"
"6/22/2020 12:00:00 AM";"08:00 - 08:59";"04062";"Johan Huizingalaan";"4.82582327";"52.35781191";"15"
"6/22/2020 12:00:00 AM";"08:00 - 08:59";"04063";"Johan Huizingalaan";"4.82626398";"52.35778704";"12"
"6/22/2020 12:00:00 AM";"08:00 - 08:59";"04088";"Louwesweg";"4.82436420";"52.34669608";"10"
"6/22/2020 12:00:00 AM";"08:00 - 08:59";"04110";"Westlandgracht";"4.84581964";"52.35156868";"12"
"6/22/2020 12:00:00 AM";"08:00 - 08:59";"04112";"Johan Huizingalaan";"4.82742878";"52.34923618";"33"
"6/22/2020 12:00:00 AM";"08:00 - 08:59";"04132";"Jan Tooropstraat";"4.83537474";"52.36411231";"11"
"6/22/2020 12:00:00 AM";"08:00 - 08:59";"04195";"Station Lelylaan";"4.83460082";"52.35788018";"59"
"6/22/2020 12:00:00 AM";"08:00 - 08:59";"04196";"Station Lelylaan";"4.83382251";"52.35790351";"63"
"6/22/2020 12:00:00 AM";"08:00 - 08:59";"04267";"Schiphol Airport/Plaza";"4.76139455";"52.30887344";"19"
"6/22/2020 12:00:00 AM";"08:00 - 08:59";"04277";"Laan v.Vlaanderen";"4.81642720";"52.34648730";"15"
"6/22/2020 12:00:00 AM";"08:00 - 08:59";"04379";"Knooppunt Schiphol Nrd";"4.79320459";"52.32276196";"20"
"6/22/2020 12:00:00 AM";"08:00 - 08:59";"04402";"Matterhorn";"4.77477998";"52.35372103";"14"
"6/22/2020 12:00:00 AM";"08:00 - 08:59";"04407";"Ecuplein";"4.78817670";"52.34970912";"10"
"6/22/2020 12:00:00 AM";"08:00 - 08:59";"04409";"Baden Powellweg";"4.79441281";"52.35092691";"12"
"6/22/2020 12:00:00 AM";"08:00 - 08:59";"04411";"Hoekenes";"4.80183430";"52.35243785";"14"
"6/22/2020 12:00:00 AM";"08:00 - 08:59";"04413";"Louis Davidsstraat";"4.80850916";"52.35383682";"14"
"6/22/2020 12:00:00 AM";"08:00 - 08:59";"04427";"Pieter Calandlaan";"4.79426195";"52.35013523";"11"
"6/22/2020 12:00:00 AM";"08:00 - 08:59";"05022";"Centraal Station";"4.90104337";"52.37771998";"40"
"6/22/2020 12:00:00 AM";"08:00 - 08:59";"05024";"Centraal Station";"4.89813942";"52.37736648";"68"
"6/22/2020 12:00:00 AM";"08:00 - 08:59";"05029";"Centraal Station";"4.90334975";"52.37900567";"94"
"6/22/2020 12:00:00 AM";"08:00 - 08:59";"05031";"Dam";"4.89348394";"52.37341055";"18"
"6/22/2020 12:00:00 AM";"08:00 - 08:59";"05032";"Dam";"4.89549360";"52.37492885";"18"
"6/22/2020 12:00:00 AM";"08:00 - 08:59";"05036";"Rokin";"4.89230478";"52.36985548";"13"
"6/22/2020 12:00:00 AM";"08:00 - 08:59";"05047";"Rembrandtplein";"4.89702882";"52.36623511";"37"
"6/22/2020 12:00:00 AM";"08:00 - 08:59";"05062";"Spui";"4.88925912";"52.36909673";"22"
"6/22/2020 12:00:00 AM";"08:00 - 08:59";"05063";"Dam";"4.89064590";"52.37244599";"14"
"6/22/2020 12:00:00 AM";"08:00 - 08:59";"05065";"Dam";"4.89079364";"52.37367792";"28"
"6/22/2020 12:00:00 AM";"08:00 - 08:59";"05066";"Dam";"4.89027056";"52.37318140";"31"
"6/22/2020 12:00:00 AM";"08:00 - 08:59";"05069";"Nieuwezijds Kolk";"4.89373093";"52.37628765";"16"
"6/22/2020 12:00:00 AM";"08:00 - 08:59";"05073";"Westermarkt";"4.88453426";"52.37400204";"27"
"6/22/2020 12:00:00 AM";"08:00 - 08:59";"05074";"Westermarkt";"4.88354950";"52.37407874";"66"
"6/22/2020 12:00:00 AM";"08:00 - 08:59";"05077";"Marnixstraat";"4.87615428";"52.37228546";"16"
"6/22/2020 12:00:00 AM";"08:00 - 08:59";"05080";"Buiten Oranjestraat";"4.88782167";"52.38330923";"10"
"6/22/2020 12:00:00 AM";"08:00 - 08:59";"05081";"Buiten Brouwersstraat";"4.89157253";"52.38150947";"10"
"6/22/2020 12:00:00 AM";"08:00 - 08:59";"05092";"Barentszplein";"4.89160204";"52.38938281";"14"
"6/22/2020 12:00:00 AM";"08:00 - 08:59";"05097";"Centraal Station";"4.90087651";"52.37954379";"35"
"6/22/2020 12:00:00 AM";"08:00 - 08:59";"05103";"Centraal Station";"4.90127481";"52.37938365";"22"
"6/22/2020 12:00:00 AM";"08:00 - 08:59";"05104";"Centraal Station";"4.90164343";"52.37925034";"13"
"6/22/2020 12:00:00 AM";"08:00 - 08:59";"05105";"Centraal Station";"4.90187762";"52.37932321";"10"
"6/22/2020 12:00:00 AM";"08:00 - 08:59";"06001";"Surinameplein";"4.85252231";"52.35807034";"36"
"6/22/2020 12:00:00 AM";"08:00 - 08:59";"06002";"Surinameplein";"4.85090753";"52.35807202";"15"
"6/22/2020 12:00:00 AM";"08:00 - 08:59";"06016";"J.P. Heijestraat";"4.86239635";"52.36472951";"14"
"6/22/2020 12:00:00 AM";"08:00 - 08:59";"06017";"J.P. Heijestraat";"4.86292316";"52.36487565";"13"
"6/22/2020 12:00:00 AM";"08:00 - 08:59";"06019";"Ten Katestraat";"4.86737423";"52.36591988";"23"
"6/22/2020 12:00:00 AM";"08:00 - 08:59";"06020";"Ten Katestraat";"4.86773990";"52.36603832";"36"
"6/22/2020 12:00:00 AM";"08:00 - 08:59";"06021";"Bilderdijkstraat";"4.87176488";"52.36712545";"13"
"6/22/2020 12:00:00 AM";"08:00 - 08:59";"06023";"Bilderdijkstraat";"4.87254032";"52.36736251";"11"
"6/22/2020 12:00:00 AM";"08:00 - 08:59";"06027";"Elandsgracht";"4.87855189";"52.36808953";"15"
"6/22/2020 12:00:00 AM";"08:00 - 08:59";"06028";"Elandsgracht";"4.87741694";"52.36974738";"24"
"6/22/2020 12:00:00 AM";"08:00 - 08:59";"06029";"Elandsgracht";"4.87684368";"52.36852258";"26"
"6/22/2020 12:00:00 AM";"08:00 - 08:59";"06034";"Bilderdijkstraat";"4.87082347";"52.37105798";"11"
"6/22/2020 12:00:00 AM";"08:00 - 08:59";"06037";"Bilderdijkstraat";"4.86985701";"52.37082906";"22"
"6/22/2020 12:00:00 AM";"08:00 - 08:59";"06038";"De Clercqstraat";"4.87040279";"52.37061574";"12"
"6/22/2020 12:00:00 AM";"08:00 - 08:59";"06045";"1e Con. Huygensstraat";"4.87399228";"52.36242556";"15"
"6/22/2020 12:00:00 AM";"08:00 - 08:59";"06046";"1e Con. Huygensstraat";"4.87487082";"52.36262709";"27"
"6/22/2020 12:00:00 AM";"08:00 - 08:59";"06048";"J.P. Heijestraat";"4.86585368";"52.36037674";"20"
"6/22/2020 12:00:00 AM";"08:00 - 08:59";"06049";"J.P. Heijestraat";"4.86671778";"52.36055131";"18"
"6/22/2020 12:00:00 AM";"08:00 - 08:59";"06059";"Spiegelgracht";"4.88762090";"52.36071327";"27"
"6/22/2020 12:00:00 AM";"08:00 - 08:59";"06063";"Leidseplein";"4.88064547";"52.36476406";"29"
"6/22/2020 12:00:00 AM";"08:00 - 08:59";"06072";"Prinsengracht";"4.88428435";"52.36495933";"16"
"6/22/2020 12:00:00 AM";"08:00 - 08:59";"06074";"Keizersgracht";"4.88624128";"52.36588437";"19"
"6/22/2020 12:00:00 AM";"08:00 - 08:59";"06076";"Koningsplein";"4.88857910";"52.36689188";"28"
"6/22/2020 12:00:00 AM";"08:00 - 08:59";"06081";"Rhijnvis Feithstraat";"4.86039355";"52.35905833";"13"
"6/22/2020 12:00:00 AM";"08:00 - 08:59";"06089";"Leidseplein";"4.88085541";"52.36309324";"57"
"6/22/2020 12:00:00 AM";"08:00 - 08:59";"06114";"Hoofdweg";"4.85444451";"52.36425359";"19"
"6/22/2020 12:00:00 AM";"08:00 - 08:59";"06115";"Postjesweg";"4.85319014";"52.36478720";"16"
"6/22/2020 12:00:00 AM";"08:00 - 08:59";"07006";"Museumplein";"4.87980116";"52.35642881";"42"
"6/22/2020 12:00:00 AM";"08:00 - 08:59";"07007";"Museumplein";"4.87950215";"52.35690388";"77"
"6/22/2020 12:00:00 AM";"08:00 - 08:59";"07015";"Roelof Hartplein";"4.88206971";"52.35314900";"20"
"6/22/2020 12:00:00 AM";"08:00 - 08:59";"07016";"Roelof Hartplein";"4.88286688";"52.35274795";"29"
"6/22/2020 12:00:00 AM";"08:00 - 08:59";"07027";"Corn. Schuytstraat";"4.87051458";"52.35597520";"19"
"6/22/2020 12:00:00 AM";"08:00 - 08:59";"07028";"Corn. Schuytstraat";"4.87088070";"52.35604870";"12"
"6/22/2020 12:00:00 AM";"08:00 - 08:59";"07032";"Valeriusplein";"4.86326678";"52.35318410";"12"
"6/22/2020 12:00:00 AM";"08:00 - 08:59";"07034";"Amstelveenseweg";"4.85596467";"52.35132704";"12"
"6/22/2020 12:00:00 AM";"08:00 - 08:59";"07045";"Haarlemmermeerstraat";"4.85023862";"52.35512100";"10"
"6/22/2020 12:00:00 AM";"08:00 - 08:59";"07049";"Hoofddorpplein";"4.84958188";"52.35117239";"21"
"6/22/2020 12:00:00 AM";"08:00 - 08:59";"07050";"Haarlemmermeerstation";"4.85744749";"52.34883508";"21"
"6/22/2020 12:00:00 AM";"08:00 - 08:59";"07083";"Gerrit v.d. Veenstraat";"4.87735929";"52.34921014";"13"
"6/22/2020 12:00:00 AM";"08:00 - 08:59";"07084";"Gerrit v.d. Veenstraat";"4.87720177";"52.34886793";"14"
"6/22/2020 12:00:00 AM";"08:00 - 08:59";"07088";"Stadionweg";"4.87687497";"52.34665553";"13"
"6/22/2020 12:00:00 AM";"08:00 - 08:59";"07097";"Olympiaplein";"4.86582821";"52.34630180";"12"
"6/22/2020 12:00:00 AM";"08:00 - 08:59";"07098";"Olympiaplein";"4.86659057";"52.34636807";"10"
"6/22/2020 12:00:00 AM";"08:00 - 08:59";"07120";"Olympiaweg";"4.85834130";"52.34526195";"14"
"6/22/2020 12:00:00 AM";"08:00 - 08:59";"07190";"Station Zuid";"4.87352214";"52.34089784";"13"
"6/22/2020 12:00:00 AM";"08:00 - 08:59";"07193";"Station Zuid";"4.87334616";"52.34088808";"18"
"6/22/2020 12:00:00 AM";"08:00 - 08:59";"07266";"Station Zuid";"4.87252654";"52.34070477";"25"
"6/22/2020 12:00:00 AM";"08:00 - 08:59";"07268";"Station Zuid";"4.87428608";"52.34082026";"13"
"6/22/2020 12:00:00 AM";"08:00 - 08:59";"07269";"Station Zuid";"4.87374306";"52.34082689";"28"
"6/22/2020 12:00:00 AM";"08:00 - 08:59";"07303";"VU medisch centrum";"4.86097062";"52.33515342";"26"
"6/22/2020 12:00:00 AM";"08:00 - 08:59";"07321";"Van Baerlestraat";"4.87895796";"52.35827667";"23"
"6/22/2020 12:00:00 AM";"08:00 - 08:59";"07322";"Van Baerlestraat";"4.87971942";"52.35844171";"35"
"6/22/2020 12:00:00 AM";"08:00 - 08:59";"07323";"Rijksmuseum";"4.88355043";"52.35977029";"24"
"6/22/2020 12:00:00 AM";"08:00 - 08:59";"07324";"Rijksmuseum";"4.88332565";"52.36017378";"13"
"6/22/2020 12:00:00 AM";"08:00 - 08:59";"07391";"Kronenburg";"4.87070592";"52.31556694";"16"
"6/22/2020 12:00:00 AM";"08:00 - 08:59";"07411";"De Boelelaan/VU";"4.86881254";"52.33454990";"13"
"6/22/2020 12:00:00 AM";"08:00 - 08:59";"07415";"A.J. Ernststraat";"4.86881729";"52.33162889";"19"
"6/22/2020 12:00:00 AM";"08:00 - 08:59";"07419";"Van Boshuizenstraat";"4.86896941";"52.32487971";"44"
"6/22/2020 12:00:00 AM";"08:00 - 08:59";"07423";"Uilenstede";"4.86910951";"52.32167168";"17"
"6/22/2020 12:00:00 AM";"08:00 - 08:59";"07435";"Onderuit";"4.87243689";"52.30793483";"10"
"6/22/2020 12:00:00 AM";"08:00 - 08:59";"07439";"Oranjebaan";"4.87179001";"52.30302465";"13"
"6/22/2020 12:00:00 AM";"08:00 - 08:59";"07445";"Amstelveen Stadshart";"4.86751502";"52.30124433";"27"
"6/22/2020 12:00:00 AM";"08:00 - 08:59";"07505";"Ziekenhuis";"4.87154263";"52.29401774";"13"
"6/22/2020 12:00:00 AM";"08:00 - 08:59";"07506";"Groenhof";"4.86811736";"52.28858308";"11"
"6/22/2020 12:00:00 AM";"08:00 - 08:59";"07509";"Praam";"4.85570317";"52.27999842";"11"
"6/22/2020 12:00:00 AM";"08:00 - 08:59";"07513";"Sacharovlaan";"4.83264484";"52.28179795";"20"
"6/22/2020 12:00:00 AM";"08:00 - 08:59";"08007";"Bob Haarmslaan";"4.96921237";"52.36876786";"14"
"6/22/2020 12:00:00 AM";"08:00 - 08:59";"08009";"Bob Haarmslaan";"4.96859205";"52.36915214";"21"
"6/22/2020 12:00:00 AM";"08:00 - 08:59";"08016";"Wittenburgergracht";"4.91969400";"52.36942754";"10"
"6/22/2020 12:00:00 AM";"08:00 - 08:59";"08051";"K. 's-Gravesandestr.";"4.91366120";"52.36235720";"13"
"6/22/2020 12:00:00 AM";"08:00 - 08:59";"08053";"Weesperplein";"4.90655690";"52.36088154";"13"
"6/22/2020 12:00:00 AM";"08:00 - 08:59";"08054";"Weesperplein";"4.90941338";"52.36145933";"36"
"6/22/2020 12:00:00 AM";"08:00 - 08:59";"08057";"Frederiksplein";"4.90024241";"52.35971430";"26"
"6/22/2020 12:00:00 AM";"08:00 - 08:59";"08058";"Veelaan";"4.93961588";"52.36830916";"16"
"6/22/2020 12:00:00 AM";"08:00 - 08:59";"08066";"Frederiksplein";"4.89751569";"52.35937050";"24"
"6/22/2020 12:00:00 AM";"08:00 - 08:59";"08072";"Vijzelgracht";"4.89159781";"52.35953462";"17"
"6/22/2020 12:00:00 AM";"08:00 - 08:59";"08073";"Vijzelgracht";"4.89227386";"52.35946554";"20"
"6/22/2020 12:00:00 AM";"08:00 - 08:59";"08080";"Spiegelgracht";"4.88691222";"52.36106979";"25"
"6/22/2020 12:00:00 AM";"08:00 - 08:59";"08120";"Insulindeweg";"4.94763926";"52.36469021";"20"
"6/22/2020 12:00:00 AM";"08:00 - 08:59";"08121";"Soembawastraat";"4.94391980";"52.36224967";"12"
"6/22/2020 12:00:00 AM";"08:00 - 08:59";"08124";"Soembawastraat";"4.94346569";"52.36214910";"15"
"6/22/2020 12:00:00 AM";"08:00 - 08:59";"08129";"Molukkenstraat";"4.93861286";"52.36150167";"16"
"6/22/2020 12:00:00 AM";"08:00 - 08:59";"08132";"Valentijnkade";"4.94079607";"52.35900236";"12"
"6/22/2020 12:00:00 AM";"08:00 - 08:59";"08190";"Molukkenstraat";"4.93934614";"52.36157635";"12"
"6/22/2020 12:00:00 AM";"08:00 - 08:59";"08195";"Oostenburgergracht";"4.92452709";"52.36780177";"14"
"6/22/2020 12:00:00 AM";"08:00 - 08:59";"08235";"Muziekgeb. Bimhuis";"4.91290020";"52.37723779";"14"
"6/22/2020 12:00:00 AM";"08:00 - 08:59";"08237";"Kattenburgerstraat";"4.92126795";"52.37614755";"29"
"6/22/2020 12:00:00 AM";"08:00 - 08:59";"08238";"Rietlandpark";"4.93350159";"52.37322013";"21"
"6/22/2020 12:00:00 AM";"08:00 - 08:59";"08239";"Rietlandpark";"4.93413567";"52.37296191";"33"
"6/22/2020 12:00:00 AM";"08:00 - 08:59";"08241";"Zuiderzeeweg";"4.96185517";"52.37193228";"21"
"6/22/2020 12:00:00 AM";"08:00 - 08:59";"08244";"Steigereiland";"4.98083725";"52.36280456";"10"
"6/22/2020 12:00:00 AM";"08:00 - 08:59";"08245";"Steigereiland";"4.98012952";"52.36313467";"44"
"6/22/2020 12:00:00 AM";"08:00 - 08:59";"08247";"Vennepluimstraat";"4.99057242";"52.35769662";"23"
"6/22/2020 12:00:00 AM";"08:00 - 08:59";"08249";"Diemerparklaan";"4.99499716";"52.35532962";"20"
"6/22/2020 12:00:00 AM";"08:00 - 08:59";"08252";"IJburg";"5.00432644";"52.35095620";"58"
"6/22/2020 12:00:00 AM";"08:00 - 08:59";"08255";"Hoogte Kadijk";"4.92483038";"52.36687722";"10"
"6/22/2020 12:00:00 AM";"08:00 - 08:59";"08300";"P.Oosterhuisstraat";"5.00693059";"52.35193526";"14"
"6/22/2020 12:00:00 AM";"08:00 - 08:59";"09013";"Amstelstation";"4.91790223";"52.34725673";"17"
"6/22/2020 12:00:00 AM";"08:00 - 08:59";"09016";"Amstelstation";"4.91953925";"52.34649925";"12"
"6/22/2020 12:00:00 AM";"08:00 - 08:59";"09049";"Victorieplein";"4.90570139";"52.34637186";"28"
"6/22/2020 12:00:00 AM";"08:00 - 08:59";"09051";"Victorieplein";"4.90653699";"52.34645615";"15"
"6/22/2020 12:00:00 AM";"08:00 - 08:59";"09060";"Waalstraat";"4.90103893";"52.34462715";"11"
"6/22/2020 12:00:00 AM";"08:00 - 08:59";"09075";"Scheldestraat";"4.89161737";"52.34726643";"12"
"6/22/2020 12:00:00 AM";"08:00 - 08:59";"09082";"Waalstraat";"4.89974094";"52.34656317";"10"
"6/22/2020 12:00:00 AM";"08:00 - 08:59";"09097";"Van Woustraat";"4.90084070";"52.35468363";"22"
"6/22/2020 12:00:00 AM";"08:00 - 08:59";"09111";"De Pijp";"4.89073444";"52.35272728";"20"
"6/22/2020 12:00:00 AM";"08:00 - 08:59";"09114";"De Pijp";"4.88948829";"52.35259622";"12"
"6/22/2020 12:00:00 AM";"08:00 - 08:59";"09175";"James Wattstraat";"4.92275924";"52.35153607";"10"
"6/22/2020 12:00:00 AM";"08:00 - 08:59";"09176";"James Wattstraat";"4.92329155";"52.35116068";"17"
"6/22/2020 12:00:00 AM";"08:00 - 08:59";"ASA";"Amstelstation";"4.91751426";"52.34647326";"221"
"6/22/2020 12:00:00 AM";"08:00 - 08:59";"ASW";"Amstelveenseweg";"4.85798324";"52.33836671";"259"
"6/22/2020 12:00:00 AM";"08:00 - 08:59";"BLW";"Bullewijk";"4.95233581";"52.30642205";"130"
"6/22/2020 12:00:00 AM";"08:00 - 08:59";"BMR";"Station Bijlmer ArenA";"4.94713474";"52.31193030";"308"
"6/22/2020 12:00:00 AM";"08:00 - 08:59";"CLL";"Station Lelylaan";"4.83426589";"52.35766291";"118"
"6/22/2020 12:00:00 AM";"08:00 - 08:59";"CS";"Centraal Station";"4.90078150";"52.37749421";"429"
"6/22/2020 12:00:00 AM";"08:00 - 08:59";"DMZ";"Station Diemen-Zuid";"4.95713273";"52.33042795";"45"
"6/22/2020 12:00:00 AM";"08:00 - 08:59";"DPP";"De Pijp";"4.89101069";"52.35296212";"190"
"6/22/2020 12:00:00 AM";"08:00 - 08:59";"DVD";"Station Duivendrecht";"4.93678429";"52.32325190";"69"
"6/22/2020 12:00:00 AM";"08:00 - 08:59";"EPP";"Europaplein";"4.89138430";"52.34185482";"138"
"6/22/2020 12:00:00 AM";"08:00 - 08:59";"GN";"Gein";"4.98952268";"52.29627089";"87"
"6/22/2020 12:00:00 AM";"08:00 - 08:59";"GPP";"Gaasperplas";"4.98468551";"52.31080575";"32"
"6/22/2020 12:00:00 AM";"08:00 - 08:59";"GZH";"Station Ganzenhoef";"4.97323379";"52.32331315";"44"
"6/22/2020 12:00:00 AM";"08:00 - 08:59";"HDS";"Heemstedestraat";"4.83421208";"52.35255760";"82"
"6/22/2020 12:00:00 AM";"08:00 - 08:59";"HLD";"Station Holendrecht";"4.96021904";"52.29780451";"299"
"6/22/2020 12:00:00 AM";"08:00 - 08:59";"HVW";"Henk Sneevlietweg";"4.83439318";"52.34626699";"164"
"6/22/2020 12:00:00 AM";"08:00 - 08:59";"ITW";"Isolatorweg";"4.85013475";"52.39523277";"91"
"6/22/2020 12:00:00 AM";"08:00 - 08:59";"JLS";"Jan v.Galenstraat";"4.83492461";"52.37196551";"130"
"6/22/2020 12:00:00 AM";"08:00 - 08:59";"KEN";"Kraaienneststation";"4.97963450";"52.31632492";"58"
"6/22/2020 12:00:00 AM";"08:00 - 08:59";"MDW";"Van der Madeweg";"4.93048657";"52.32945629";"85"
"6/22/2020 12:00:00 AM";"08:00 - 08:59";"ND";"Noord";"4.93123182";"52.40117202";"173"
"6/22/2020 12:00:00 AM";"08:00 - 08:59";"NDP";"Noorderpark";"4.91789115";"52.38855518";"134"
"6/22/2020 12:00:00 AM";"08:00 - 08:59";"NMT";"Nieuwmarkt";"4.90123885";"52.37194169";"75"
"6/22/2020 12:00:00 AM";"08:00 - 08:59";"OAS";"Overamstel";"4.91815361";"52.33179879";"90"
"6/22/2020 12:00:00 AM";"08:00 - 08:59";"PJW";"Postjesweg";"4.83385543";"52.36468044";"78"
"6/22/2020 12:00:00 AM";"08:00 - 08:59";"RAI";"Station RAI";"4.88982004";"52.33739931";"104"
"6/22/2020 12:00:00 AM";"08:00 - 08:59";"RGB";"Reigersbos";"4.97473728";"52.29566301";"72"
"6/22/2020 12:00:00 AM";"08:00 - 08:59";"RKN";"Rokin";"4.89229651";"52.36928023";"278"
"6/22/2020 12:00:00 AM";"08:00 - 08:59";"SLW";"Spaklerweg";"4.92085640";"52.33986250";"99"
"6/22/2020 12:00:00 AM";"08:00 - 08:59";"STD";"Station Sloterdijk";"4.83878389";"52.38880848";"200"
"6/22/2020 12:00:00 AM";"08:00 - 08:59";"SVT";"Strandvliet";"4.94152820";"52.31825469";"60"
"6/22/2020 12:00:00 AM";"08:00 - 08:59";"VLN";"Burg.de Vlugtlaan";"4.83809109";"52.37951196";"46"
"6/22/2020 12:00:00 AM";"08:00 - 08:59";"VPD";"Venserpolder";"4.94665009";"52.32679428";"58"
"6/22/2020 12:00:00 AM";"08:00 - 08:59";"VSW";"Verrijn Stuartweg";"4.96693669";"52.32844093";"24"
"6/22/2020 12:00:00 AM";"08:00 - 08:59";"VZG";"Vijzelgracht";"4.89072870";"52.35980061";"169"
"6/22/2020 12:00:00 AM";"08:00 - 08:59";"WBS";"Wibautstraat";"4.91202993";"52.35428867";"162"
"6/22/2020 12:00:00 AM";"08:00 - 08:59";"WLP";"Waterlooplein";"4.90298171";"52.36697862";"194"
"6/22/2020 12:00:00 AM";"08:00 - 08:59";"WPP";"Weesperplein";"4.90787469";"52.36120146";"254"
"6/22/2020 12:00:00 AM";"08:00 - 08:59";"WTC";"Station Zuid";"4.87509853";"52.33908015";"554"
"6/22/2020 12:00:00 AM";"09:00 - 09:59";"";"Overig";"";"";"2429"
"6/22/2020 12:00:00 AM";"09:00 - 09:59";"[[ Onb";"[[ Onbekend ]]";"0.00000000";"0.00000000";"197"
"6/22/2020 12:00:00 AM";"09:00 - 09:59";"00005";"Muiderpoortstation";"4.93280219";"52.36121887";"18"
"6/22/2020 12:00:00 AM";"09:00 - 09:59";"00008";"Dapperstraat";"4.92977913";"52.36110836";"40"
"6/22/2020 12:00:00 AM";"09:00 - 09:59";"00010";"Dapperstraat";"4.92891486";"52.36092527";"13"
"6/22/2020 12:00:00 AM";"09:00 - 09:59";"00020";"Beukenweg";"4.91674979";"52.35906203";"13"
"6/22/2020 12:00:00 AM";"09:00 - 09:59";"00021";"Beukenweg";"4.91721293";"52.35829991";"28"
"6/22/2020 12:00:00 AM";"09:00 - 09:59";"00023";"Beukenplein";"4.91809259";"52.35701816";"14"
"6/22/2020 12:00:00 AM";"09:00 - 09:59";"00029";"Oostpoort";"4.92719316";"52.35707185";"28"
"6/22/2020 12:00:00 AM";"09:00 - 09:59";"00030";"Oostpoort";"4.92694026";"52.35739442";"13"
"6/22/2020 12:00:00 AM";"09:00 - 09:59";"00070";"Kruislaan";"4.93993910";"52.34789929";"10"
"6/22/2020 12:00:00 AM";"09:00 - 09:59";"00116";"Station Ganzenhoef";"4.97272915";"52.32237665";"11"
"6/22/2020 12:00:00 AM";"09:00 - 09:59";"00141";"Kraaienneststation";"4.97868390";"52.31603403";"12"
"6/22/2020 12:00:00 AM";"09:00 - 09:59";"00145";"Kikkenstein";"4.97271326";"52.31621998";"11"
"6/22/2020 12:00:00 AM";"09:00 - 09:59";"00150";"Tulastraat";"4.96535973";"52.31994189";"35"
"6/22/2020 12:00:00 AM";"09:00 - 09:59";"00151";"Tulastraat";"4.96584458";"52.31985374";"20"
"6/22/2020 12:00:00 AM";"09:00 - 09:59";"00205";"Station Holendrecht";"4.95865657";"52.29716971";"16"
"6/22/2020 12:00:00 AM";"09:00 - 09:59";"00238";"Anton de Komplein";"4.95413359";"52.31603659";"33"
"6/22/2020 12:00:00 AM";"09:00 - 09:59";"00239";"Anton de Komplein";"4.95597669";"52.31652866";"21"
"6/22/2020 12:00:00 AM";"09:00 - 09:59";"00330";"Middenweg";"4.93455629";"52.35044932";"13"
"6/22/2020 12:00:00 AM";"09:00 - 09:59";"00351";"Dostojevskisingel";"4.94525272";"52.32275356";"28"
"6/22/2020 12:00:00 AM";"09:00 - 09:59";"00441";"Muiderpoortstation";"4.93254137";"52.36088532";"10"
"6/22/2020 12:00:00 AM";"09:00 - 09:59";"00444";"Linnaeusstraat";"4.92490296";"52.35991203";"20"
"6/22/2020 12:00:00 AM";"09:00 - 09:59";"00553";"Kraaienneststation";"4.98073727";"52.31601414";"10"
"6/22/2020 12:00:00 AM";"09:00 - 09:59";"00560";"Station Bijlmer ArenA";"4.94747867";"52.31125750";"13"
"6/22/2020 12:00:00 AM";"09:00 - 09:59";"00561";"Station Bijlmer ArenA";"4.94741931";"52.31132918";"25"
"6/22/2020 12:00:00 AM";"09:00 - 09:59";"00562";"Station Bijlmer ArenA";"4.94736012";"52.31138289";"24"
"6/22/2020 12:00:00 AM";"09:00 - 09:59";"01111";"Rode Kruisstraat";"4.92881363";"52.39488033";"17"
"6/22/2020 12:00:00 AM";"09:00 - 09:59";"01191";"Pinksterbloemstraat";"4.91203754";"52.39881372";"11"
"6/22/2020 12:00:00 AM";"09:00 - 09:59";"01315";"Station Noord";"4.93339740";"52.40206112";"15"
"6/22/2020 12:00:00 AM";"09:00 - 09:59";"01422";"Noorderpark";"4.91956087";"52.38902016";"10"
"6/22/2020 12:00:00 AM";"09:00 - 09:59";"02019";"Koivistokade";"4.87537403";"52.39790601";"18"
"6/22/2020 12:00:00 AM";"09:00 - 09:59";"02081";"Haparandaweg";"4.87212228";"52.39451255";"14"
"6/22/2020 12:00:00 AM";"09:00 - 09:59";"02103";"Spaarndammerstraat";"4.87765867";"52.39216375";"16"
"6/22/2020 12:00:00 AM";"09:00 - 09:59";"02113";"Haarlemmerplein";"4.88371739";"52.38516129";"26"
"6/22/2020 12:00:00 AM";"09:00 - 09:59";"02114";"Haarlemmerplein";"4.88341252";"52.38484542";"23"
"6/22/2020 12:00:00 AM";"09:00 - 09:59";"02130";"Hugo de Grootplein";"4.87259092";"52.37439113";"13"
"6/22/2020 12:00:00 AM";"09:00 - 09:59";"02155";"Willem de Zwijgerlaan";"4.86360306";"52.37071170";"15"
"6/22/2020 12:00:00 AM";"09:00 - 09:59";"02156";"Willem de Zwijgerlaan";"4.86425293";"52.37039101";"20"
"6/22/2020 12:00:00 AM";"09:00 - 09:59";"02158";"Adm. de Ruijterweg";"4.86096776";"52.37129320";"15"
"6/22/2020 12:00:00 AM";"09:00 - 09:59";"02160";"Haparandaweg";"4.87389760";"52.39471799";"10"
"6/22/2020 12:00:00 AM";"09:00 - 09:59";"02177";"Bos en Lommerweg";"4.85521256";"52.38101018";"13"
"6/22/2020 12:00:00 AM";"09:00 - 09:59";"02193";"Marnixplein";"4.87844490";"52.37741832";"31"
"6/22/2020 12:00:00 AM";"09:00 - 09:59";"02195";"Marnixplein";"4.87918057";"52.37858089";"38"
"6/22/2020 12:00:00 AM";"09:00 - 09:59";"02196";"Marnixplein";"4.87951351";"52.37900474";"61"
"6/22/2020 12:00:00 AM";"09:00 - 09:59";"02321";"Van Hallstraat";"4.86864429";"52.38538386";"10"
"6/22/2020 12:00:00 AM";"09:00 - 09:59";"02361";"Station Sloterdijk";"4.83931858";"52.38833460";"35"
"6/22/2020 12:00:00 AM";"09:00 - 09:59";"02365";"Station Sloterdijk";"4.83873236";"52.38822404";"12"
"6/22/2020 12:00:00 AM";"09:00 - 09:59";"02367";"Station Sloterdijk";"4.83876429";"52.38801747";"11"
"6/22/2020 12:00:00 AM";"09:00 - 09:59";"02368";"Station Sloterdijk";"4.83877999";"52.38793665";"11"
"6/22/2020 12:00:00 AM";"09:00 - 09:59";"02370";"Station Sloterdijk";"4.83879745";"52.38771204";"13"
"6/22/2020 12:00:00 AM";"09:00 - 09:59";"03009";"Witte de Withstraat";"4.85851970";"52.36478416";"20"
"6/22/2020 12:00:00 AM";"09:00 - 09:59";"03010";"Witte de Withstraat";"4.85928290";"52.36480554";"11"
"6/22/2020 12:00:00 AM";"09:00 - 09:59";"03023";"Marco Polostraat";"4.85520189";"52.37088096";"11"
"6/22/2020 12:00:00 AM";"09:00 - 09:59";"03034";"Erasmusgracht";"4.84691117";"52.37644278";"13"
"6/22/2020 12:00:00 AM";"09:00 - 09:59";"03052";"Burg. Eliasstraat";"4.82565009";"52.38077481";"13"
"6/22/2020 12:00:00 AM";"09:00 - 09:59";"03061";"Bos en Lommerplein";"4.84523530";"52.37778328";"28"
"6/22/2020 12:00:00 AM";"09:00 - 09:59";"03076";"Jan Tooropstraat";"4.83810313";"52.37142305";"18"
"6/22/2020 12:00:00 AM";"09:00 - 09:59";"03090";"Slotermeerlaan";"4.81728149";"52.37596234";"10"
"6/22/2020 12:00:00 AM";"09:00 - 09:59";"03129";"Plein '40 - '45";"4.82112671";"52.38075328";"20"
"6/22/2020 12:00:00 AM";"09:00 - 09:59";"03167";"Bos en Lommerplein";"4.84650668";"52.37709704";"14"
"6/22/2020 12:00:00 AM";"09:00 - 09:59";"03168";"Mercatorplein";"4.85152392";"52.37024423";"17"
"6/22/2020 12:00:00 AM";"09:00 - 09:59";"03169";"Jan v.Galenstraat";"4.83601291";"52.37301316";"10"
"6/22/2020 12:00:00 AM";"09:00 - 09:59";"03178";"Mercatorplein";"4.84991664";"52.37080317";"14"
"6/22/2020 12:00:00 AM";"09:00 - 09:59";"03181";"Jan Voermanstraat";"4.83788946";"52.36970540";"12"
"6/22/2020 12:00:00 AM";"09:00 - 09:59";"04012";"Baden Powellweg";"4.79137362";"52.35646612";"11"
"6/22/2020 12:00:00 AM";"09:00 - 09:59";"04016";"Hoekenes";"4.79854723";"52.35791310";"10"
"6/22/2020 12:00:00 AM";"09:00 - 09:59";"04021";"Osdorpplein";"4.80322868";"52.35913166";"35"
"6/22/2020 12:00:00 AM";"09:00 - 09:59";"04036";"Tussen Meer";"4.79073981";"52.35666066";"10"
"6/22/2020 12:00:00 AM";"09:00 - 09:59";"04043";"Ruimzicht";"4.80749209";"52.35978176";"13"
"6/22/2020 12:00:00 AM";"09:00 - 09:59";"04050";"Meer en Vaart";"4.80994403";"52.35636940";"18"
"6/22/2020 12:00:00 AM";"09:00 - 09:59";"04060";"Derkinderenstraat";"4.83972293";"52.35796689";"23"
"6/22/2020 12:00:00 AM";"09:00 - 09:59";"04088";"Louwesweg";"4.82436420";"52.34669608";"11"
"6/22/2020 12:00:00 AM";"09:00 - 09:59";"04195";"Station Lelylaan";"4.83460082";"52.35788018";"23"
"6/22/2020 12:00:00 AM";"09:00 - 09:59";"04196";"Station Lelylaan";"4.83382251";"52.35790351";"25"
"6/22/2020 12:00:00 AM";"09:00 - 09:59";"04267";"Schiphol Airport/Plaza";"4.76139455";"52.30887344";"10"
"6/22/2020 12:00:00 AM";"09:00 - 09:59";"04279";"Kasterleepark";"4.81104243";"52.34638930";"12"
"6/22/2020 12:00:00 AM";"09:00 - 09:59";"04379";"Knooppunt Schiphol Nrd";"4.79320459";"52.32276196";"14"
"6/22/2020 12:00:00 AM";"09:00 - 09:59";"04413";"Louis Davidsstraat";"4.80850916";"52.35383682";"10"
"6/22/2020 12:00:00 AM";"09:00 - 09:59";"04433";"Oeverpad";"4.80477330";"52.36447801";"10"
"6/22/2020 12:00:00 AM";"09:00 - 09:59";"05022";"Centraal Station";"4.90104337";"52.37771998";"54"
"6/22/2020 12:00:00 AM";"09:00 - 09:59";"05024";"Centraal Station";"4.89813942";"52.37736648";"55"
"6/22/2020 12:00:00 AM";"09:00 - 09:59";"05029";"Centraal Station";"4.90334975";"52.37900567";"96"
"6/22/2020 12:00:00 AM";"09:00 - 09:59";"05031";"Dam";"4.89348394";"52.37341055";"26"
"6/22/2020 12:00:00 AM";"09:00 - 09:59";"05032";"Dam";"4.89549360";"52.37492885";"22"
"6/22/2020 12:00:00 AM";"09:00 - 09:59";"05035";"Rokin";"4.89210433";"52.36939627";"15"
"6/22/2020 12:00:00 AM";"09:00 - 09:59";"05036";"Rokin";"4.89230478";"52.36985548";"21"
"6/22/2020 12:00:00 AM";"09:00 - 09:59";"05047";"Rembrandtplein";"4.89702882";"52.36623511";"24"
"6/22/2020 12:00:00 AM";"09:00 - 09:59";"05062";"Spui";"4.88925912";"52.36909673";"28"
"6/22/2020 12:00:00 AM";"09:00 - 09:59";"05063";"Dam";"4.89064590";"52.37244599";"18"
"6/22/2020 12:00:00 AM";"09:00 - 09:59";"05065";"Dam";"4.89079364";"52.37367792";"24"
"6/22/2020 12:00:00 AM";"09:00 - 09:59";"05066";"Dam";"4.89027056";"52.37318140";"44"
"6/22/2020 12:00:00 AM";"09:00 - 09:59";"05069";"Nieuwezijds Kolk";"4.89373093";"52.37628765";"15"
"6/22/2020 12:00:00 AM";"09:00 - 09:59";"05073";"Westermarkt";"4.88453426";"52.37400204";"34"
"6/22/2020 12:00:00 AM";"09:00 - 09:59";"05074";"Westermarkt";"4.88354950";"52.37407874";"52"
"6/22/2020 12:00:00 AM";"09:00 - 09:59";"05077";"Marnixstraat";"4.87615428";"52.37228546";"16"
"6/22/2020 12:00:00 AM";"09:00 - 09:59";"05080";"Buiten Oranjestraat";"4.88782167";"52.38330923";"24"
"6/22/2020 12:00:00 AM";"09:00 - 09:59";"05081";"Buiten Brouwersstraat";"4.89157253";"52.38150947";"10"
"6/22/2020 12:00:00 AM";"09:00 - 09:59";"05082";"Buiten Brouwersstraat";"4.89129168";"52.38167008";"12"
"6/22/2020 12:00:00 AM";"09:00 - 09:59";"05097";"Centraal Station";"4.90087651";"52.37954379";"39"
"6/22/2020 12:00:00 AM";"09:00 - 09:59";"05103";"Centraal Station";"4.90127481";"52.37938365";"22"
"6/22/2020 12:00:00 AM";"09:00 - 09:59";"05104";"Centraal Station";"4.90164343";"52.37925034";"10"
"6/22/2020 12:00:00 AM";"09:00 - 09:59";"05105";"Centraal Station";"4.90187762";"52.37932321";"13"
"6/22/2020 12:00:00 AM";"09:00 - 09:59";"06001";"Surinameplein";"4.85252231";"52.35807034";"29"
"6/22/2020 12:00:00 AM";"09:00 - 09:59";"06002";"Surinameplein";"4.85090753";"52.35807202";"12"
"6/22/2020 12:00:00 AM";"09:00 - 09:59";"06016";"J.P. Heijestraat";"4.86239635";"52.36472951";"14"
"6/22/2020 12:00:00 AM";"09:00 - 09:59";"06017";"J.P. Heijestraat";"4.86292316";"52.36487565";"16"
"6/22/2020 12:00:00 AM";"09:00 - 09:59";"06019";"Ten Katestraat";"4.86737423";"52.36591988";"27"
"6/22/2020 12:00:00 AM";"09:00 - 09:59";"06020";"Ten Katestraat";"4.86773990";"52.36603832";"27"
"6/22/2020 12:00:00 AM";"09:00 - 09:59";"06021";"Bilderdijkstraat";"4.87176488";"52.36712545";"15"
"6/22/2020 12:00:00 AM";"09:00 - 09:59";"06027";"Elandsgracht";"4.87855189";"52.36808953";"18"
"6/22/2020 12:00:00 AM";"09:00 - 09:59";"06028";"Elandsgracht";"4.87741694";"52.36974738";"22"
"6/22/2020 12:00:00 AM";"09:00 - 09:59";"06029";"Elandsgracht";"4.87684368";"52.36852258";"27"
"6/22/2020 12:00:00 AM";"09:00 - 09:59";"06030";"Rozengracht";"4.87590932";"52.37187996";"11"
"6/22/2020 12:00:00 AM";"09:00 - 09:59";"06034";"Bilderdijkstraat";"4.87082347";"52.37105798";"12"
"6/22/2020 12:00:00 AM";"09:00 - 09:59";"06037";"Bilderdijkstraat";"4.86985701";"52.37082906";"22"
"6/22/2020 12:00:00 AM";"09:00 - 09:59";"06043";"Overtoom";"4.87510145";"52.36299659";"13"
"6/22/2020 12:00:00 AM";"09:00 - 09:59";"06045";"1e Con. Huygensstraat";"4.87399228";"52.36242556";"20"
"6/22/2020 12:00:00 AM";"09:00 - 09:59";"06046";"1e Con. Huygensstraat";"4.87487082";"52.36262709";"27"
"6/22/2020 12:00:00 AM";"09:00 - 09:59";"06048";"J.P. Heijestraat";"4.86585368";"52.36037674";"10"
"6/22/2020 12:00:00 AM";"09:00 - 09:59";"06059";"Spiegelgracht";"4.88762090";"52.36071327";"37"
"6/22/2020 12:00:00 AM";"09:00 - 09:59";"06062";"Leidseplein";"4.88324640";"52.36327421";"25"
"6/22/2020 12:00:00 AM";"09:00 - 09:59";"06063";"Leidseplein";"4.88064547";"52.36476406";"17"
"6/22/2020 12:00:00 AM";"09:00 - 09:59";"06072";"Prinsengracht";"4.88428435";"52.36495933";"15"
"6/22/2020 12:00:00 AM";"09:00 - 09:59";"06074";"Keizersgracht";"4.88624128";"52.36588437";"17"
"6/22/2020 12:00:00 AM";"09:00 - 09:59";"06075";"Koningsplein";"4.88942793";"52.36713812";"11"
"6/22/2020 12:00:00 AM";"09:00 - 09:59";"06076";"Koningsplein";"4.88857910";"52.36689188";"31"
"6/22/2020 12:00:00 AM";"09:00 - 09:59";"06081";"Rhijnvis Feithstraat";"4.86039355";"52.35905833";"13"
"6/22/2020 12:00:00 AM";"09:00 - 09:59";"06082";"Rhijnvis Feithstraat";"4.85967683";"52.35883943";"12"
"6/22/2020 12:00:00 AM";"09:00 - 09:59";"06089";"Leidseplein";"4.88085541";"52.36309324";"64"
"6/22/2020 12:00:00 AM";"09:00 - 09:59";"06114";"Hoofdweg";"4.85444451";"52.36425359";"15"
"6/22/2020 12:00:00 AM";"09:00 - 09:59";"06115";"Postjesweg";"4.85319014";"52.36478720";"11"
"6/22/2020 12:00:00 AM";"09:00 - 09:59";"07006";"Museumplein";"4.87980116";"52.35642881";"13"
"6/22/2020 12:00:00 AM";"09:00 - 09:59";"07007";"Museumplein";"4.87950215";"52.35690388";"59"
"6/22/2020 12:00:00 AM";"09:00 - 09:59";"07015";"Roelof Hartplein";"4.88206971";"52.35314900";"15"
"6/22/2020 12:00:00 AM";"09:00 - 09:59";"07016";"Roelof Hartplein";"4.88286688";"52.35274795";"25"
"6/22/2020 12:00:00 AM";"09:00 - 09:59";"07027";"Corn. Schuytstraat";"4.87051458";"52.35597520";"19"
"6/22/2020 12:00:00 AM";"09:00 - 09:59";"07028";"Corn. Schuytstraat";"4.87088070";"52.35604870";"12"
"6/22/2020 12:00:00 AM";"09:00 - 09:59";"07031";"Valeriusplein";"4.86374943";"52.35333004";"15"
"6/22/2020 12:00:00 AM";"09:00 - 09:59";"07033";"Amstelveenseweg";"4.85695925";"52.35161911";"12"
"6/22/2020 12:00:00 AM";"09:00 - 09:59";"07049";"Hoofddorpplein";"4.84958188";"52.35117239";"15"
"6/22/2020 12:00:00 AM";"09:00 - 09:59";"07087";"Stadionweg";"4.87688397";"52.34714989";"10"
"6/22/2020 12:00:00 AM";"09:00 - 09:59";"07097";"Olympiaplein";"4.86582821";"52.34630180";"19"
"6/22/2020 12:00:00 AM";"09:00 - 09:59";"07195";"Oranjebaan";"4.87311228";"52.30278774";"12"
"6/22/2020 12:00:00 AM";"09:00 - 09:59";"07202";"Olympisch stadion";"4.85684420";"52.34405088";"13"
"6/22/2020 12:00:00 AM";"09:00 - 09:59";"07268";"Station Zuid";"4.87428608";"52.34082026";"13"
"6/22/2020 12:00:00 AM";"09:00 - 09:59";"07303";"VU medisch centrum";"4.86097062";"52.33515342";"10"
"6/22/2020 12:00:00 AM";"09:00 - 09:59";"07321";"Van Baerlestraat";"4.87895796";"52.35827667";"29"
"6/22/2020 12:00:00 AM";"09:00 - 09:59";"07322";"Van Baerlestraat";"4.87971942";"52.35844171";"29"
"6/22/2020 12:00:00 AM";"09:00 - 09:59";"07323";"Rijksmuseum";"4.88355043";"52.35977029";"37"
"6/22/2020 12:00:00 AM";"09:00 - 09:59";"07324";"Rijksmuseum";"4.88332565";"52.36017378";"34"
"6/22/2020 12:00:00 AM";"09:00 - 09:59";"07391";"Kronenburg";"4.87070592";"52.31556694";"15"
"6/22/2020 12:00:00 AM";"09:00 - 09:59";"07419";"Van Boshuizenstraat";"4.86896941";"52.32487971";"56"
"6/22/2020 12:00:00 AM";"09:00 - 09:59";"07423";"Uilenstede";"4.86910951";"52.32167168";"14"
"6/22/2020 12:00:00 AM";"09:00 - 09:59";"07445";"Amstelveen Stadshart";"4.86751502";"52.30124433";"25"
"6/22/2020 12:00:00 AM";"09:00 - 09:59";"08014";"Azartplein";"4.93735640";"52.37682991";"15"
"6/22/2020 12:00:00 AM";"09:00 - 09:59";"08043";"Artis";"4.91141423";"52.36653646";"16"
"6/22/2020 12:00:00 AM";"09:00 - 09:59";"08054";"Weesperplein";"4.90941338";"52.36145933";"22"
"6/22/2020 12:00:00 AM";"09:00 - 09:59";"08057";"Frederiksplein";"4.90024241";"52.35971430";"33"
"6/22/2020 12:00:00 AM";"09:00 - 09:59";"08066";"Frederiksplein";"4.89751569";"52.35937050";"22"
"6/22/2020 12:00:00 AM";"09:00 - 09:59";"08072";"Vijzelgracht";"4.89159781";"52.35953462";"23"
"6/22/2020 12:00:00 AM";"09:00 - 09:59";"08073";"Vijzelgracht";"4.89227386";"52.35946554";"29"
"6/22/2020 12:00:00 AM";"09:00 - 09:59";"08080";"Spiegelgracht";"4.88691222";"52.36106979";"36"
"6/22/2020 12:00:00 AM";"09:00 - 09:59";"08095";"Alexanderplein";"4.91969863";"52.36341478";"13"
"6/22/2020 12:00:00 AM";"09:00 - 09:59";"08113";"Javaplein";"4.93949828";"52.36395867";"11"
"6/22/2020 12:00:00 AM";"09:00 - 09:59";"08120";"Insulindeweg";"4.94763926";"52.36469021";"13"
"6/22/2020 12:00:00 AM";"09:00 - 09:59";"08129";"Molukkenstraat";"4.93861286";"52.36150167";"15"
"6/22/2020 12:00:00 AM";"09:00 - 09:59";"08139";"Zuiderzeeweg";"4.96240105";"52.37166461";"12"
"6/22/2020 12:00:00 AM";"09:00 - 09:59";"08190";"Molukkenstraat";"4.93934614";"52.36157635";"12"
"6/22/2020 12:00:00 AM";"09:00 - 09:59";"08233";"C. van Eesterenlaan";"4.93812487";"52.37345346";"12"
"6/22/2020 12:00:00 AM";"09:00 - 09:59";"08237";"Kattenburgerstraat";"4.92126795";"52.37614755";"17"
"6/22/2020 12:00:00 AM";"09:00 - 09:59";"08238";"Rietlandpark";"4.93350159";"52.37322013";"16"
"6/22/2020 12:00:00 AM";"09:00 - 09:59";"08239";"Rietlandpark";"4.93413567";"52.37296191";"25"
"6/22/2020 12:00:00 AM";"09:00 - 09:59";"08241";"Zuiderzeeweg";"4.96185517";"52.37193228";"31"
"6/22/2020 12:00:00 AM";"09:00 - 09:59";"08245";"Steigereiland";"4.98012952";"52.36313467";"35"
"6/22/2020 12:00:00 AM";"09:00 - 09:59";"08247";"Vennepluimstraat";"4.99057242";"52.35769662";"20"
"6/22/2020 12:00:00 AM";"09:00 - 09:59";"08249";"Diemerparklaan";"4.99499716";"52.35532962";"20"
"6/22/2020 12:00:00 AM";"09:00 - 09:59";"08251";"Lumi?restraat";"4.99942127";"52.35298044";"11"
"6/22/2020 12:00:00 AM";"09:00 - 09:59";"08252";"IJburg";"5.00432644";"52.35095620";"31"
"6/22/2020 12:00:00 AM";"09:00 - 09:59";"08261";"Rietlandpark";"4.93481067";"52.37300943";"11"
"6/22/2020 12:00:00 AM";"09:00 - 09:59";"08300";"P.Oosterhuisstraat";"5.00693059";"52.35193526";"13"
"6/22/2020 12:00:00 AM";"09:00 - 09:59";"09013";"Amstelstation";"4.91790223";"52.34725673";"15"
"6/22/2020 12:00:00 AM";"09:00 - 09:59";"09049";"Victorieplein";"4.90570139";"52.34637186";"11"
"6/22/2020 12:00:00 AM";"09:00 - 09:59";"09083";"Waalstraat";"4.90032528";"52.34680824";"11"
"6/22/2020 12:00:00 AM";"09:00 - 09:59";"09096";"Van Woustraat";"4.90163035";"52.35495650";"10"
"6/22/2020 12:00:00 AM";"09:00 - 09:59";"09097";"Van Woustraat";"4.90084070";"52.35468363";"23"
"6/22/2020 12:00:00 AM";"09:00 - 09:59";"09111";"De Pijp";"4.89073444";"52.35272728";"29"
"6/22/2020 12:00:00 AM";"09:00 - 09:59";"09114";"De Pijp";"4.88948829";"52.35259622";"29"
"6/22/2020 12:00:00 AM";"09:00 - 09:59";"09120";"Cornelis Troostplein";"4.89161100";"52.35046604";"15"
"6/22/2020 12:00:00 AM";"09:00 - 09:59";"ASA";"Amstelstation";"4.91751426";"52.34647326";"177"
"6/22/2020 12:00:00 AM";"09:00 - 09:59";"ASW";"Amstelveenseweg";"4.85798324";"52.33836671";"175"
"6/22/2020 12:00:00 AM";"09:00 - 09:59";"BLW";"Bullewijk";"4.95233581";"52.30642205";"81"
"6/22/2020 12:00:00 AM";"09:00 - 09:59";"BMR";"Station Bijlmer ArenA";"4.94713474";"52.31193030";"245"
"6/22/2020 12:00:00 AM";"09:00 - 09:59";"CLL";"Station Lelylaan";"4.83426589";"52.35766291";"84"
"6/22/2020 12:00:00 AM";"09:00 - 09:59";"CS";"Centraal Station";"4.90078150";"52.37749421";"476"
"6/22/2020 12:00:00 AM";"09:00 - 09:59";"DMZ";"Station Diemen-Zuid";"4.95713273";"52.33042795";"33"
"6/22/2020 12:00:00 AM";"09:00 - 09:59";"DPP";"De Pijp";"4.89101069";"52.35296212";"196"
"6/22/2020 12:00:00 AM";"09:00 - 09:59";"DVD";"Station Duivendrecht";"4.93678429";"52.32325190";"52"
"6/22/2020 12:00:00 AM";"09:00 - 09:59";"EPP";"Europaplein";"4.89138430";"52.34185482";"75"
"6/22/2020 12:00:00 AM";"09:00 - 09:59";"GN";"Gein";"4.98952268";"52.29627089";"43"
"6/22/2020 12:00:00 AM";"09:00 - 09:59";"GPP";"Gaasperplas";"4.98468551";"52.31080575";"15"
"6/22/2020 12:00:00 AM";"09:00 - 09:59";"GZH";"Station Ganzenhoef";"4.97323379";"52.32331315";"75"
"6/22/2020 12:00:00 AM";"09:00 - 09:59";"HDS";"Heemstedestraat";"4.83421208";"52.35255760";"97"
"6/22/2020 12:00:00 AM";"09:00 - 09:59";"HLD";"Station Holendrecht";"4.96021904";"52.29780451";"188"
"6/22/2020 12:00:00 AM";"09:00 - 09:59";"HVW";"Henk Sneevlietweg";"4.83439318";"52.34626699";"113"
"6/22/2020 12:00:00 AM";"09:00 - 09:59";"ITW";"Isolatorweg";"4.85013475";"52.39523277";"64"
"6/22/2020 12:00:00 AM";"09:00 - 09:59";"JLS";"Jan v.Galenstraat";"4.83492461";"52.37196551";"90"
"6/22/2020 12:00:00 AM";"09:00 - 09:59";"KEN";"Kraaienneststation";"4.97963450";"52.31632492";"56"
"6/22/2020 12:00:00 AM";"09:00 - 09:59";"MDW";"Van der Madeweg";"4.93048657";"52.32945629";"77"
"6/22/2020 12:00:00 AM";"09:00 - 09:59";"ND";"Noord";"4.93123182";"52.40117202";"149"
"6/22/2020 12:00:00 AM";"09:00 - 09:59";"NDP";"Noorderpark";"4.91789115";"52.38855518";"111"
"6/22/2020 12:00:00 AM";"09:00 - 09:59";"NMT";"Nieuwmarkt";"4.90123885";"52.37194169";"80"
"6/22/2020 12:00:00 AM";"09:00 - 09:59";"OAS";"Overamstel";"4.91815361";"52.33179879";"55"
"6/22/2020 12:00:00 AM";"09:00 - 09:59";"PJW";"Postjesweg";"4.83385543";"52.36468044";"78"
"6/22/2020 12:00:00 AM";"09:00 - 09:59";"RAI";"Station RAI";"4.88982004";"52.33739931";"99"
"6/22/2020 12:00:00 AM";"09:00 - 09:59";"RGB";"Reigersbos";"4.97473728";"52.29566301";"65"
"6/22/2020 12:00:00 AM";"09:00 - 09:59";"RKN";"Rokin";"4.89229651";"52.36928023";"320"
"6/22/2020 12:00:00 AM";"09:00 - 09:59";"SLW";"Spaklerweg";"4.92085640";"52.33986250";"61"
"6/22/2020 12:00:00 AM";"09:00 - 09:59";"STD";"Station Sloterdijk";"4.83878389";"52.38880848";"121"
"6/22/2020 12:00:00 AM";"09:00 - 09:59";"SVT";"Strandvliet";"4.94152820";"52.31825469";"65"
"6/22/2020 12:00:00 AM";"09:00 - 09:59";"VLN";"Burg.de Vlugtlaan";"4.83809109";"52.37951196";"37"
"6/22/2020 12:00:00 AM";"09:00 - 09:59";"VPD";"Venserpolder";"4.94665009";"52.32679428";"47"
"6/22/2020 12:00:00 AM";"09:00 - 09:59";"VSW";"Verrijn Stuartweg";"4.96693669";"52.32844093";"27"
"6/22/2020 12:00:00 AM";"09:00 - 09:59";"VZG";"Vijzelgracht";"4.89072870";"52.35980061";"173"
"6/22/2020 12:00:00 AM";"09:00 - 09:59";"WBS";"Wibautstraat";"4.91202993";"52.35428867";"132"
"6/22/2020 12:00:00 AM";"09:00 - 09:59";"WLP";"Waterlooplein";"4.90298171";"52.36697862";"190"
"6/22/2020 12:00:00 AM";"09:00 - 09:59";"WPP";"Weesperplein";"4.90787469";"52.36120146";"180"
"6/22/2020 12:00:00 AM";"09:00 - 09:59";"WTC";"Station Zuid";"4.87509853";"52.33908015";"383"
"6/22/2020 12:00:00 AM";"10:00 - 10:59";"";"Overig";"";"";"2399"
"6/22/2020 12:00:00 AM";"10:00 - 10:59";"[[ Onb";"[[ Onbekend ]]";"0.00000000";"0.00000000";"242"
"6/22/2020 12:00:00 AM";"10:00 - 10:59";"00005";"Muiderpoortstation";"4.93280219";"52.36121887";"20"
"6/22/2020 12:00:00 AM";"10:00 - 10:59";"00008";"Dapperstraat";"4.92977913";"52.36110836";"63"
"6/22/2020 12:00:00 AM";"10:00 - 10:59";"00010";"Dapperstraat";"4.92891486";"52.36092527";"15"
"6/22/2020 12:00:00 AM";"10:00 - 10:59";"00020";"Beukenweg";"4.91674979";"52.35906203";"14"
"6/22/2020 12:00:00 AM";"10:00 - 10:59";"00021";"Beukenweg";"4.91721293";"52.35829991";"26"
"6/22/2020 12:00:00 AM";"10:00 - 10:59";"00023";"Beukenplein";"4.91809259";"52.35701816";"17"
"6/22/2020 12:00:00 AM";"10:00 - 10:59";"00030";"Oostpoort";"4.92694026";"52.35739442";"18"
"6/22/2020 12:00:00 AM";"10:00 - 10:59";"00039";"Hogeweg";"4.93084015";"52.35358075";"10"
"6/22/2020 12:00:00 AM";"10:00 - 10:59";"00141";"Kraaienneststation";"4.97868390";"52.31603403";"19"
"6/22/2020 12:00:00 AM";"10:00 - 10:59";"00150";"Tulastraat";"4.96535973";"52.31994189";"26"
"6/22/2020 12:00:00 AM";"10:00 - 10:59";"00151";"Tulastraat";"4.96584458";"52.31985374";"27"
"6/22/2020 12:00:00 AM";"10:00 - 10:59";"00197";"Annie Romeinplein";"4.97162041";"52.32173463";"24"
"6/22/2020 12:00:00 AM";"10:00 - 10:59";"00238";"Anton de Komplein";"4.95413359";"52.31603659";"31"
"6/22/2020 12:00:00 AM";"10:00 - 10:59";"00239";"Anton de Komplein";"4.95597669";"52.31652866";"32"
"6/22/2020 12:00:00 AM";"10:00 - 10:59";"00351";"Dostojevskisingel";"4.94525272";"52.32275356";"14"
"6/22/2020 12:00:00 AM";"10:00 - 10:59";"00444";"Linnaeusstraat";"4.92490296";"52.35991203";"26"
"6/22/2020 12:00:00 AM";"10:00 - 10:59";"00518";"Foppingadreef";"4.94967889";"52.31268573";"19"
"6/22/2020 12:00:00 AM";"10:00 - 10:59";"00538";"Station Science Park";"4.94808393";"52.35239669";"14"
"6/22/2020 12:00:00 AM";"10:00 - 10:59";"00561";"Station Bijlmer ArenA";"4.94741931";"52.31132918";"15"
"6/22/2020 12:00:00 AM";"10:00 - 10:59";"00562";"Station Bijlmer ArenA";"4.94736012";"52.31138289";"16"
"6/22/2020 12:00:00 AM";"10:00 - 10:59";"01111";"Rode Kruisstraat";"4.92881363";"52.39488033";"17"
"6/22/2020 12:00:00 AM";"10:00 - 10:59";"01191";"Pinksterbloemstraat";"4.91203754";"52.39881372";"11"
"6/22/2020 12:00:00 AM";"10:00 - 10:59";"01237";"Beemsterstraat";"4.95210741";"52.39712521";"10"
"6/22/2020 12:00:00 AM";"10:00 - 10:59";"01315";"Station Noord";"4.93339740";"52.40206112";"14"
"6/22/2020 12:00:00 AM";"10:00 - 10:59";"01363";"Buikslotermeerplein";"4.93968364";"52.39943369";"17"
"6/22/2020 12:00:00 AM";"10:00 - 10:59";"01364";"Buikslotermeerplein";"4.93887054";"52.39992493";"10"
"6/22/2020 12:00:00 AM";"10:00 - 10:59";"01414";"Olof Palmeplein";"4.94012168";"52.39679298";"17"
"6/22/2020 12:00:00 AM";"10:00 - 10:59";"01422";"Noorderpark";"4.91956087";"52.38902016";"10"
"6/22/2020 12:00:00 AM";"10:00 - 10:59";"02103";"Spaarndammerstraat";"4.87765867";"52.39216375";"15"
"6/22/2020 12:00:00 AM";"10:00 - 10:59";"02106";"Assendelftstraat";"4.87943840";"52.38941217";"12"
"6/22/2020 12:00:00 AM";"10:00 - 10:59";"02113";"Haarlemmerplein";"4.88371739";"52.38516129";"24"
"6/22/2020 12:00:00 AM";"10:00 - 10:59";"02114";"Haarlemmerplein";"4.88341252";"52.38484542";"19"
"6/22/2020 12:00:00 AM";"10:00 - 10:59";"02130";"Hugo de Grootplein";"4.87259092";"52.37439113";"15"
"6/22/2020 12:00:00 AM";"10:00 - 10:59";"02156";"Willem de Zwijgerlaan";"4.86425293";"52.37039101";"11"
"6/22/2020 12:00:00 AM";"10:00 - 10:59";"02158";"Adm. de Ruijterweg";"4.86096776";"52.37129320";"11"
"6/22/2020 12:00:00 AM";"10:00 - 10:59";"02182";"Markthallen";"4.86695146";"52.37567869";"11"
"6/22/2020 12:00:00 AM";"10:00 - 10:59";"02193";"Marnixplein";"4.87844490";"52.37741832";"40"
"6/22/2020 12:00:00 AM";"10:00 - 10:59";"02195";"Marnixplein";"4.87918057";"52.37858089";"22"
"6/22/2020 12:00:00 AM";"10:00 - 10:59";"02196";"Marnixplein";"4.87951351";"52.37900474";"63"
"6/22/2020 12:00:00 AM";"10:00 - 10:59";"02222";"Jan van Galenstraat";"4.85874763";"52.37399761";"12"
"6/22/2020 12:00:00 AM";"10:00 - 10:59";"02259";"Contactweg";"4.85657970";"52.39195435";"14"
"6/22/2020 12:00:00 AM";"10:00 - 10:59";"02260";"Contactweg";"4.85432952";"52.39215995";"12"
"6/22/2020 12:00:00 AM";"10:00 - 10:59";"02361";"Station Sloterdijk";"4.83931858";"52.38833460";"24"
"6/22/2020 12:00:00 AM";"10:00 - 10:59";"02365";"Station Sloterdijk";"4.83873236";"52.38822404";"14"
"6/22/2020 12:00:00 AM";"10:00 - 10:59";"02367";"Station Sloterdijk";"4.83876429";"52.38801747";"12"
"6/22/2020 12:00:00 AM";"10:00 - 10:59";"03009";"Witte de Withstraat";"4.85851970";"52.36478416";"16"
"6/22/2020 12:00:00 AM";"10:00 - 10:59";"03010";"Witte de Withstraat";"4.85928290";"52.36480554";"15"
"6/22/2020 12:00:00 AM";"10:00 - 10:59";"03025";"Jan v.Galenstraat";"4.84854861";"52.37342137";"10"
"6/22/2020 12:00:00 AM";"10:00 - 10:59";"03034";"Erasmusgracht";"4.84691117";"52.37644278";"11"
"6/22/2020 12:00:00 AM";"10:00 - 10:59";"03052";"Burg. Eliasstraat";"4.82565009";"52.38077481";"12"
"6/22/2020 12:00:00 AM";"10:00 - 10:59";"03061";"Bos en Lommerplein";"4.84523530";"52.37778328";"22"
"6/22/2020 12:00:00 AM";"10:00 - 10:59";"03076";"Jan Tooropstraat";"4.83810313";"52.37142305";"12"
"6/22/2020 12:00:00 AM";"10:00 - 10:59";"03090";"Slotermeerlaan";"4.81728149";"52.37596234";"17"
"6/22/2020 12:00:00 AM";"10:00 - 10:59";"03101";"Lambertus Zijlplein";"4.80300456";"52.37726788";"25"
"6/22/2020 12:00:00 AM";"10:00 - 10:59";"03108";"Herman Bonpad";"4.80080718";"52.36796367";"13"
"6/22/2020 12:00:00 AM";"10:00 - 10:59";"03121";"Aalbersestraat";"4.79774249";"52.38202329";"11"
"6/22/2020 12:00:00 AM";"10:00 - 10:59";"03129";"Plein '40 - '45";"4.82112671";"52.38075328";"27"
"6/22/2020 12:00:00 AM";"10:00 - 10:59";"03157";"Lambertus Zijlplein";"4.80338637";"52.37726977";"12"
"6/22/2020 12:00:00 AM";"10:00 - 10:59";"03167";"Bos en Lommerplein";"4.84650668";"52.37709704";"17"
"6/22/2020 12:00:00 AM";"10:00 - 10:59";"03168";"Mercatorplein";"4.85152392";"52.37024423";"14"
"6/22/2020 12:00:00 AM";"10:00 - 10:59";"04009";"Dijkgraafplein";"4.78689401";"52.35556268";"12"
"6/22/2020 12:00:00 AM";"10:00 - 10:59";"04012";"Baden Powellweg";"4.79137362";"52.35646612";"18"
"6/22/2020 12:00:00 AM";"10:00 - 10:59";"04016";"Hoekenes";"4.79854723";"52.35791310";"14"
"6/22/2020 12:00:00 AM";"10:00 - 10:59";"04021";"Osdorpplein";"4.80322868";"52.35913166";"27"
"6/22/2020 12:00:00 AM";"10:00 - 10:59";"04043";"Ruimzicht";"4.80749209";"52.35978176";"26"
"6/22/2020 12:00:00 AM";"10:00 - 10:59";"04050";"Meer en Vaart";"4.80994403";"52.35636940";"28"
"6/22/2020 12:00:00 AM";"10:00 - 10:59";"04063";"Johan Huizingalaan";"4.82626398";"52.35778704";"10"
"6/22/2020 12:00:00 AM";"10:00 - 10:59";"04112";"Johan Huizingalaan";"4.82742878";"52.34923618";"10"
"6/22/2020 12:00:00 AM";"10:00 - 10:59";"04195";"Station Lelylaan";"4.83460082";"52.35788018";"27"
"6/22/2020 12:00:00 AM";"10:00 - 10:59";"04196";"Station Lelylaan";"4.83382251";"52.35790351";"31"
"6/22/2020 12:00:00 AM";"10:00 - 10:59";"04379";"Knooppunt Schiphol Nrd";"4.79320459";"52.32276196";"15"
"6/22/2020 12:00:00 AM";"10:00 - 10:59";"04409";"Baden Powellweg";"4.79441281";"52.35092691";"14"
"6/22/2020 12:00:00 AM";"10:00 - 10:59";"04411";"Hoekenes";"4.80183430";"52.35243785";"13"
"6/22/2020 12:00:00 AM";"10:00 - 10:59";"05022";"Centraal Station";"4.90104337";"52.37771998";"54"
"6/22/2020 12:00:00 AM";"10:00 - 10:59";"05024";"Centraal Station";"4.89813942";"52.37736648";"54"
"6/22/2020 12:00:00 AM";"10:00 - 10:59";"05029";"Centraal Station";"4.90334975";"52.37900567";"107"
"6/22/2020 12:00:00 AM";"10:00 - 10:59";"05031";"Dam";"4.89348394";"52.37341055";"40"
"6/22/2020 12:00:00 AM";"10:00 - 10:59";"05032";"Dam";"4.89549360";"52.37492885";"35"
"6/22/2020 12:00:00 AM";"10:00 - 10:59";"05036";"Rokin";"4.89230478";"52.36985548";"27"
"6/22/2020 12:00:00 AM";"10:00 - 10:59";"05046";"Rembrandtplein";"4.89627976";"52.36625897";"14"
"6/22/2020 12:00:00 AM";"10:00 - 10:59";"05047";"Rembrandtplein";"4.89702882";"52.36623511";"15"
"6/22/2020 12:00:00 AM";"10:00 - 10:59";"05053";"Waterlooplein";"4.90195418";"52.36695644";"10"
"6/22/2020 12:00:00 AM";"10:00 - 10:59";"05062";"Spui";"4.88925912";"52.36909673";"10"
"6/22/2020 12:00:00 AM";"10:00 - 10:59";"05063";"Dam";"4.89064590";"52.37244599";"28"
"6/22/2020 12:00:00 AM";"10:00 - 10:59";"05066";"Dam";"4.89027056";"52.37318140";"80"
"6/22/2020 12:00:00 AM";"10:00 - 10:59";"05069";"Nieuwezijds Kolk";"4.89373093";"52.37628765";"14"
"6/22/2020 12:00:00 AM";"10:00 - 10:59";"05073";"Westermarkt";"4.88453426";"52.37400204";"34"
"6/22/2020 12:00:00 AM";"10:00 - 10:59";"05074";"Westermarkt";"4.88354950";"52.37407874";"31"
"6/22/2020 12:00:00 AM";"10:00 - 10:59";"05081";"Buiten Brouwersstraat";"4.89157253";"52.38150947";"10"
"6/22/2020 12:00:00 AM";"10:00 - 10:59";"05090";"Westerdoksdijk";"4.89331977";"52.38551629";"10"
"6/22/2020 12:00:00 AM";"10:00 - 10:59";"05097";"Centraal Station";"4.90087651";"52.37954379";"34"
"6/22/2020 12:00:00 AM";"10:00 - 10:59";"05103";"Centraal Station";"4.90127481";"52.37938365";"22"
"6/22/2020 12:00:00 AM";"10:00 - 10:59";"05105";"Centraal Station";"4.90187762";"52.37932321";"13"
"6/22/2020 12:00:00 AM";"10:00 - 10:59";"05154";"Marnixstraat";"4.87536375";"52.37207533";"14"
"6/22/2020 12:00:00 AM";"10:00 - 10:59";"06001";"Surinameplein";"4.85252231";"52.35807034";"19"
"6/22/2020 12:00:00 AM";"10:00 - 10:59";"06016";"J.P. Heijestraat";"4.86239635";"52.36472951";"19"
"6/22/2020 12:00:00 AM";"10:00 - 10:59";"06017";"J.P. Heijestraat";"4.86292316";"52.36487565";"14"
"6/22/2020 12:00:00 AM";"10:00 - 10:59";"06019";"Ten Katestraat";"4.86737423";"52.36591988";"17"
"6/22/2020 12:00:00 AM";"10:00 - 10:59";"06020";"Ten Katestraat";"4.86773990";"52.36603832";"33"
"6/22/2020 12:00:00 AM";"10:00 - 10:59";"06021";"Bilderdijkstraat";"4.87176488";"52.36712545";"14"
"6/22/2020 12:00:00 AM";"10:00 - 10:59";"06023";"Bilderdijkstraat";"4.87254032";"52.36736251";"18"
"6/22/2020 12:00:00 AM";"10:00 - 10:59";"06024";"Kinkerstraat";"4.87230885";"52.36706491";"11"
"6/22/2020 12:00:00 AM";"10:00 - 10:59";"06028";"Elandsgracht";"4.87741694";"52.36974738";"19"
"6/22/2020 12:00:00 AM";"10:00 - 10:59";"06029";"Elandsgracht";"4.87684368";"52.36852258";"21"
"6/22/2020 12:00:00 AM";"10:00 - 10:59";"06030";"Rozengracht";"4.87590932";"52.37187996";"21"
"6/22/2020 12:00:00 AM";"10:00 - 10:59";"06037";"Bilderdijkstraat";"4.86985701";"52.37082906";"22"
"6/22/2020 12:00:00 AM";"10:00 - 10:59";"06044";"Overtoom";"4.87483191";"52.36345380";"11"
"6/22/2020 12:00:00 AM";"10:00 - 10:59";"06045";"1e Con. Huygensstraat";"4.87399228";"52.36242556";"15"
"6/22/2020 12:00:00 AM";"10:00 - 10:59";"06046";"1e Con. Huygensstraat";"4.87487082";"52.36262709";"20"
"6/22/2020 12:00:00 AM";"10:00 - 10:59";"06048";"J.P. Heijestraat";"4.86585368";"52.36037674";"14"
"6/22/2020 12:00:00 AM";"10:00 - 10:59";"06059";"Spiegelgracht";"4.88762090";"52.36071327";"37"
"6/22/2020 12:00:00 AM";"10:00 - 10:59";"06062";"Leidseplein";"4.88324640";"52.36327421";"21"
"6/22/2020 12:00:00 AM";"10:00 - 10:59";"06063";"Leidseplein";"4.88064547";"52.36476406";"23"
"6/22/2020 12:00:00 AM";"10:00 - 10:59";"06067";"Leidseplein";"4.88301434";"52.36431580";"14"
"6/22/2020 12:00:00 AM";"10:00 - 10:59";"06072";"Prinsengracht";"4.88428435";"52.36495933";"13"
"6/22/2020 12:00:00 AM";"10:00 - 10:59";"06074";"Keizersgracht";"4.88624128";"52.36588437";"26"
"6/22/2020 12:00:00 AM";"10:00 - 10:59";"06075";"Koningsplein";"4.88942793";"52.36713812";"18"
"6/22/2020 12:00:00 AM";"10:00 - 10:59";"06076";"Koningsplein";"4.88857910";"52.36689188";"23"
"6/22/2020 12:00:00 AM";"10:00 - 10:59";"06089";"Leidseplein";"4.88085541";"52.36309324";"25"
"6/22/2020 12:00:00 AM";"10:00 - 10:59";"07002";"Van Baerlestraat";"4.87836936";"52.35839997";"11"
"6/22/2020 12:00:00 AM";"10:00 - 10:59";"07006";"Museumplein";"4.87980116";"52.35642881";"11"
"6/22/2020 12:00:00 AM";"10:00 - 10:59";"07007";"Museumplein";"4.87950215";"52.35690388";"67"
"6/22/2020 12:00:00 AM";"10:00 - 10:59";"07015";"Roelof Hartplein";"4.88206971";"52.35314900";"15"
"6/22/2020 12:00:00 AM";"10:00 - 10:59";"07016";"Roelof Hartplein";"4.88286688";"52.35274795";"23"
"6/22/2020 12:00:00 AM";"10:00 - 10:59";"07017";"Roelof Hartplein";"4.88206086";"52.35263666";"13"
"6/22/2020 12:00:00 AM";"10:00 - 10:59";"07033";"Amstelveenseweg";"4.85695925";"52.35161911";"11"
"6/22/2020 12:00:00 AM";"10:00 - 10:59";"07049";"Hoofddorpplein";"4.84958188";"52.35117239";"10"
"6/22/2020 12:00:00 AM";"10:00 - 10:59";"07098";"Olympiaplein";"4.86659057";"52.34636807";"13"
"6/22/2020 12:00:00 AM";"10:00 - 10:59";"07202";"Olympisch stadion";"4.85684420";"52.34405088";"15"
"6/22/2020 12:00:00 AM";"10:00 - 10:59";"07266";"Station Zuid";"4.87252654";"52.34070477";"12"
"6/22/2020 12:00:00 AM";"10:00 - 10:59";"07268";"Station Zuid";"4.87428608";"52.34082026";"10"
"6/22/2020 12:00:00 AM";"10:00 - 10:59";"07269";"Station Zuid";"4.87374306";"52.34082689";"21"
"6/22/2020 12:00:00 AM";"10:00 - 10:59";"07303";"VU medisch centrum";"4.86097062";"52.33515342";"13"
"6/22/2020 12:00:00 AM";"10:00 - 10:59";"07321";"Van Baerlestraat";"4.87895796";"52.35827667";"22"
"6/22/2020 12:00:00 AM";"10:00 - 10:59";"07322";"Van Baerlestraat";"4.87971942";"52.35844171";"33"
"6/22/2020 12:00:00 AM";"10:00 - 10:59";"07323";"Rijksmuseum";"4.88355043";"52.35977029";"25"
"6/22/2020 12:00:00 AM";"10:00 - 10:59";"07324";"Rijksmuseum";"4.88332565";"52.36017378";"18"
"6/22/2020 12:00:00 AM";"10:00 - 10:59";"07391";"Kronenburg";"4.87070592";"52.31556694";"11"
"6/22/2020 12:00:00 AM";"10:00 - 10:59";"07415";"A.J. Ernststraat";"4.86881729";"52.33162889";"13"
"6/22/2020 12:00:00 AM";"10:00 - 10:59";"07419";"Van Boshuizenstraat";"4.86896941";"52.32487971";"28"
"6/22/2020 12:00:00 AM";"10:00 - 10:59";"07445";"Amstelveen Stadshart";"4.86751502";"52.30124433";"18"
"6/22/2020 12:00:00 AM";"10:00 - 10:59";"08027";"Kadijksplein";"4.91357159";"52.37075136";"15"
"6/22/2020 12:00:00 AM";"10:00 - 10:59";"08034";"P. Hendrikkade (uitstaphalte)";"4.90238928";"52.37685369";"13"
"6/22/2020 12:00:00 AM";"10:00 - 10:59";"08043";"Artis";"4.91141423";"52.36653646";"13"
"6/22/2020 12:00:00 AM";"10:00 - 10:59";"08054";"Weesperplein";"4.90941338";"52.36145933";"25"
"6/22/2020 12:00:00 AM";"10:00 - 10:59";"08057";"Frederiksplein";"4.90024241";"52.35971430";"20"
"6/22/2020 12:00:00 AM";"10:00 - 10:59";"08066";"Frederiksplein";"4.89751569";"52.35937050";"14"
"6/22/2020 12:00:00 AM";"10:00 - 10:59";"08072";"Vijzelgracht";"4.89159781";"52.35953462";"14"
"6/22/2020 12:00:00 AM";"10:00 - 10:59";"08073";"Vijzelgracht";"4.89227386";"52.35946554";"12"
"6/22/2020 12:00:00 AM";"10:00 - 10:59";"08080";"Spiegelgracht";"4.88691222";"52.36106979";"24"
"6/22/2020 12:00:00 AM";"10:00 - 10:59";"08094";"Wijttenbachstraat";"4.92547668";"52.35979743";"14"
"6/22/2020 12:00:00 AM";"10:00 - 10:59";"08103";"Pontanusstraat";"4.92809971";"52.36592826";"10"
"6/22/2020 12:00:00 AM";"10:00 - 10:59";"08113";"Javaplein";"4.93949828";"52.36395867";"11"
"6/22/2020 12:00:00 AM";"10:00 - 10:59";"08124";"Soembawastraat";"4.94346569";"52.36214910";"11"
"6/22/2020 12:00:00 AM";"10:00 - 10:59";"08129";"Molukkenstraat";"4.93861286";"52.36150167";"17"
"6/22/2020 12:00:00 AM";"10:00 - 10:59";"08139";"Zuiderzeeweg";"4.96240105";"52.37166461";"11"
"6/22/2020 12:00:00 AM";"10:00 - 10:59";"08237";"Kattenburgerstraat";"4.92126795";"52.37614755";"13"
"6/22/2020 12:00:00 AM";"10:00 - 10:59";"08238";"Rietlandpark";"4.93350159";"52.37322013";"18"
"6/22/2020 12:00:00 AM";"10:00 - 10:59";"08239";"Rietlandpark";"4.93413567";"52.37296191";"18"
"6/22/2020 12:00:00 AM";"10:00 - 10:59";"08241";"Zuiderzeeweg";"4.96185517";"52.37193228";"29"
"6/22/2020 12:00:00 AM";"10:00 - 10:59";"08245";"Steigereiland";"4.98012952";"52.36313467";"15"
"6/22/2020 12:00:00 AM";"10:00 - 10:59";"08247";"Vennepluimstraat";"4.99057242";"52.35769662";"21"
"6/22/2020 12:00:00 AM";"10:00 - 10:59";"08249";"Diemerparklaan";"4.99499716";"52.35532962";"13"
"6/22/2020 12:00:00 AM";"10:00 - 10:59";"08251";"Lumi?restraat";"4.99942127";"52.35298044";"10"
"6/22/2020 12:00:00 AM";"10:00 - 10:59";"08252";"IJburg";"5.00432644";"52.35095620";"33"
"6/22/2020 12:00:00 AM";"10:00 - 10:59";"08255";"Hoogte Kadijk";"4.92483038";"52.36687722";"14"
"6/22/2020 12:00:00 AM";"10:00 - 10:59";"09049";"Victorieplein";"4.90570139";"52.34637186";"12"
"6/22/2020 12:00:00 AM";"10:00 - 10:59";"09051";"Victorieplein";"4.90653699";"52.34645615";"17"
"6/22/2020 12:00:00 AM";"10:00 - 10:59";"09097";"Van Woustraat";"4.90084070";"52.35468363";"15"
"6/22/2020 12:00:00 AM";"10:00 - 10:59";"09111";"De Pijp";"4.89073444";"52.35272728";"25"
"6/22/2020 12:00:00 AM";"10:00 - 10:59";"09114";"De Pijp";"4.88948829";"52.35259622";"16"
"6/22/2020 12:00:00 AM";"10:00 - 10:59";"09120";"Cornelis Troostplein";"4.89161100";"52.35046604";"11"
"6/22/2020 12:00:00 AM";"10:00 - 10:59";"ASA";"Amstelstation";"4.91751426";"52.34647326";"135"
"6/22/2020 12:00:00 AM";"10:00 - 10:59";"ASW";"Amstelveenseweg";"4.85798324";"52.33836671";"99"
"6/22/2020 12:00:00 AM";"10:00 - 10:59";"BLW";"Bullewijk";"4.95233581";"52.30642205";"87"
"6/22/2020 12:00:00 AM";"10:00 - 10:59";"BMR";"Station Bijlmer ArenA";"4.94713474";"52.31193030";"239"
"6/22/2020 12:00:00 AM";"10:00 - 10:59";"CLL";"Station Lelylaan";"4.83426589";"52.35766291";"74"
"6/22/2020 12:00:00 AM";"10:00 - 10:59";"CS";"Centraal Station";"4.90078150";"52.37749421";"544"
"6/22/2020 12:00:00 AM";"10:00 - 10:59";"DMZ";"Station Diemen-Zuid";"4.95713273";"52.33042795";"30"
"6/22/2020 12:00:00 AM";"10:00 - 10:59";"DPP";"De Pijp";"4.89101069";"52.35296212";"159"
"6/22/2020 12:00:00 AM";"10:00 - 10:59";"DVD";"Station Duivendrecht";"4.93678429";"52.32325190";"43"
"6/22/2020 12:00:00 AM";"10:00 - 10:59";"EPP";"Europaplein";"4.89138430";"52.34185482";"96"
"6/22/2020 12:00:00 AM";"10:00 - 10:59";"GN";"Gein";"4.98952268";"52.29627089";"60"
"6/22/2020 12:00:00 AM";"10:00 - 10:59";"GPP";"Gaasperplas";"4.98468551";"52.31080575";"19"
"6/22/2020 12:00:00 AM";"10:00 - 10:59";"GZH";"Station Ganzenhoef";"4.97323379";"52.32331315";"64"
"6/22/2020 12:00:00 AM";"10:00 - 10:59";"HDS";"Heemstedestraat";"4.83421208";"52.35255760";"47"
"6/22/2020 12:00:00 AM";"10:00 - 10:59";"HLD";"Station Holendrecht";"4.96021904";"52.29780451";"148"
"6/22/2020 12:00:00 AM";"10:00 - 10:59";"HVW";"Henk Sneevlietweg";"4.83439318";"52.34626699";"113"
"6/22/2020 12:00:00 AM";"10:00 - 10:59";"ITW";"Isolatorweg";"4.85013475";"52.39523277";"40"
"6/22/2020 12:00:00 AM";"10:00 - 10:59";"JLS";"Jan v.Galenstraat";"4.83492461";"52.37196551";"70"
"6/22/2020 12:00:00 AM";"10:00 - 10:59";"KEN";"Kraaienneststation";"4.97963450";"52.31632492";"75"
"6/22/2020 12:00:00 AM";"10:00 - 10:59";"MDW";"Van der Madeweg";"4.93048657";"52.32945629";"58"
"6/22/2020 12:00:00 AM";"10:00 - 10:59";"ND";"Noord";"4.93123182";"52.40117202";"142"
"6/22/2020 12:00:00 AM";"10:00 - 10:59";"NDP";"Noorderpark";"4.91789115";"52.38855518";"102"
"6/22/2020 12:00:00 AM";"10:00 - 10:59";"NMT";"Nieuwmarkt";"4.90123885";"52.37194169";"95"
"6/22/2020 12:00:00 AM";"10:00 - 10:59";"OAS";"Overamstel";"4.91815361";"52.33179879";"25"
"6/22/2020 12:00:00 AM";"10:00 - 10:59";"PJW";"Postjesweg";"4.83385543";"52.36468044";"74"
"6/22/2020 12:00:00 AM";"10:00 - 10:59";"RAI";"Station RAI";"4.88982004";"52.33739931";"53"
"6/22/2020 12:00:00 AM";"10:00 - 10:59";"RGB";"Reigersbos";"4.97473728";"52.29566301";"62"
"6/22/2020 12:00:00 AM";"10:00 - 10:59";"RKN";"Rokin";"4.89229651";"52.36928023";"314"
"6/22/2020 12:00:00 AM";"10:00 - 10:59";"SLW";"Spaklerweg";"4.92085640";"52.33986250";"47"
"6/22/2020 12:00:00 AM";"10:00 - 10:59";"STD";"Station Sloterdijk";"4.83878389";"52.38880848";"119"
"6/22/2020 12:00:00 AM";"10:00 - 10:59";"SVT";"Strandvliet";"4.94152820";"52.31825469";"32"
"6/22/2020 12:00:00 AM";"10:00 - 10:59";"VLN";"Burg.de Vlugtlaan";"4.83809109";"52.37951196";"37"
"6/22/2020 12:00:00 AM";"10:00 - 10:59";"VPD";"Venserpolder";"4.94665009";"52.32679428";"26"
"6/22/2020 12:00:00 AM";"10:00 - 10:59";"VSW";"Verrijn Stuartweg";"4.96693669";"52.32844093";"13"
"6/22/2020 12:00:00 AM";"10:00 - 10:59";"VZG";"Vijzelgracht";"4.89072870";"52.35980061";"115"
"6/22/2020 12:00:00 AM";"10:00 - 10:59";"WBS";"Wibautstraat";"4.91202993";"52.35428867";"106"
"6/22/2020 12:00:00 AM";"10:00 - 10:59";"WLP";"Waterlooplein";"4.90298171";"52.36697862";"176"
"6/22/2020 12:00:00 AM";"10:00 - 10:59";"WPP";"Weesperplein";"4.90787469";"52.36120146";"138"
"6/22/2020 12:00:00 AM";"10:00 - 10:59";"WTC";"Station Zuid";"4.87509853";"52.33908015";"269"
"6/22/2020 12:00:00 AM";"11:00 - 11:59";"";"Overig";"";"";"2338"
"6/22/2020 12:00:00 AM";"11:00 - 11:59";"[[ Onb";"[[ Onbekend ]]";"0.00000000";"0.00000000";"265"
"6/22/2020 12:00:00 AM";"11:00 - 11:59";"00005";"Muiderpoortstation";"4.93280219";"52.36121887";"18"
"6/22/2020 12:00:00 AM";"11:00 - 11:59";"00007";"Muiderpoortstation";"4.93356602";"52.36117686";"10"
"6/22/2020 12:00:00 AM";"11:00 - 11:59";"00008";"Dapperstraat";"4.92977913";"52.36110836";"75"
"6/22/2020 12:00:00 AM";"11:00 - 11:59";"00010";"Dapperstraat";"4.92891486";"52.36092527";"21"
"6/22/2020 12:00:00 AM";"11:00 - 11:59";"00017";"Linnaeusstraat";"4.92573745";"52.36013099";"11"
"6/22/2020 12:00:00 AM";"11:00 - 11:59";"00020";"Beukenweg";"4.91674979";"52.35906203";"16"
"6/22/2020 12:00:00 AM";"11:00 - 11:59";"00021";"Beukenweg";"4.91721293";"52.35829991";"16"
"6/22/2020 12:00:00 AM";"11:00 - 11:59";"00029";"Oostpoort";"4.92719316";"52.35707185";"15"
"6/22/2020 12:00:00 AM";"11:00 - 11:59";"00030";"Oostpoort";"4.92694026";"52.35739442";"17"
"6/22/2020 12:00:00 AM";"11:00 - 11:59";"00116";"Station Ganzenhoef";"4.97272915";"52.32237665";"13"
"6/22/2020 12:00:00 AM";"11:00 - 11:59";"00141";"Kraaienneststation";"4.97868390";"52.31603403";"17"
"6/22/2020 12:00:00 AM";"11:00 - 11:59";"00150";"Tulastraat";"4.96535973";"52.31994189";"15"
"6/22/2020 12:00:00 AM";"11:00 - 11:59";"00151";"Tulastraat";"4.96584458";"52.31985374";"31"
"6/22/2020 12:00:00 AM";"11:00 - 11:59";"00152";"Florijn";"4.95859163";"52.31758973";"13"
"6/22/2020 12:00:00 AM";"11:00 - 11:59";"00172";"Holendrechtplein";"4.96402882";"52.29952588";"12"
"6/22/2020 12:00:00 AM";"11:00 - 11:59";"00197";"Annie Romeinplein";"4.97162041";"52.32173463";"28"
"6/22/2020 12:00:00 AM";"11:00 - 11:59";"00238";"Anton de Komplein";"4.95413359";"52.31603659";"49"
"6/22/2020 12:00:00 AM";"11:00 - 11:59";"00239";"Anton de Komplein";"4.95597669";"52.31652866";"40"
"6/22/2020 12:00:00 AM";"11:00 - 11:59";"00441";"Muiderpoortstation";"4.93254137";"52.36088532";"13"
"6/22/2020 12:00:00 AM";"11:00 - 11:59";"00444";"Linnaeusstraat";"4.92490296";"52.35991203";"32"
"6/22/2020 12:00:00 AM";"11:00 - 11:59";"00518";"Foppingadreef";"4.94967889";"52.31268573";"15"
"6/22/2020 12:00:00 AM";"11:00 - 11:59";"00553";"Kraaienneststation";"4.98073727";"52.31601414";"11"
"6/22/2020 12:00:00 AM";"11:00 - 11:59";"00560";"Station Bijlmer ArenA";"4.94747867";"52.31125750";"11"
"6/22/2020 12:00:00 AM";"11:00 - 11:59";"00561";"Station Bijlmer ArenA";"4.94741931";"52.31132918";"21"
"6/22/2020 12:00:00 AM";"11:00 - 11:59";"00562";"Station Bijlmer ArenA";"4.94736012";"52.31138289";"13"
"6/22/2020 12:00:00 AM";"11:00 - 11:59";"01005";"Volendammerweg";"4.95680438";"52.39306199";"13"
"6/22/2020 12:00:00 AM";"11:00 - 11:59";"01076";"Waterlandplein";"4.95247364";"52.39274059";"22"
"6/22/2020 12:00:00 AM";"11:00 - 11:59";"01212";"Oostzanerdijk";"4.88149588";"52.42023965";"18"
"6/22/2020 12:00:00 AM";"11:00 - 11:59";"01305";"Station Noord";"4.93215715";"52.40264056";"17"
"6/22/2020 12:00:00 AM";"11:00 - 11:59";"01315";"Station Noord";"4.93339740";"52.40206112";"16"
"6/22/2020 12:00:00 AM";"11:00 - 11:59";"01347";"Nageljongenstraat";"4.89978361";"52.40815603";"11"
"6/22/2020 12:00:00 AM";"11:00 - 11:59";"01363";"Buikslotermeerplein";"4.93968364";"52.39943369";"20"
"6/22/2020 12:00:00 AM";"11:00 - 11:59";"01364";"Buikslotermeerplein";"4.93887054";"52.39992493";"18"
"6/22/2020 12:00:00 AM";"11:00 - 11:59";"01414";"Olof Palmeplein";"4.94012168";"52.39679298";"17"
"6/22/2020 12:00:00 AM";"11:00 - 11:59";"02103";"Spaarndammerstraat";"4.87765867";"52.39216375";"16"
"6/22/2020 12:00:00 AM";"11:00 - 11:59";"02106";"Assendelftstraat";"4.87943840";"52.38941217";"17"
"6/22/2020 12:00:00 AM";"11:00 - 11:59";"02113";"Haarlemmerplein";"4.88371739";"52.38516129";"17"
"6/22/2020 12:00:00 AM";"11:00 - 11:59";"02114";"Haarlemmerplein";"4.88341252";"52.38484542";"14"
"6/22/2020 12:00:00 AM";"11:00 - 11:59";"02130";"Hugo de Grootplein";"4.87259092";"52.37439113";"11"
"6/22/2020 12:00:00 AM";"11:00 - 11:59";"02145";"Van Hallstraat";"4.86990682";"52.38418503";"10"
"6/22/2020 12:00:00 AM";"11:00 - 11:59";"02155";"Willem de Zwijgerlaan";"4.86360306";"52.37071170";"12"
"6/22/2020 12:00:00 AM";"11:00 - 11:59";"02156";"Willem de Zwijgerlaan";"4.86425293";"52.37039101";"13"
"6/22/2020 12:00:00 AM";"11:00 - 11:59";"02157";"Adm. de Ruijterweg";"4.86009910";"52.37148707";"13"
"6/22/2020 12:00:00 AM";"11:00 - 11:59";"02158";"Adm. de Ruijterweg";"4.86096776";"52.37129320";"16"
"6/22/2020 12:00:00 AM";"11:00 - 11:59";"02193";"Marnixplein";"4.87844490";"52.37741832";"18"
"6/22/2020 12:00:00 AM";"11:00 - 11:59";"02195";"Marnixplein";"4.87918057";"52.37858089";"26"
"6/22/2020 12:00:00 AM";"11:00 - 11:59";"02196";"Marnixplein";"4.87951351";"52.37900474";"56"
"6/22/2020 12:00:00 AM";"11:00 - 11:59";"02222";"Jan van Galenstraat";"4.85874763";"52.37399761";"11"
"6/22/2020 12:00:00 AM";"11:00 - 11:59";"02319";"Solebaystraat";"4.85540788";"52.38431853";"10"
"6/22/2020 12:00:00 AM";"11:00 - 11:59";"02361";"Station Sloterdijk";"4.83931858";"52.38833460";"48"
"6/22/2020 12:00:00 AM";"11:00 - 11:59";"02365";"Station Sloterdijk";"4.83873236";"52.38822404";"20"
"6/22/2020 12:00:00 AM";"11:00 - 11:59";"03009";"Witte de Withstraat";"4.85851970";"52.36478416";"24"
"6/22/2020 12:00:00 AM";"11:00 - 11:59";"03010";"Witte de Withstraat";"4.85928290";"52.36480554";"15"
"6/22/2020 12:00:00 AM";"11:00 - 11:59";"03022";"Mercatorplein";"4.85070310";"52.37012367";"18"
"6/22/2020 12:00:00 AM";"11:00 - 11:59";"03023";"Marco Polostraat";"4.85520189";"52.37088096";"11"
"6/22/2020 12:00:00 AM";"11:00 - 11:59";"03034";"Erasmusgracht";"4.84691117";"52.37644278";"15"
"6/22/2020 12:00:00 AM";"11:00 - 11:59";"03052";"Burg. Eliasstraat";"4.82565009";"52.38077481";"13"
"6/22/2020 12:00:00 AM";"11:00 - 11:59";"03060";"Bos en Lommerplein";"4.84718407";"52.37815169";"15"
"6/22/2020 12:00:00 AM";"11:00 - 11:59";"03061";"Bos en Lommerplein";"4.84523530";"52.37778328";"34"
"6/22/2020 12:00:00 AM";"11:00 - 11:59";"03090";"Slotermeerlaan";"4.81728149";"52.37596234";"13"
"6/22/2020 12:00:00 AM";"11:00 - 11:59";"03097";"Burg. v. Leeuwenlaan";"4.81182601";"52.37651117";"13"
