"Datum";"UurgroepOmschrijving (van aankomst)";"AankomstHalteCode";"AankomstHalteNaam";"AankomstLat";"AankomstLon";"AantalReizen"
"11/21/2020 12:00:00 AM";"16:00 - 16:59";"";"Overig";"";"";"1"
"11/28/2020 12:00:00 AM";"17:00 - 17:59";"";"Overig";"";"";"1"
"6/2/2021 12:00:00 AM";"10:00 - 10:59";"";"Overig";"";"";"1"
"8/24/2021 12:00:00 AM";"12:00 - 12:59";"";"Overig";"";"";"1"
"9/20/2021 12:00:00 AM";"00:00 - 00:59";"";"Overig";"";"";"15"
"9/20/2021 12:00:00 AM";"01:00 - 01:59";"";"Overig";"";"";"40"
"9/20/2021 12:00:00 AM";"02:00 - 02:59";"";"Overig";"";"";"40"
"9/20/2021 12:00:00 AM";"03:00 - 03:59";"";"Overig";"";"";"41"
"9/20/2021 12:00:00 AM";"04:00 - 04:59";"";"Overig";"";"";"61"
"9/20/2021 12:00:00 AM";"04:00 - 04:59";"00562";"Station Bijlmer ArenA";"4.94736012";"52.31138289";"26"
"9/20/2021 12:00:00 AM";"04:00 - 04:59";"00566";"Station Bijlmer ArenA";"4.94709342";"52.31166052";"20"
"9/20/2021 12:00:00 AM";"04:00 - 04:59";"05100";"Centraal Station";"4.90068332";"52.37974972";"11"
"9/20/2021 12:00:00 AM";"05:00 - 05:59";"";"Overig";"";"";"235"
"9/20/2021 12:00:00 AM";"05:00 - 05:59";"[[ Onb";"[[ Onbekend ]]";"0.00000000";"0.00000000";"38"
"9/20/2021 12:00:00 AM";"05:00 - 05:59";"00562";"Station Bijlmer ArenA";"4.94736012";"52.31138289";"19"
"9/20/2021 12:00:00 AM";"05:00 - 05:59";"04267";"Schiphol Airport/Plaza";"4.76139455";"52.30887344";"90"
"9/20/2021 12:00:00 AM";"05:00 - 05:59";"04274";"Schiphol Airport/Plaza";"4.76104997";"52.30939292";"33"
"9/20/2021 12:00:00 AM";"05:00 - 05:59";"04300";"Knooppunt Schiphol Nrd";"4.79292928";"52.32250892";"14"
"9/20/2021 12:00:00 AM";"05:00 - 05:59";"04379";"Knooppunt Schiphol Nrd";"4.79320459";"52.32276196";"41"
"9/20/2021 12:00:00 AM";"05:00 - 05:59";"05029";"Centraal Station";"4.90334975";"52.37900567";"21"
"9/20/2021 12:00:00 AM";"05:00 - 05:59";"05100";"Centraal Station";"4.90068332";"52.37974972";"13"
"9/20/2021 12:00:00 AM";"05:00 - 05:59";"BMR";"Station Bijlmer ArenA";"4.94713474";"52.31193030";"24"
"9/20/2021 12:00:00 AM";"05:00 - 05:59";"CS";"Centraal Station";"4.90078150";"52.37749421";"53"
"9/20/2021 12:00:00 AM";"05:00 - 05:59";"DVD";"Station Duivendrecht";"4.93678429";"52.32325190";"10"
"9/20/2021 12:00:00 AM";"05:00 - 05:59";"RKN";"Rokin";"4.89229651";"52.36928023";"14"
"9/20/2021 12:00:00 AM";"05:00 - 05:59";"WTC";"Station Zuid";"4.87509853";"52.33908015";"21"
"9/20/2021 12:00:00 AM";"06:00 - 06:59";"";"Overig";"";"";"1357"
"9/20/2021 12:00:00 AM";"06:00 - 06:59";"[[ Onb";"[[ Onbekend ]]";"0.00000000";"0.00000000";"97"
"9/20/2021 12:00:00 AM";"06:00 - 06:59";"00023";"Beukenplein";"4.91809259";"52.35701816";"12"
"9/20/2021 12:00:00 AM";"06:00 - 06:59";"00205";"Station Holendrecht";"4.95865657";"52.29716971";"13"
"9/20/2021 12:00:00 AM";"06:00 - 06:59";"00453";"Diemen Sniep";"4.96964866";"52.33644962";"46"
"9/20/2021 12:00:00 AM";"06:00 - 06:59";"00494";"Science Park Aqua";"4.95416922";"52.35601419";"11"
"9/20/2021 12:00:00 AM";"06:00 - 06:59";"00560";"Station Bijlmer ArenA";"4.94747867";"52.31125750";"10"
"9/20/2021 12:00:00 AM";"06:00 - 06:59";"00561";"Station Bijlmer ArenA";"4.94741931";"52.31132918";"50"
"9/20/2021 12:00:00 AM";"06:00 - 06:59";"00562";"Station Bijlmer ArenA";"4.94736012";"52.31138289";"25"
"9/20/2021 12:00:00 AM";"06:00 - 06:59";"01005";"Volendammerweg";"4.95680438";"52.39306199";"10"
"9/20/2021 12:00:00 AM";"06:00 - 06:59";"02019";"Koivistokade";"4.87537403";"52.39790601";"10"
"9/20/2021 12:00:00 AM";"06:00 - 06:59";"02114";"Haarlemmerplein";"4.88341252";"52.38484542";"10"
"9/20/2021 12:00:00 AM";"06:00 - 06:59";"02201";"Abberdaan";"4.78087947";"52.39180671";"10"
"9/20/2021 12:00:00 AM";"06:00 - 06:59";"02311";"Seineweg";"4.81857317";"52.38632242";"41"
"9/20/2021 12:00:00 AM";"06:00 - 06:59";"02361";"Station Sloterdijk";"4.83931858";"52.38833460";"43"
"9/20/2021 12:00:00 AM";"06:00 - 06:59";"02365";"Station Sloterdijk";"4.83873236";"52.38822404";"31"
"9/20/2021 12:00:00 AM";"06:00 - 06:59";"02366";"Station Sloterdijk";"4.83873347";"52.38813416";"13"
"9/20/2021 12:00:00 AM";"06:00 - 06:59";"02368";"Station Sloterdijk";"4.83877999";"52.38793665";"22"
"9/20/2021 12:00:00 AM";"06:00 - 06:59";"02378";"Station Sloterdijk";"4.83809796";"52.38844579";"18"
"9/20/2021 12:00:00 AM";"06:00 - 06:59";"03061";"Bos en Lommerplein";"4.84523530";"52.37778328";"10"
"9/20/2021 12:00:00 AM";"06:00 - 06:59";"03076";"Jan Tooropstraat";"4.83810313";"52.37142305";"11"
"9/20/2021 12:00:00 AM";"06:00 - 06:59";"03129";"Plein '40 - '45";"4.82112672";"52.38075328";"11"
"9/20/2021 12:00:00 AM";"06:00 - 06:59";"04016";"Hoekenes";"4.79854723";"52.35791310";"10"
"9/20/2021 12:00:00 AM";"06:00 - 06:59";"04112";"Johan Huizingalaan";"4.82742878";"52.34923618";"17"
"9/20/2021 12:00:00 AM";"06:00 - 06:59";"04195";"Station Lelylaan";"4.83460082";"52.35788018";"23"
"9/20/2021 12:00:00 AM";"06:00 - 06:59";"04196";"Station Lelylaan";"4.83382251";"52.35790351";"27"
"9/20/2021 12:00:00 AM";"06:00 - 06:59";"04267";"Schiphol Airport/Plaza";"4.76139455";"52.30887344";"27"
"9/20/2021 12:00:00 AM";"06:00 - 06:59";"04274";"Schiphol Airport/Plaza";"4.76104997";"52.30939292";"19"
"9/20/2021 12:00:00 AM";"06:00 - 06:59";"04379";"Knooppunt Schiphol Nrd";"4.79320459";"52.32276196";"33"
"9/20/2021 12:00:00 AM";"06:00 - 06:59";"04402";"Matterhorn";"4.77477998";"52.35372103";"11"
"9/20/2021 12:00:00 AM";"06:00 - 06:59";"05011";"Centraal Station";"4.89921803";"52.37810793";"61"
"9/20/2021 12:00:00 AM";"06:00 - 06:59";"05029";"Centraal Station";"4.90334975";"52.37900567";"58"
"9/20/2021 12:00:00 AM";"06:00 - 06:59";"05065";"Dam";"4.89079364";"52.37367792";"12"
"9/20/2021 12:00:00 AM";"06:00 - 06:59";"05066";"Dam";"4.89027056";"52.37318140";"25"
"9/20/2021 12:00:00 AM";"06:00 - 06:59";"05069";"Nieuwezijds Kolk";"4.89373093";"52.37628765";"11"
"9/20/2021 12:00:00 AM";"06:00 - 06:59";"05074";"Westermarkt";"4.88354950";"52.37407874";"16"
"9/20/2021 12:00:00 AM";"06:00 - 06:59";"05097";"Centraal Station";"4.90087651";"52.37954379";"25"
"9/20/2021 12:00:00 AM";"06:00 - 06:59";"05101";"Centraal Station";"4.90105195";"52.37961641";"10"
"9/20/2021 12:00:00 AM";"06:00 - 06:59";"05104";"Centraal Station";"4.90164343";"52.37925034";"13"
"9/20/2021 12:00:00 AM";"06:00 - 06:59";"06029";"Elandsgracht";"4.87684368";"52.36852258";"13"
"9/20/2021 12:00:00 AM";"06:00 - 06:59";"06037";"Bilderdijkstraat";"4.86985701";"52.37082906";"10"
"9/20/2021 12:00:00 AM";"06:00 - 06:59";"06046";"1e Con. Huygensstraat";"4.87487082";"52.36262709";"10"
"9/20/2021 12:00:00 AM";"06:00 - 06:59";"06061";"Leidseplein";"4.88339576";"52.36305015";"15"
"9/20/2021 12:00:00 AM";"06:00 - 06:59";"06063";"Leidseplein";"4.88064547";"52.36476406";"18"
"9/20/2021 12:00:00 AM";"06:00 - 06:59";"06089";"Leidseplein";"4.88085541";"52.36309324";"23"
"9/20/2021 12:00:00 AM";"06:00 - 06:59";"07001";"Concertgebouw";"4.87950215";"52.35690388";"13"
"9/20/2021 12:00:00 AM";"06:00 - 06:59";"07050";"Haarlemmermeerstation";"4.85744749";"52.34883508";"11"
"9/20/2021 12:00:00 AM";"06:00 - 06:59";"07193";"Station Zuid";"4.87334616";"52.34088808";"15"
"9/20/2021 12:00:00 AM";"06:00 - 06:59";"07268";"Station Zuid";"4.87428608";"52.34082026";"12"
"9/20/2021 12:00:00 AM";"06:00 - 06:59";"07269";"Station Zuid";"4.87374306";"52.34082689";"32"
"9/20/2021 12:00:00 AM";"06:00 - 06:59";"07270";"Parnassusweg";"4.86874218";"52.33806382";"11"
"9/20/2021 12:00:00 AM";"06:00 - 06:59";"07303";"VU medisch centrum";"4.86097062";"52.33515342";"20"
"9/20/2021 12:00:00 AM";"06:00 - 06:59";"07419";"Van Boshuizenstraat";"4.86896941";"52.32487971";"12"
"9/20/2021 12:00:00 AM";"06:00 - 06:59";"08054";"Weesperplein";"4.90941338";"52.36145933";"18"
"9/20/2021 12:00:00 AM";"06:00 - 06:59";"08057";"Frederiksplein";"4.90024241";"52.35971430";"13"
"9/20/2021 12:00:00 AM";"06:00 - 06:59";"08072";"Vijzelgracht";"4.89159781";"52.35953462";"14"
"9/20/2021 12:00:00 AM";"06:00 - 06:59";"08073";"Vijzelgracht";"4.89227386";"52.35946554";"12"
"9/20/2021 12:00:00 AM";"06:00 - 06:59";"08080";"Spiegelgracht";"4.88691222";"52.36106979";"16"
"9/20/2021 12:00:00 AM";"06:00 - 06:59";"08238";"Rietlandpark";"4.93350159";"52.37322013";"16"
"9/20/2021 12:00:00 AM";"06:00 - 06:59";"08259";"1e Leeghwaterstraat";"4.93004964";"52.37047459";"12"
"9/20/2021 12:00:00 AM";"06:00 - 06:59";"08262";"IJburg";"5.00486802";"52.35112872";"10"
"9/20/2021 12:00:00 AM";"06:00 - 06:59";"09016";"Amstelstation";"4.91953925";"52.34649925";"13"
"9/20/2021 12:00:00 AM";"06:00 - 06:59";"ASA";"Amstelstation";"4.91751426";"52.34647326";"125"
"9/20/2021 12:00:00 AM";"06:00 - 06:59";"ASW";"Amstelveenseweg";"4.85798324";"52.33836671";"155"
"9/20/2021 12:00:00 AM";"06:00 - 06:59";"BLW";"Bullewijk";"4.95233581";"52.30642205";"36"
"9/20/2021 12:00:00 AM";"06:00 - 06:59";"BMR";"Station Bijlmer ArenA";"4.94713474";"52.31193030";"150"
"9/20/2021 12:00:00 AM";"06:00 - 06:59";"CLL";"Station Lelylaan";"4.83426589";"52.35766291";"45"
"9/20/2021 12:00:00 AM";"06:00 - 06:59";"CS";"Centraal Station";"4.90078150";"52.37749421";"380"
"9/20/2021 12:00:00 AM";"06:00 - 06:59";"DMZ";"Station Diemen-Zuid";"4.95713273";"52.33042795";"14"
"9/20/2021 12:00:00 AM";"06:00 - 06:59";"DPP";"De Pijp";"4.89101069";"52.35296212";"41"
"9/20/2021 12:00:00 AM";"06:00 - 06:59";"DVD";"Station Duivendrecht";"4.93678429";"52.32325190";"55"
"9/20/2021 12:00:00 AM";"06:00 - 06:59";"EPP";"Europaplein";"4.89138430";"52.34185482";"28"
"9/20/2021 12:00:00 AM";"06:00 - 06:59";"GN";"Gein";"4.98952268";"52.29627089";"11"
"9/20/2021 12:00:00 AM";"06:00 - 06:59";"GZH";"Station Ganzenhoef";"4.97323379";"52.32331315";"12"
"9/20/2021 12:00:00 AM";"06:00 - 06:59";"HDS";"Heemstedestraat";"4.83421208";"52.35255760";"18"
"9/20/2021 12:00:00 AM";"06:00 - 06:59";"HLD";"Station Holendrecht";"4.96021904";"52.29780451";"86"
"9/20/2021 12:00:00 AM";"06:00 - 06:59";"HVW";"Henk Sneevlietweg";"4.83439318";"52.34626699";"53"
"9/20/2021 12:00:00 AM";"06:00 - 06:59";"ITW";"Isolatorweg";"4.85013475";"52.39523277";"22"
"9/20/2021 12:00:00 AM";"06:00 - 06:59";"JLS";"Jan v.Galenstraat";"4.83492461";"52.37196551";"68"
"9/20/2021 12:00:00 AM";"06:00 - 06:59";"KEN";"Kraaienneststation";"4.97963450";"52.31632492";"12"
"9/20/2021 12:00:00 AM";"06:00 - 06:59";"MDW";"Van der Madeweg";"4.93048657";"52.32945629";"39"
"9/20/2021 12:00:00 AM";"06:00 - 06:59";"ND";"Noord";"4.93123182";"52.40117202";"54"
"9/20/2021 12:00:00 AM";"06:00 - 06:59";"NDP";"Noorderpark";"4.91789115";"52.38855518";"25"
"9/20/2021 12:00:00 AM";"06:00 - 06:59";"NMT";"Nieuwmarkt";"4.90123885";"52.37194169";"37"
"9/20/2021 12:00:00 AM";"06:00 - 06:59";"OAS";"Overamstel";"4.91815361";"52.33179879";"39"
"9/20/2021 12:00:00 AM";"06:00 - 06:59";"RAI";"Station RAI";"4.88982004";"52.33739931";"63"
"9/20/2021 12:00:00 AM";"06:00 - 06:59";"RGB";"Reigersbos";"4.97473728";"52.29566301";"12"
"9/20/2021 12:00:00 AM";"06:00 - 06:59";"RKN";"Rokin";"4.89229651";"52.36928023";"152"
"9/20/2021 12:00:00 AM";"06:00 - 06:59";"SLW";"Spaklerweg";"4.92085640";"52.33986250";"32"
"9/20/2021 12:00:00 AM";"06:00 - 06:59";"STD";"Station Sloterdijk";"4.83878389";"52.38880848";"157"
"9/20/2021 12:00:00 AM";"06:00 - 06:59";"VSW";"Verrijn Stuartweg";"4.96693669";"52.32844093";"25"
"9/20/2021 12:00:00 AM";"06:00 - 06:59";"VZG";"Vijzelgracht";"4.89072870";"52.35980061";"47"
"9/20/2021 12:00:00 AM";"06:00 - 06:59";"WBS";"Wibautstraat";"4.91202993";"52.35428867";"55"
"9/20/2021 12:00:00 AM";"06:00 - 06:59";"WLP";"Waterlooplein";"4.90298171";"52.36697862";"82"
"9/20/2021 12:00:00 AM";"06:00 - 06:59";"WPP";"Weesperplein";"4.90787469";"52.36120146";"71"
"9/20/2021 12:00:00 AM";"06:00 - 06:59";"WTC";"Station Zuid";"4.87509853";"52.33908015";"329"
"9/20/2021 12:00:00 AM";"07:00 - 07:59";"";"Overig";"";"";"2214"
"9/20/2021 12:00:00 AM";"07:00 - 07:59";"[[ Onb";"[[ Onbekend ]]";"0.00000000";"0.00000000";"295"
"9/20/2021 12:00:00 AM";"07:00 - 07:59";"00005";"Muiderpoortstation";"4.93280219";"52.36121887";"37"
"9/20/2021 12:00:00 AM";"07:00 - 07:59";"00007";"Muiderpoortstation";"4.93356602";"52.36117686";"11"
"9/20/2021 12:00:00 AM";"07:00 - 07:59";"00008";"Dapperstraat";"4.92977913";"52.36110836";"21"
"9/20/2021 12:00:00 AM";"07:00 - 07:59";"00017";"Linnaeusstraat";"4.92573745";"52.36013099";"13"
"9/20/2021 12:00:00 AM";"07:00 - 07:59";"00018";"Diemerknoop";"5.00286153";"52.33537576";"18"
"9/20/2021 12:00:00 AM";"07:00 - 07:59";"00019";"Diemerknoop";"5.00296377";"52.33543002";"13"
"9/20/2021 12:00:00 AM";"07:00 - 07:59";"00020";"Beukenweg";"4.91674979";"52.35906203";"36"
"9/20/2021 12:00:00 AM";"07:00 - 07:59";"00021";"Beukenweg";"4.91721293";"52.35829991";"42"
"9/20/2021 12:00:00 AM";"07:00 - 07:59";"00023";"Beukenplein";"4.91809259";"52.35701816";"34"
"9/20/2021 12:00:00 AM";"07:00 - 07:59";"00029";"Oostpoort";"4.92719316";"52.35707185";"32"
"9/20/2021 12:00:00 AM";"07:00 - 07:59";"00053";"Kruislaan";"4.93967974";"52.34742196";"11"
"9/20/2021 12:00:00 AM";"07:00 - 07:59";"00141";"Kraaienneststation";"4.97868390";"52.31603403";"10"
"9/20/2021 12:00:00 AM";"07:00 - 07:59";"00179";"Kelbergen";"4.97179997";"52.31351146";"18"
"9/20/2021 12:00:00 AM";"07:00 - 07:59";"00205";"Station Holendrecht";"4.95865657";"52.29716971";"18"
"9/20/2021 12:00:00 AM";"07:00 - 07:59";"00351";"Dostojevskisingel";"4.94525272";"52.32275356";"14"
"9/20/2021 12:00:00 AM";"07:00 - 07:59";"00432";"Diemerbrug";"4.96142958";"52.33824484";"13"
"9/20/2021 12:00:00 AM";"07:00 - 07:59";"00434";"Bijlmerplein";"4.95032022";"52.31457553";"11"
"9/20/2021 12:00:00 AM";"07:00 - 07:59";"00441";"Muiderpoortstation";"4.93254137";"52.36088532";"15"
"9/20/2021 12:00:00 AM";"07:00 - 07:59";"00444";"Linnaeusstraat";"4.92490296";"52.35991203";"21"
"9/20/2021 12:00:00 AM";"07:00 - 07:59";"00453";"Diemen Sniep";"4.96964866";"52.33644962";"50"
"9/20/2021 12:00:00 AM";"07:00 - 07:59";"00515";"Station Duivendrecht";"4.93669692";"52.32318866";"12"
"9/20/2021 12:00:00 AM";"07:00 - 07:59";"00518";"Foppingadreef";"4.94967889";"52.31268573";"14"
"9/20/2021 12:00:00 AM";"07:00 - 07:59";"00560";"Station Bijlmer ArenA";"4.94747867";"52.31125750";"50"
"9/20/2021 12:00:00 AM";"07:00 - 07:59";"00561";"Station Bijlmer ArenA";"4.94741931";"52.31132918";"75"
"9/20/2021 12:00:00 AM";"07:00 - 07:59";"00562";"Station Bijlmer ArenA";"4.94736012";"52.31138289";"13"
"9/20/2021 12:00:00 AM";"07:00 - 07:59";"00568";"Station Bijlmer ArenA";"4.94762664";"52.31112323";"12"
"9/20/2021 12:00:00 AM";"07:00 - 07:59";"00665";"Station Weesp";"5.04383463";"52.31145059";"15"
"9/20/2021 12:00:00 AM";"07:00 - 07:59";"00999";"Vinkenbrug";"4.97831599";"52.33370267";"15"
"9/20/2021 12:00:00 AM";"07:00 - 07:59";"01305";"Station Noord";"4.93215715";"52.40264056";"10"
"9/20/2021 12:00:00 AM";"07:00 - 07:59";"01316";"Station Noord";"4.93336820";"52.40204304";"11"
"9/20/2021 12:00:00 AM";"07:00 - 07:59";"01352";"Oosterlengte";"4.92206974";"52.40611555";"11"
"9/20/2021 12:00:00 AM";"07:00 - 07:59";"01365";"Atat?rk";"4.89794256";"52.40319625";"15"
"9/20/2021 12:00:00 AM";"07:00 - 07:59";"01402";"Floraweg";"4.90614362";"52.39899665";"14"
"9/20/2021 12:00:00 AM";"07:00 - 07:59";"02018";"Koivistokade";"4.87577082";"52.39789874";"11"
"9/20/2021 12:00:00 AM";"07:00 - 07:59";"02064";"Kabelweg";"4.84827817";"52.39205168";"13"
"9/20/2021 12:00:00 AM";"07:00 - 07:59";"02103";"Spaarndammerstraat";"4.87765867";"52.39216375";"20"
"9/20/2021 12:00:00 AM";"07:00 - 07:59";"02106";"Assendelftstraat";"4.87943840";"52.38941217";"13"
"9/20/2021 12:00:00 AM";"07:00 - 07:59";"02113";"Haarlemmerplein";"4.88371739";"52.38516129";"14"
"9/20/2021 12:00:00 AM";"07:00 - 07:59";"02114";"Haarlemmerplein";"4.88341252";"52.38484542";"29"
"9/20/2021 12:00:00 AM";"07:00 - 07:59";"02153";"Nassaukade";"4.87920791";"52.38132226";"11"
"9/20/2021 12:00:00 AM";"07:00 - 07:59";"02156";"Willem de Zwijgerlaan";"4.86425293";"52.37039101";"10"
"9/20/2021 12:00:00 AM";"07:00 - 07:59";"02158";"Adm. de Ruijterweg";"4.86096776";"52.37129320";"17"
"9/20/2021 12:00:00 AM";"07:00 - 07:59";"02160";"Haparandaweg";"4.87389760";"52.39471799";"14"
"9/20/2021 12:00:00 AM";"07:00 - 07:59";"02170";"Spaarndammerstraat";"4.87723089";"52.39231470";"13"
"9/20/2021 12:00:00 AM";"07:00 - 07:59";"02183";"Markthallen";"4.86667150";"52.37575835";"10"
"9/20/2021 12:00:00 AM";"07:00 - 07:59";"02201";"Abberdaan";"4.78087947";"52.39180671";"14"
"9/20/2021 12:00:00 AM";"07:00 - 07:59";"02260";"Contactweg";"4.85432952";"52.39215995";"12"
"9/20/2021 12:00:00 AM";"07:00 - 07:59";"02301";"Fred. Hendrikplants.";"4.87521585";"52.37852787";"12"
"9/20/2021 12:00:00 AM";"07:00 - 07:59";"02311";"Seineweg";"4.81857317";"52.38632242";"23"
"9/20/2021 12:00:00 AM";"07:00 - 07:59";"02321";"Van Hallstraat";"4.86864429";"52.38538386";"10"
"9/20/2021 12:00:00 AM";"07:00 - 07:59";"02361";"Station Sloterdijk";"4.83931858";"52.38833460";"73"
"9/20/2021 12:00:00 AM";"07:00 - 07:59";"02365";"Station Sloterdijk";"4.83873236";"52.38822404";"25"
"9/20/2021 12:00:00 AM";"07:00 - 07:59";"02366";"Station Sloterdijk";"4.83873347";"52.38813416";"21"
"9/20/2021 12:00:00 AM";"07:00 - 07:59";"02367";"Station Sloterdijk";"4.83876429";"52.38801747";"24"
"9/20/2021 12:00:00 AM";"07:00 - 07:59";"02368";"Station Sloterdijk";"4.83877999";"52.38793665";"22"
"9/20/2021 12:00:00 AM";"07:00 - 07:59";"02370";"Station Sloterdijk";"4.83879745";"52.38771204";"17"
"9/20/2021 12:00:00 AM";"07:00 - 07:59";"02378";"Station Sloterdijk";"4.83809796";"52.38844579";"45"
"9/20/2021 12:00:00 AM";"07:00 - 07:59";"03009";"Witte de Withstraat";"4.85851970";"52.36478416";"14"
"9/20/2021 12:00:00 AM";"07:00 - 07:59";"03010";"Witte de Withstraat";"4.85928290";"52.36480554";"11"
"9/20/2021 12:00:00 AM";"07:00 - 07:59";"03028";"Jan van Galenstraat";"4.84921138";"52.37204926";"10"
"9/20/2021 12:00:00 AM";"07:00 - 07:59";"03060";"Bos en Lommerplein";"4.84718407";"52.37815169";"14"
"9/20/2021 12:00:00 AM";"07:00 - 07:59";"03061";"Bos en Lommerplein";"4.84523530";"52.37778328";"24"
"9/20/2021 12:00:00 AM";"07:00 - 07:59";"03076";"Jan Tooropstraat";"4.83810313";"52.37142305";"28"
"9/20/2021 12:00:00 AM";"07:00 - 07:59";"03077";"Jan Tooropstraat";"4.83817288";"52.37171997";"13"
"9/20/2021 12:00:00 AM";"07:00 - 07:59";"03087";"Plein '40 - '45";"4.82063128";"52.38159575";"21"
"9/20/2021 12:00:00 AM";"07:00 - 07:59";"03129";"Plein '40 - '45";"4.82112672";"52.38075328";"27"
"9/20/2021 12:00:00 AM";"07:00 - 07:59";"03135";"Ookmeerweg";"4.80431836";"52.36558127";"12"
"9/20/2021 12:00:00 AM";"07:00 - 07:59";"03145";"J. Cabeliaustraat";"4.80409638";"52.38246819";"18"
"9/20/2021 12:00:00 AM";"07:00 - 07:59";"03150";"Mercatorplein";"4.85011339";"52.37031872";"11"
"9/20/2021 12:00:00 AM";"07:00 - 07:59";"03167";"Bos en Lommerplein";"4.84650668";"52.37709704";"15"
"9/20/2021 12:00:00 AM";"07:00 - 07:59";"03172";"Burg. Rendorpstraat";"4.82691962";"52.37445346";"10"
"9/20/2021 12:00:00 AM";"07:00 - 07:59";"04016";"Hoekenes";"4.79854723";"52.35791310";"12"
"9/20/2021 12:00:00 AM";"07:00 - 07:59";"04024";"Baden Powellweg";"4.78782801";"52.36248802";"11"
"9/20/2021 12:00:00 AM";"07:00 - 07:59";"04050";"Meer en Vaart";"4.80994403";"52.35636940";"15"
"9/20/2021 12:00:00 AM";"07:00 - 07:59";"04061";"Derkinderenstraat";"4.84014895";"52.35794190";"12"
"9/20/2021 12:00:00 AM";"07:00 - 07:59";"04064";"Osdorpplein Oost";"4.80806527";"52.35860717";"11"
"9/20/2021 12:00:00 AM";"07:00 - 07:59";"04088";"Louwesweg";"4.82436420";"52.34669608";"20"
"9/20/2021 12:00:00 AM";"07:00 - 07:59";"04112";"Johan Huizingalaan";"4.82742878";"52.34923618";"37"
"9/20/2021 12:00:00 AM";"07:00 - 07:59";"04195";"Station Lelylaan";"4.83460082";"52.35788018";"62"
"9/20/2021 12:00:00 AM";"07:00 - 07:59";"04196";"Station Lelylaan";"4.83382251";"52.35790351";"79"
"9/20/2021 12:00:00 AM";"07:00 - 07:59";"04274";"Schiphol Airport/Plaza";"4.76104997";"52.30939292";"26"
"9/20/2021 12:00:00 AM";"07:00 - 07:59";"04379";"Knooppunt Schiphol Nrd";"4.79320459";"52.32276196";"45"
"9/20/2021 12:00:00 AM";"07:00 - 07:59";"04402";"Matterhorn";"4.77477998";"52.35372103";"23"
"9/20/2021 12:00:00 AM";"07:00 - 07:59";"04407";"Ecuplein";"4.78817670";"52.34970912";"10"
"9/20/2021 12:00:00 AM";"07:00 - 07:59";"04413";"Louis Davidsstraat";"4.80850916";"52.35383682";"11"
"9/20/2021 12:00:00 AM";"07:00 - 07:59";"05011";"Centraal Station";"4.89921803";"52.37810793";"191"
"9/20/2021 12:00:00 AM";"07:00 - 07:59";"05029";"Centraal Station";"4.90334975";"52.37900567";"161"
"9/20/2021 12:00:00 AM";"07:00 - 07:59";"05031";"Dam";"4.89348394";"52.37341055";"14"
"9/20/2021 12:00:00 AM";"07:00 - 07:59";"05047";"Rembrandtplein";"4.89702882";"52.36623511";"10"
"9/20/2021 12:00:00 AM";"07:00 - 07:59";"05060";"Koningsplein";"4.88894752";"52.36807981";"10"
"9/20/2021 12:00:00 AM";"07:00 - 07:59";"05064";"Koningsplein";"4.88949610";"52.36760577";"16"
"9/20/2021 12:00:00 AM";"07:00 - 07:59";"05065";"Dam";"4.89079364";"52.37367792";"34"
"9/20/2021 12:00:00 AM";"07:00 - 07:59";"05066";"Dam";"4.89027056";"52.37318140";"37"
"9/20/2021 12:00:00 AM";"07:00 - 07:59";"05069";"Nieuwezijds Kolk";"4.89373093";"52.37628765";"18"
"9/20/2021 12:00:00 AM";"07:00 - 07:59";"05073";"Westermarkt";"4.88453426";"52.37400204";"10"
"9/20/2021 12:00:00 AM";"07:00 - 07:59";"05074";"Westermarkt";"4.88354950";"52.37407874";"37"
"9/20/2021 12:00:00 AM";"07:00 - 07:59";"05077";"Marnixstraat";"4.87615428";"52.37228546";"27"
"9/20/2021 12:00:00 AM";"07:00 - 07:59";"05082";"Buiten Brouwersstraat";"4.89129168";"52.38167008";"11"
"9/20/2021 12:00:00 AM";"07:00 - 07:59";"05090";"Westerdoksdijk";"4.89331977";"52.38551629";"11"
"9/20/2021 12:00:00 AM";"07:00 - 07:59";"05097";"Centraal Station";"4.90087651";"52.37954379";"44"
"9/20/2021 12:00:00 AM";"07:00 - 07:59";"05101";"Centraal Station";"4.90105195";"52.37961641";"20"
"9/20/2021 12:00:00 AM";"07:00 - 07:59";"05103";"Centraal Station";"4.90127481";"52.37938365";"60"
"9/20/2021 12:00:00 AM";"07:00 - 07:59";"05104";"Centraal Station";"4.90164343";"52.37925034";"33"
"9/20/2021 12:00:00 AM";"07:00 - 07:59";"05107";"Centraal Station";"4.90195282";"52.37916174";"24"
"9/20/2021 12:00:00 AM";"07:00 - 07:59";"06001";"Surinameplein";"4.85252231";"52.35807034";"22"
"9/20/2021 12:00:00 AM";"07:00 - 07:59";"06002";"Surinameplein";"4.85090753";"52.35807202";"12"
"9/20/2021 12:00:00 AM";"07:00 - 07:59";"06019";"Ten Katestraat";"4.86737423";"52.36591988";"18"
"9/20/2021 12:00:00 AM";"07:00 - 07:59";"06020";"Ten Katestraat";"4.86773990";"52.36603832";"18"
"9/20/2021 12:00:00 AM";"07:00 - 07:59";"06021";"Bilderdijkstraat";"4.87176488";"52.36712545";"14"
"9/20/2021 12:00:00 AM";"07:00 - 07:59";"06023";"Bilderdijkstraat";"4.87254032";"52.36736251";"10"
"9/20/2021 12:00:00 AM";"07:00 - 07:59";"06027";"Elandsgracht";"4.87855189";"52.36808953";"18"
"9/20/2021 12:00:00 AM";"07:00 - 07:59";"06028";"Elandsgracht";"4.87741694";"52.36974738";"17"
"9/20/2021 12:00:00 AM";"07:00 - 07:59";"06029";"Elandsgracht";"4.87684368";"52.36852258";"42"
"9/20/2021 12:00:00 AM";"07:00 - 07:59";"06034";"Bilderdijkstraat";"4.87082347";"52.37105798";"12"
"9/20/2021 12:00:00 AM";"07:00 - 07:59";"06037";"Bilderdijkstraat";"4.86985701";"52.37082906";"25"
"9/20/2021 12:00:00 AM";"07:00 - 07:59";"06045";"1e Con. Huygensstraat";"4.87399228";"52.36242556";"15"
"9/20/2021 12:00:00 AM";"07:00 - 07:59";"06046";"1e Con. Huygensstraat";"4.87487082";"52.36262709";"15"
"9/20/2021 12:00:00 AM";"07:00 - 07:59";"06048";"J.P. Heijestraat";"4.86585368";"52.36037674";"12"
"9/20/2021 12:00:00 AM";"07:00 - 07:59";"06061";"Leidseplein";"4.88339576";"52.36305015";"23"
"9/20/2021 12:00:00 AM";"07:00 - 07:59";"06063";"Leidseplein";"4.88064547";"52.36476406";"22"
"9/20/2021 12:00:00 AM";"07:00 - 07:59";"06082";"Rhijnvis Feithstraat";"4.85967683";"52.35883943";"12"
"9/20/2021 12:00:00 AM";"07:00 - 07:59";"06089";"Leidseplein";"4.88085541";"52.36309324";"43"
"9/20/2021 12:00:00 AM";"07:00 - 07:59";"07000";"Concertgebouw";"4.87980116";"52.35642881";"21"
"9/20/2021 12:00:00 AM";"07:00 - 07:59";"07001";"Concertgebouw";"4.87950215";"52.35690388";"44"
"9/20/2021 12:00:00 AM";"07:00 - 07:59";"07014";"Kastelenstraat";"4.87944660";"52.32583291";"11"
"9/20/2021 12:00:00 AM";"07:00 - 07:59";"07016";"Roelof Hartplein";"4.88286688";"52.35274795";"13"
"9/20/2021 12:00:00 AM";"07:00 - 07:59";"07021";"Kastelenstraat";"4.87955984";"52.32619291";"10"
"9/20/2021 12:00:00 AM";"07:00 - 07:59";"07027";"Corn. Schuytstraat";"4.87051458";"52.35597520";"10"
"9/20/2021 12:00:00 AM";"07:00 - 07:59";"07028";"Corn. Schuytstraat";"4.87088070";"52.35604870";"13"
"9/20/2021 12:00:00 AM";"07:00 - 07:59";"07031";"Valeriusplein";"4.86374943";"52.35333004";"21"
"9/20/2021 12:00:00 AM";"07:00 - 07:59";"07049";"Hoofddorpplein";"4.84958188";"52.35117239";"13"
"9/20/2021 12:00:00 AM";"07:00 - 07:59";"07050";"Haarlemmermeerstation";"4.85744749";"52.34883508";"31"
"9/20/2021 12:00:00 AM";"07:00 - 07:59";"07084";"Gerrit v.d. Veenstraat";"4.87720177";"52.34886793";"20"
"9/20/2021 12:00:00 AM";"07:00 - 07:59";"07116";"Haarlemmermeerstation";"4.85760410";"52.34924023";"12"
"9/20/2021 12:00:00 AM";"07:00 - 07:59";"07193";"Station Zuid";"4.87334616";"52.34088808";"44"
"9/20/2021 12:00:00 AM";"07:00 - 07:59";"07268";"Station Zuid";"4.87428608";"52.34082026";"32"
"9/20/2021 12:00:00 AM";"07:00 - 07:59";"07269";"Station Zuid";"4.87374306";"52.34082689";"45"
"9/20/2021 12:00:00 AM";"07:00 - 07:59";"07270";"Parnassusweg";"4.86874218";"52.33806382";"56"
"9/20/2021 12:00:00 AM";"07:00 - 07:59";"07294";"Station Zuid";"4.87327467";"52.34072599";"13"
"9/20/2021 12:00:00 AM";"07:00 - 07:59";"07303";"VU medisch centrum";"4.86097062";"52.33515342";"47"
"9/20/2021 12:00:00 AM";"07:00 - 07:59";"07325";"Museumplein";"4.88046549";"52.35866960";"14"
"9/20/2021 12:00:00 AM";"07:00 - 07:59";"07326";"Museumplein";"4.88178292";"52.35899880";"13"
"9/20/2021 12:00:00 AM";"07:00 - 07:59";"07418";"Van Boshuizenstraat";"4.86902148";"52.32544617";"10"
"9/20/2021 12:00:00 AM";"07:00 - 07:59";"07419";"Van Boshuizenstraat";"4.86896941";"52.32487971";"43"
"9/20/2021 12:00:00 AM";"07:00 - 07:59";"07423";"Uilenstede";"4.86910951";"52.32167168";"18"
"9/20/2021 12:00:00 AM";"07:00 - 07:59";"07435";"Onderuit";"4.87243689";"52.30793483";"10"
"9/20/2021 12:00:00 AM";"07:00 - 07:59";"07439";"Oranjebaan";"4.87179001";"52.30302465";"14"
"9/20/2021 12:00:00 AM";"07:00 - 07:59";"07445";"Amstelveen Stadshart";"4.86751502";"52.30124433";"11"
"9/20/2021 12:00:00 AM";"07:00 - 07:59";"07449";"A.J. Ernststraat";"4.86879476";"52.33230287";"12"
"9/20/2021 12:00:00 AM";"07:00 - 07:59";"07453";"Ouderkerkerlaan";"4.86721192";"52.29582332";"17"
"9/20/2021 12:00:00 AM";"07:00 - 07:59";"07457";"Sportlaan";"4.86336804";"52.28987436";"20"
"9/20/2021 12:00:00 AM";"07:00 - 07:59";"07473";"Meent";"4.85693861";"52.28084883";"11"
"9/20/2021 12:00:00 AM";"07:00 - 07:59";"07482";"Sacharovlaan";"4.83228912";"52.28211984";"32"
"9/20/2021 12:00:00 AM";"07:00 - 07:59";"08007";"Bob Haarmslaan";"4.96921237";"52.36876786";"14"
"9/20/2021 12:00:00 AM";"07:00 - 07:59";"08038";"Kattenburgerstraat";"4.91921370";"52.37320047";"13"
"9/20/2021 12:00:00 AM";"07:00 - 07:59";"08054";"Weesperplein";"4.90941338";"52.36145933";"28"
"9/20/2021 12:00:00 AM";"07:00 - 07:59";"08057";"Frederiksplein";"4.90024241";"52.35971430";"21"
"9/20/2021 12:00:00 AM";"07:00 - 07:59";"08058";"Veelaan";"4.93961588";"52.36830916";"16"
"9/20/2021 12:00:00 AM";"07:00 - 07:59";"08072";"Vijzelgracht";"4.89159781";"52.35953462";"21"
"9/20/2021 12:00:00 AM";"07:00 - 07:59";"08073";"Vijzelgracht";"4.89227386";"52.35946554";"12"
"9/20/2021 12:00:00 AM";"07:00 - 07:59";"08080";"Spiegelgracht";"4.88691222";"52.36106979";"24"
"9/20/2021 12:00:00 AM";"07:00 - 07:59";"08120";"Insulindeweg";"4.94763926";"52.36469021";"15"
"9/20/2021 12:00:00 AM";"07:00 - 07:59";"08139";"Zuiderzeeweg";"4.96240105";"52.37166461";"21"
"9/20/2021 12:00:00 AM";"07:00 - 07:59";"08237";"Kattenburgerstraat";"4.92126795";"52.37614755";"11"
"9/20/2021 12:00:00 AM";"07:00 - 07:59";"08238";"Rietlandpark";"4.93350159";"52.37322013";"12"
"9/20/2021 12:00:00 AM";"07:00 - 07:59";"08239";"Rietlandpark";"4.93413567";"52.37296191";"30"
"9/20/2021 12:00:00 AM";"07:00 - 07:59";"08241";"Zuiderzeeweg";"4.96185517";"52.37193228";"13"
"9/20/2021 12:00:00 AM";"07:00 - 07:59";"08245";"Steigereiland";"4.98012952";"52.36313467";"18"
"9/20/2021 12:00:00 AM";"07:00 - 07:59";"08247";"Vennepluimstraat";"4.99057242";"52.35769662";"15"
"9/20/2021 12:00:00 AM";"07:00 - 07:59";"08249";"Diemerparklaan";"4.99499716";"52.35532962";"12"
"9/20/2021 12:00:00 AM";"07:00 - 07:59";"08255";"Hoogte Kadijk";"4.92483038";"52.36687722";"13"
"9/20/2021 12:00:00 AM";"07:00 - 07:59";"08259";"1e Leeghwaterstraat";"4.93004964";"52.37047459";"14"
"9/20/2021 12:00:00 AM";"07:00 - 07:59";"08262";"IJburg";"5.00486802";"52.35112872";"34"
"9/20/2021 12:00:00 AM";"07:00 - 07:59";"08300";"P.Oosterhuisstraat";"5.00693059";"52.35193526";"14"
"9/20/2021 12:00:00 AM";"07:00 - 07:59";"09013";"Amstelstation";"4.91790223";"52.34725673";"24"
"9/20/2021 12:00:00 AM";"07:00 - 07:59";"09015";"Amstelstation";"4.91940405";"52.34679531";"15"
"9/20/2021 12:00:00 AM";"07:00 - 07:59";"09023";"Camperstraat";"4.91383551";"52.35840330";"11"
"9/20/2021 12:00:00 AM";"07:00 - 07:59";"09049";"Victorieplein";"4.90570139";"52.34637186";"10"
"9/20/2021 12:00:00 AM";"07:00 - 07:59";"09097";"Van Woustraat";"4.90084070";"52.35468363";"11"
"9/20/2021 12:00:00 AM";"07:00 - 07:59";"09111";"De Pijp";"4.89073444";"52.35272728";"16"
"9/20/2021 12:00:00 AM";"07:00 - 07:59";"09120";"Cornelis Troostplein";"4.89161100";"52.35046604";"12"
"9/20/2021 12:00:00 AM";"07:00 - 07:59";"09176";"James Wattstraat";"4.92329155";"52.35116068";"15"
"9/20/2021 12:00:00 AM";"07:00 - 07:59";"ASA";"Amstelstation";"4.91751426";"52.34647326";"286"
"9/20/2021 12:00:00 AM";"07:00 - 07:59";"ASW";"Amstelveenseweg";"4.85798324";"52.33836671";"343"
"9/20/2021 12:00:00 AM";"07:00 - 07:59";"BLW";"Bullewijk";"4.95233581";"52.30642205";"80"
"9/20/2021 12:00:00 AM";"07:00 - 07:59";"BMR";"Station Bijlmer ArenA";"4.94713474";"52.31193030";"331"
"9/20/2021 12:00:00 AM";"07:00 - 07:59";"CLL";"Station Lelylaan";"4.83426589";"52.35766291";"115"
"9/20/2021 12:00:00 AM";"07:00 - 07:59";"CS";"Centraal Station";"4.90078150";"52.37749421";"751"
"9/20/2021 12:00:00 AM";"07:00 - 07:59";"DMZ";"Station Diemen-Zuid";"4.95713273";"52.33042795";"35"
"9/20/2021 12:00:00 AM";"07:00 - 07:59";"DPP";"De Pijp";"4.89101069";"52.35296212";"128"
"9/20/2021 12:00:00 AM";"07:00 - 07:59";"DVD";"Station Duivendrecht";"4.93678429";"52.32325190";"114"
"9/20/2021 12:00:00 AM";"07:00 - 07:59";"EPP";"Europaplein";"4.89138430";"52.34185482";"155"
"9/20/2021 12:00:00 AM";"07:00 - 07:59";"GN";"Gein";"4.98952268";"52.29627089";"49"
"9/20/2021 12:00:00 AM";"07:00 - 07:59";"GPP";"Gaasperplas";"4.98468551";"52.31080575";"10"
"9/20/2021 12:00:00 AM";"07:00 - 07:59";"GZH";"Station Ganzenhoef";"4.97323379";"52.32331315";"34"
"9/20/2021 12:00:00 AM";"07:00 - 07:59";"HDS";"Heemstedestraat";"4.83421208";"52.35255760";"75"
"9/20/2021 12:00:00 AM";"07:00 - 07:59";"HLD";"Station Holendrecht";"4.96021904";"52.29780451";"349"
"9/20/2021 12:00:00 AM";"07:00 - 07:59";"HVW";"Henk Sneevlietweg";"4.83439318";"52.34626699";"174"
"9/20/2021 12:00:00 AM";"07:00 - 07:59";"ITW";"Isolatorweg";"4.85013475";"52.39523277";"68"
"9/20/2021 12:00:00 AM";"07:00 - 07:59";"JLS";"Jan v.Galenstraat";"4.83492461";"52.37196551";"194"
"9/20/2021 12:00:00 AM";"07:00 - 07:59";"KEN";"Kraaienneststation";"4.97963450";"52.31632492";"26"
"9/20/2021 12:00:00 AM";"07:00 - 07:59";"MDW";"Van der Madeweg";"4.93048657";"52.32945629";"74"
"9/20/2021 12:00:00 AM";"07:00 - 07:59";"ND";"Noord";"4.93123182";"52.40117202";"136"
"9/20/2021 12:00:00 AM";"07:00 - 07:59";"NDP";"Noorderpark";"4.91789115";"52.38855518";"96"
"9/20/2021 12:00:00 AM";"07:00 - 07:59";"NMT";"Nieuwmarkt";"4.90123885";"52.37194169";"81"
"9/20/2021 12:00:00 AM";"07:00 - 07:59";"OAS";"Overamstel";"4.91815361";"52.33179879";"69"
"9/20/2021 12:00:00 AM";"07:00 - 07:59";"PJW";"Postjesweg";"4.83385543";"52.36468044";"46"
"9/20/2021 12:00:00 AM";"07:00 - 07:59";"RAI";"Station RAI";"4.88982004";"52.33739931";"137"
"9/20/2021 12:00:00 AM";"07:00 - 07:59";"RGB";"Reigersbos";"4.97473728";"52.29566301";"51"
"9/20/2021 12:00:00 AM";"07:00 - 07:59";"RKN";"Rokin";"4.89229651";"52.36928023";"177"
"9/20/2021 12:00:00 AM";"07:00 - 07:59";"SLW";"Spaklerweg";"4.92085640";"52.33986250";"78"
"9/20/2021 12:00:00 AM";"07:00 - 07:59";"STD";"Station Sloterdijk";"4.83878389";"52.38880848";"262"
"9/20/2021 12:00:00 AM";"07:00 - 07:59";"SVT";"Strandvliet";"4.94152820";"52.31825469";"49"
"9/20/2021 12:00:00 AM";"07:00 - 07:59";"VLN";"Burg.de Vlugtlaan";"4.83809109";"52.37951196";"38"
"9/20/2021 12:00:00 AM";"07:00 - 07:59";"VPD";"Venserpolder";"4.94665009";"52.32679428";"26"
"9/20/2021 12:00:00 AM";"07:00 - 07:59";"VSW";"Verrijn Stuartweg";"4.96693669";"52.32844093";"43"
"9/20/2021 12:00:00 AM";"07:00 - 07:59";"VZG";"Vijzelgracht";"4.89072870";"52.35980061";"99"
"9/20/2021 12:00:00 AM";"07:00 - 07:59";"WBS";"Wibautstraat";"4.91202993";"52.35428867";"206"
"9/20/2021 12:00:00 AM";"07:00 - 07:59";"WLP";"Waterlooplein";"4.90298171";"52.36697862";"158"
"9/20/2021 12:00:00 AM";"07:00 - 07:59";"WPP";"Weesperplein";"4.90787469";"52.36120146";"262"
"9/20/2021 12:00:00 AM";"07:00 - 07:59";"WTC";"Station Zuid";"4.87509853";"52.33908015";"782"
"9/20/2021 12:00:00 AM";"08:00 - 08:59";"";"Overig";"";"";"2179"
"9/20/2021 12:00:00 AM";"08:00 - 08:59";"[[ Onb";"[[ Onbekend ]]";"0.00000000";"0.00000000";"737"
"9/20/2021 12:00:00 AM";"08:00 - 08:59";"00005";"Muiderpoortstation";"4.93280219";"52.36121887";"82"
"9/20/2021 12:00:00 AM";"08:00 - 08:59";"00006";"Muiderpoortstation";"4.93368466";"52.36106048";"28"
"9/20/2021 12:00:00 AM";"08:00 - 08:59";"00007";"Muiderpoortstation";"4.93356602";"52.36117686";"18"
"9/20/2021 12:00:00 AM";"08:00 - 08:59";"00008";"Dapperstraat";"4.92977913";"52.36110836";"47"
"9/20/2021 12:00:00 AM";"08:00 - 08:59";"00010";"Dapperstraat";"4.92891486";"52.36092527";"18"
"9/20/2021 12:00:00 AM";"08:00 - 08:59";"00017";"Linnaeusstraat";"4.92573745";"52.36013099";"24"
"9/20/2021 12:00:00 AM";"08:00 - 08:59";"00019";"Diemerknoop";"5.00296377";"52.33543002";"15"
"9/20/2021 12:00:00 AM";"08:00 - 08:59";"00020";"Beukenweg";"4.91674979";"52.35906203";"29"
"9/20/2021 12:00:00 AM";"08:00 - 08:59";"00021";"Beukenweg";"4.91721293";"52.35829991";"46"
"9/20/2021 12:00:00 AM";"08:00 - 08:59";"00023";"Beukenplein";"4.91809259";"52.35701816";"39"
"9/20/2021 12:00:00 AM";"08:00 - 08:59";"00029";"Oostpoort";"4.92719316";"52.35707185";"125"
"9/20/2021 12:00:00 AM";"08:00 - 08:59";"00030";"Oostpoort";"4.92694026";"52.35739442";"67"
"9/20/2021 12:00:00 AM";"08:00 - 08:59";"00039";"Hogeweg";"4.93084015";"52.35358075";"16"
"9/20/2021 12:00:00 AM";"08:00 - 08:59";"00053";"Kruislaan";"4.93967974";"52.34742196";"20"
"9/20/2021 12:00:00 AM";"08:00 - 08:59";"00059";"Radioweg";"4.93945830";"52.35337100";"37"
"9/20/2021 12:00:00 AM";"08:00 - 08:59";"00060";"Radioweg";"4.93979325";"52.35363291";"21"
"9/20/2021 12:00:00 AM";"08:00 - 08:59";"00065";"Hugo de Vrieslaan";"4.93487340";"52.35101676";"12"
"9/20/2021 12:00:00 AM";"08:00 - 08:59";"00070";"Kruislaan";"4.93993910";"52.34789929";"24"
"9/20/2021 12:00:00 AM";"08:00 - 08:59";"00114";"Dennenrode";"4.95213839";"52.32209601";"24"
"9/20/2021 12:00:00 AM";"08:00 - 08:59";"00116";"Station Ganzenhoef";"4.97272915";"52.32237665";"20"
"9/20/2021 12:00:00 AM";"08:00 - 08:59";"00128";"Geerdinkhof";"4.98077720";"52.32287193";"12"
"9/20/2021 12:00:00 AM";"08:00 - 08:59";"00134";"Koornhorst";"4.98400929";"52.31907218";"28"
"9/20/2021 12:00:00 AM";"08:00 - 08:59";"00135";"Koornhorst";"4.98396309";"52.31931470";"10"
"9/20/2021 12:00:00 AM";"08:00 - 08:59";"00141";"Kraaienneststation";"4.97868390";"52.31603403";"22"
"9/20/2021 12:00:00 AM";"08:00 - 08:59";"00144";"Kikkenstein";"4.97237050";"52.31680298";"11"
"9/20/2021 12:00:00 AM";"08:00 - 08:59";"00150";"Tulastraat";"4.96535973";"52.31994189";"113"
"9/20/2021 12:00:00 AM";"08:00 - 08:59";"00151";"Tulastraat";"4.96584458";"52.31985374";"71"
"9/20/2021 12:00:00 AM";"08:00 - 08:59";"00152";"Florijn";"4.95859163";"52.31758973";"29"
"9/20/2021 12:00:00 AM";"08:00 - 08:59";"00157";"Dolingadreef";"4.94847023";"52.31925132";"20"
"9/20/2021 12:00:00 AM";"08:00 - 08:59";"00158";"Dolingadreef";"4.94901581";"52.31895674";"33"
"9/20/2021 12:00:00 AM";"08:00 - 08:59";"00167";"Hogevecht";"4.95956435";"52.30947729";"19"
"9/20/2021 12:00:00 AM";"08:00 - 08:59";"00172";"Holendrechtplein";"4.96402882";"52.29952588";"11"
"9/20/2021 12:00:00 AM";"08:00 - 08:59";"00178";"Nelson Mandelapark";"4.96403676";"52.31101231";"25"
"9/20/2021 12:00:00 AM";"08:00 - 08:59";"00179";"Kelbergen";"4.97179997";"52.31351146";"27"
"9/20/2021 12:00:00 AM";"08:00 - 08:59";"00197";"Annie Romeinplein";"4.97162041";"52.32173463";"17"
"9/20/2021 12:00:00 AM";"08:00 - 08:59";"00199";"Station Ganzenhoef";"4.97329456";"52.32308866";"12"
"9/20/2021 12:00:00 AM";"08:00 - 08:59";"00205";"Station Holendrecht";"4.95865657";"52.29716971";"23"
"9/20/2021 12:00:00 AM";"08:00 - 08:59";"00238";"Anton de Komplein";"4.95413359";"52.31603659";"51"
"9/20/2021 12:00:00 AM";"08:00 - 08:59";"00239";"Anton de Komplein";"4.95597669";"52.31652866";"33"
"9/20/2021 12:00:00 AM";"08:00 - 08:59";"00250";"Station Diemen Zuid";"4.95668889";"52.33081280";"12"
"9/20/2021 12:00:00 AM";"08:00 - 08:59";"00306";"Leusdenhof";"4.97837367";"52.30990330";"12"
"9/20/2021 12:00:00 AM";"08:00 - 08:59";"00330";"Middenweg";"4.93455629";"52.35044932";"10"
"9/20/2021 12:00:00 AM";"08:00 - 08:59";"00331";"Station Reigersbos";"4.97350466";"52.29737537";"27"
"9/20/2021 12:00:00 AM";"08:00 - 08:59";"00341";"Woudrichemstraat";"4.98882309";"52.29418337";"18"
"9/20/2021 12:00:00 AM";"08:00 - 08:59";"00351";"Dostojevskisingel";"4.94525272";"52.32275356";"52"
"9/20/2021 12:00:00 AM";"08:00 - 08:59";"00432";"Diemerbrug";"4.96142958";"52.33824484";"15"
"9/20/2021 12:00:00 AM";"08:00 - 08:59";"00441";"Muiderpoortstation";"4.93254137";"52.36088532";"26"
"9/20/2021 12:00:00 AM";"08:00 - 08:59";"00444";"Linnaeusstraat";"4.92490296";"52.35991203";"73"
"9/20/2021 12:00:00 AM";"08:00 - 08:59";"00453";"Diemen Sniep";"4.96964866";"52.33644962";"17"
"9/20/2021 12:00:00 AM";"08:00 - 08:59";"00491";"Science Park Aer";"4.95218495";"52.35478458";"77"
"9/20/2021 12:00:00 AM";"08:00 - 08:59";"00494";"Science Park Aqua";"4.95416922";"52.35601419";"11"
"9/20/2021 12:00:00 AM";"08:00 - 08:59";"00506";"Science Park Terra";"4.95831008";"52.35434856";"15"
"9/20/2021 12:00:00 AM";"08:00 - 08:59";"00507";"Science Park Terra";"4.95772497";"52.35413972";"11"
"9/20/2021 12:00:00 AM";"08:00 - 08:59";"00511";"Station Duivendrecht";"4.93682938";"52.32314422";"13"
"9/20/2021 12:00:00 AM";"08:00 - 08:59";"00515";"Station Duivendrecht";"4.93669692";"52.32318866";"22"
"9/20/2021 12:00:00 AM";"08:00 - 08:59";"00518";"Foppingadreef";"4.94967889";"52.31268573";"31"
"9/20/2021 12:00:00 AM";"08:00 - 08:59";"00529";"Station Science Park";"4.94782063";"52.35230583";"15"
"9/20/2021 12:00:00 AM";"08:00 - 08:59";"00537";"Linnaeusparkweg";"4.94275809";"52.34924908";"15"
"9/20/2021 12:00:00 AM";"08:00 - 08:59";"00538";"Station Science Park";"4.94808393";"52.35239669";"49"
"9/20/2021 12:00:00 AM";"08:00 - 08:59";"00554";"Science Park";"4.95088162";"52.35447420";"13"
"9/20/2021 12:00:00 AM";"08:00 - 08:59";"00560";"Station Bijlmer ArenA";"4.94747867";"52.31125750";"59"
"9/20/2021 12:00:00 AM";"08:00 - 08:59";"00561";"Station Bijlmer ArenA";"4.94741931";"52.31132918";"77"
"9/20/2021 12:00:00 AM";"08:00 - 08:59";"00562";"Station Bijlmer ArenA";"4.94736012";"52.31138289";"64"
"9/20/2021 12:00:00 AM";"08:00 - 08:59";"00568";"Station Bijlmer ArenA";"4.94762664";"52.31112323";"18"
"9/20/2021 12:00:00 AM";"08:00 - 08:59";"00603";"V. Houten Ind.park";"5.03580865";"52.30648376";"27"
"9/20/2021 12:00:00 AM";"08:00 - 08:59";"00651";"Casparuslaan";"5.03531862";"52.30911571";"14"
"9/20/2021 12:00:00 AM";"08:00 - 08:59";"00665";"Station Weesp";"5.04383463";"52.31145059";"16"
"9/20/2021 12:00:00 AM";"08:00 - 08:59";"00999";"Vinkenbrug";"4.97831599";"52.33370267";"11"
"9/20/2021 12:00:00 AM";"08:00 - 08:59";"01076";"Waterlandplein";"4.95247364";"52.39274059";"15"
"9/20/2021 12:00:00 AM";"08:00 - 08:59";"01077";"Dijkmanshuizenstraat";"4.95440778";"52.39627083";"13"
"9/20/2021 12:00:00 AM";"08:00 - 08:59";"01091";"Beemsterstraat";"4.95105959";"52.39759770";"13"
"9/20/2021 12:00:00 AM";"08:00 - 08:59";"01109";"J. Drijverweg";"4.94420701";"52.39964842";"16"
"9/20/2021 12:00:00 AM";"08:00 - 08:59";"01110";"Rode Kruisstraat";"4.92847908";"52.39455548";"50"
"9/20/2021 12:00:00 AM";"08:00 - 08:59";"01111";"Rode Kruisstraat";"4.92881363";"52.39488033";"112"
"9/20/2021 12:00:00 AM";"08:00 - 08:59";"01116";"Merelstraat";"4.92492850";"52.38986809";"37"
"9/20/2021 12:00:00 AM";"08:00 - 08:59";"01117";"Merelstraat";"4.92505977";"52.38995848";"50"
"9/20/2021 12:00:00 AM";"08:00 - 08:59";"01141";"Mosplein";"4.91273108";"52.39304643";"12"
"9/20/2021 12:00:00 AM";"08:00 - 08:59";"01155";"Mosplein";"4.91358361";"52.39300490";"14"
"9/20/2021 12:00:00 AM";"08:00 - 08:59";"01189";"Pinksterbloemstraat";"4.91221693";"52.39852684";"15"
"9/20/2021 12:00:00 AM";"08:00 - 08:59";"01191";"Pinksterbloemstraat";"4.91203754";"52.39881372";"23"
"9/20/2021 12:00:00 AM";"08:00 - 08:59";"01212";"Oostzanerdijk";"4.88149588";"52.42023965";"60"
"9/20/2021 12:00:00 AM";"08:00 - 08:59";"01237";"Beemsterstraat";"4.95210741";"52.39712521";"56"
"9/20/2021 12:00:00 AM";"08:00 - 08:59";"01278";"Statenjachtstraat";"4.91380643";"52.40790731";"10"
"9/20/2021 12:00:00 AM";"08:00 - 08:59";"01305";"Station Noord";"4.93215715";"52.40264056";"29"
"9/20/2021 12:00:00 AM";"08:00 - 08:59";"01316";"Station Noord";"4.93336820";"52.40204304";"32"
"9/20/2021 12:00:00 AM";"08:00 - 08:59";"01352";"Oosterlengte";"4.92206974";"52.40611555";"19"
"9/20/2021 12:00:00 AM";"08:00 - 08:59";"01363";"Buikslotermeerplein";"4.93968364";"52.39943369";"16"
"9/20/2021 12:00:00 AM";"08:00 - 08:59";"01364";"Buikslotermeerplein";"4.93887054";"52.39992493";"19"
"9/20/2021 12:00:00 AM";"08:00 - 08:59";"01365";"Atat?rk";"4.89794256";"52.40319625";"13"
"9/20/2021 12:00:00 AM";"08:00 - 08:59";"01366";"Atat?rk";"4.89776534";"52.40327640";"10"
"9/20/2021 12:00:00 AM";"08:00 - 08:59";"01369";"Pomonastraat";"4.89546974";"52.40886620";"15"
"9/20/2021 12:00:00 AM";"08:00 - 08:59";"01402";"Floraweg";"4.90614362";"52.39899665";"30"
"9/20/2021 12:00:00 AM";"08:00 - 08:59";"01414";"Olof Palmeplein";"4.94012168";"52.39679298";"19"
"9/20/2021 12:00:00 AM";"08:00 - 08:59";"01422";"Noorderpark";"4.91956087";"52.38902016";"26"
"9/20/2021 12:00:00 AM";"08:00 - 08:59";"01423";"Noorderpark";"4.91921998";"52.38930641";"17"
"9/20/2021 12:00:00 AM";"08:00 - 08:59";"01443";"Volendammerweg";"4.95697086";"52.39255928";"16"
"9/20/2021 12:00:00 AM";"08:00 - 08:59";"02018";"Koivistokade";"4.87577082";"52.39789874";"20"
"9/20/2021 12:00:00 AM";"08:00 - 08:59";"02019";"Koivistokade";"4.87537403";"52.39790601";"94"
"9/20/2021 12:00:00 AM";"08:00 - 08:59";"02064";"Kabelweg";"4.84827817";"52.39205168";"28"
"9/20/2021 12:00:00 AM";"08:00 - 08:59";"02066";"La Guardiaweg";"4.84008244";"52.39190625";"19"
"9/20/2021 12:00:00 AM";"08:00 - 08:59";"02094";"Zaanstraat";"4.87012818";"52.39291304";"11"
"9/20/2021 12:00:00 AM";"08:00 - 08:59";"02099";"Zaanstraat";"4.86990824";"52.39287613";"21"
"9/20/2021 12:00:00 AM";"08:00 - 08:59";"02103";"Spaarndammerstraat";"4.87765867";"52.39216375";"39"
"9/20/2021 12:00:00 AM";"08:00 - 08:59";"02106";"Assendelftstraat";"4.87943840";"52.38941217";"10"
"9/20/2021 12:00:00 AM";"08:00 - 08:59";"02113";"Haarlemmerplein";"4.88371739";"52.38516129";"16"
"9/20/2021 12:00:00 AM";"08:00 - 08:59";"02114";"Haarlemmerplein";"4.88341252";"52.38484542";"43"
"9/20/2021 12:00:00 AM";"08:00 - 08:59";"02130";"Hugo de Grootplein";"4.87259092";"52.37439113";"18"
"9/20/2021 12:00:00 AM";"08:00 - 08:59";"02132";"Fred. Hendrikplants.";"4.87543499";"52.37862768";"38"
"9/20/2021 12:00:00 AM";"08:00 - 08:59";"02133";"Fred. Hendrikplants.";"4.87521709";"52.37842002";"10"
"9/20/2021 12:00:00 AM";"08:00 - 08:59";"02142";"V.d. Hoopstraat";"4.87031312";"52.38335094";"11"
"9/20/2021 12:00:00 AM";"08:00 - 08:59";"02145";"Van Hallstraat";"4.86990682";"52.38418503";"17"
"9/20/2021 12:00:00 AM";"08:00 - 08:59";"02149";"Van L.Stirumstraat";"4.87489798";"52.38443141";"10"
"9/20/2021 12:00:00 AM";"08:00 - 08:59";"02151";"De Wittenkade";"4.87695310";"52.38326290";"11"
"9/20/2021 12:00:00 AM";"08:00 - 08:59";"02155";"Willem de Zwijgerlaan";"4.86360306";"52.37071170";"17"
"9/20/2021 12:00:00 AM";"08:00 - 08:59";"02156";"Willem de Zwijgerlaan";"4.86425293";"52.37039101";"21"
"9/20/2021 12:00:00 AM";"08:00 - 08:59";"02157";"Adm. de Ruijterweg";"4.86009910";"52.37148707";"27"
"9/20/2021 12:00:00 AM";"08:00 - 08:59";"02158";"Adm. de Ruijterweg";"4.86096776";"52.37129320";"27"
"9/20/2021 12:00:00 AM";"08:00 - 08:59";"02160";"Haparandaweg";"4.87389760";"52.39471799";"53"
"9/20/2021 12:00:00 AM";"08:00 - 08:59";"02170";"Spaarndammerstraat";"4.87723089";"52.39231470";"27"
"9/20/2021 12:00:00 AM";"08:00 - 08:59";"02182";"Markthallen";"4.86695146";"52.37567869";"27"
"9/20/2021 12:00:00 AM";"08:00 - 08:59";"02183";"Markthallen";"4.86667150";"52.37575835";"26"
"9/20/2021 12:00:00 AM";"08:00 - 08:59";"02191";"Adm. de Ruijterweg";"4.86341616";"52.37161863";"11"
"9/20/2021 12:00:00 AM";"08:00 - 08:59";"02193";"Marnixplein";"4.87844490";"52.37741832";"20"
"9/20/2021 12:00:00 AM";"08:00 - 08:59";"02201";"Abberdaan";"4.78087947";"52.39180671";"11"
"9/20/2021 12:00:00 AM";"08:00 - 08:59";"02222";"Jan van Galenstraat";"4.85874763";"52.37399761";"17"
"9/20/2021 12:00:00 AM";"08:00 - 08:59";"02252";"Zekeringstraat";"4.84719064";"52.39690907";"17"
"9/20/2021 12:00:00 AM";"08:00 - 08:59";"02259";"Contactweg";"4.85657970";"52.39195435";"150"
"9/20/2021 12:00:00 AM";"08:00 - 08:59";"02260";"Contactweg";"4.85432952";"52.39215995";"77"
"9/20/2021 12:00:00 AM";"08:00 - 08:59";"02283";"Dynamostraat";"4.84825619";"52.39869349";"10"
"9/20/2021 12:00:00 AM";"08:00 - 08:59";"02284";"Dynamostraat";"4.84797845";"52.39857539";"10"
"9/20/2021 12:00:00 AM";"08:00 - 08:59";"02301";"Fred. Hendrikplants.";"4.87521585";"52.37852787";"37"
"9/20/2021 12:00:00 AM";"08:00 - 08:59";"02302";"Fred. Hendrikplants.";"4.87549415";"52.37859198";"32"
"9/20/2021 12:00:00 AM";"08:00 - 08:59";"02309";"Plesostraat";"4.82645527";"52.38795084";"19"
"9/20/2021 12:00:00 AM";"08:00 - 08:59";"02310";"Plesostraat";"4.82849791";"52.38788859";"15"
"9/20/2021 12:00:00 AM";"08:00 - 08:59";"02311";"Seineweg";"4.81857317";"52.38632242";"10"
"9/20/2021 12:00:00 AM";"08:00 - 08:59";"02319";"Solebaystraat";"4.85540788";"52.38431853";"11"
"9/20/2021 12:00:00 AM";"08:00 - 08:59";"02320";"Van Hallstraat";"4.86782303";"52.38527240";"19"
"9/20/2021 12:00:00 AM";"08:00 - 08:59";"02321";"Van Hallstraat";"4.86864429";"52.38538386";"28"
"9/20/2021 12:00:00 AM";"08:00 - 08:59";"02360";"Station Sloterdijk";"4.83827278";"52.38856344";"13"
"9/20/2021 12:00:00 AM";"08:00 - 08:59";"02361";"Station Sloterdijk";"4.83931858";"52.38833460";"109"
"9/20/2021 12:00:00 AM";"08:00 - 08:59";"02365";"Station Sloterdijk";"4.83873236";"52.38822404";"25"
"9/20/2021 12:00:00 AM";"08:00 - 08:59";"02366";"Station Sloterdijk";"4.83873347";"52.38813416";"39"
"9/20/2021 12:00:00 AM";"08:00 - 08:59";"02367";"Station Sloterdijk";"4.83876429";"52.38801747";"48"
"9/20/2021 12:00:00 AM";"08:00 - 08:59";"02368";"Station Sloterdijk";"4.83877999";"52.38793665";"32"
"9/20/2021 12:00:00 AM";"08:00 - 08:59";"02378";"Station Sloterdijk";"4.83809796";"52.38844579";"79"
"9/20/2021 12:00:00 AM";"08:00 - 08:59";"03009";"Witte de Withstraat";"4.85851970";"52.36478416";"49"
"9/20/2021 12:00:00 AM";"08:00 - 08:59";"03010";"Witte de Withstraat";"4.85928290";"52.36480554";"30"
"9/20/2021 12:00:00 AM";"08:00 - 08:59";"03022";"Mercatorplein";"4.85070310";"52.37012367";"17"
"9/20/2021 12:00:00 AM";"08:00 - 08:59";"03023";"Marco Polostraat";"4.85520189";"52.37088096";"31"
"9/20/2021 12:00:00 AM";"08:00 - 08:59";"03025";"Jan v.Galenstraat";"4.84854861";"52.37342137";"19"
"9/20/2021 12:00:00 AM";"08:00 - 08:59";"03028";"Jan van Galenstraat";"4.84921138";"52.37204926";"19"
"9/20/2021 12:00:00 AM";"08:00 - 08:59";"03034";"Erasmusgracht";"4.84691117";"52.37644278";"19"
"9/20/2021 12:00:00 AM";"08:00 - 08:59";"03038";"Bos en Lommerweg";"4.85369544";"52.38014952";"13"
"9/20/2021 12:00:00 AM";"08:00 - 08:59";"03052";"Burg. Eliasstraat";"4.82565009";"52.38077481";"37"
"9/20/2021 12:00:00 AM";"08:00 - 08:59";"03055";"Burg. Fockstraat";"4.83108040";"52.37991964";"25"
"9/20/2021 12:00:00 AM";"08:00 - 08:59";"03060";"Bos en Lommerplein";"4.84718407";"52.37815169";"25"
"9/20/2021 12:00:00 AM";"08:00 - 08:59";"03061";"Bos en Lommerplein";"4.84523530";"52.37778328";"48"
"9/20/2021 12:00:00 AM";"08:00 - 08:59";"03076";"Jan Tooropstraat";"4.83810313";"52.37142305";"60"
"9/20/2021 12:00:00 AM";"08:00 - 08:59";"03077";"Jan Tooropstraat";"4.83817288";"52.37171997";"25"
"9/20/2021 12:00:00 AM";"08:00 - 08:59";"03087";"Plein '40 - '45";"4.82063128";"52.38159575";"52"
"9/20/2021 12:00:00 AM";"08:00 - 08:59";"03090";"Slotermeerlaan";"4.81728149";"52.37596234";"13"
"9/20/2021 12:00:00 AM";"08:00 - 08:59";"03099";"Dr. H. Colijnstraat";"4.80672448";"52.37693566";"13"
"9/20/2021 12:00:00 AM";"08:00 - 08:59";"03101";"Lambertus Zijlplein";"4.80300456";"52.37726788";"21"
"9/20/2021 12:00:00 AM";"08:00 - 08:59";"03117";"Sam van Houtenstraat";"4.79790430";"52.37868964";"16"
"9/20/2021 12:00:00 AM";"08:00 - 08:59";"03121";"Aalbersestraat";"4.79774249";"52.38202329";"14"
"9/20/2021 12:00:00 AM";"08:00 - 08:59";"03129";"Plein '40 - '45";"4.82112672";"52.38075328";"61"
"9/20/2021 12:00:00 AM";"08:00 - 08:59";"03132";"Burg. R?ellstraat";"4.81950345";"52.37676393";"30"
"9/20/2021 12:00:00 AM";"08:00 - 08:59";"03135";"Ookmeerweg";"4.80431836";"52.36558127";"117"
"9/20/2021 12:00:00 AM";"08:00 - 08:59";"03136";"Ookmeerweg";"4.80419536";"52.36600309";"26"
"9/20/2021 12:00:00 AM";"08:00 - 08:59";"03145";"J. Cabeliaustraat";"4.80409638";"52.38246819";"12"
"9/20/2021 12:00:00 AM";"08:00 - 08:59";"03150";"Mercatorplein";"4.85011339";"52.37031872";"29"
"9/20/2021 12:00:00 AM";"08:00 - 08:59";"03157";"Lambertus Zijlplein";"4.80338637";"52.37726977";"10"
"9/20/2021 12:00:00 AM";"08:00 - 08:59";"03162";"Burg.de Vlugtlaan";"4.83818756";"52.37883833";"12"
"9/20/2021 12:00:00 AM";"08:00 - 08:59";"03167";"Bos en Lommerplein";"4.84650668";"52.37709704";"48"
"9/20/2021 12:00:00 AM";"08:00 - 08:59";"03168";"Mercatorplein";"4.85152392";"52.37024423";"28"
"9/20/2021 12:00:00 AM";"08:00 - 08:59";"03169";"Jan v.Galenstraat";"4.83601291";"52.37301316";"41"
"9/20/2021 12:00:00 AM";"08:00 - 08:59";"03170";"Jan v.Galenstraat";"4.83495277";"52.37324190";"12"
"9/20/2021 12:00:00 AM";"08:00 - 08:59";"03171";"Burg. Rendorpstraat";"4.82768433";"52.37436719";"43"
"9/20/2021 12:00:00 AM";"08:00 - 08:59";"03172";"Burg. Rendorpstraat";"4.82691962";"52.37445346";"35"
"9/20/2021 12:00:00 AM";"08:00 - 08:59";"03174";"Burg. R?ellstraat";"4.81863325";"52.37476448";"17"
"9/20/2021 12:00:00 AM";"08:00 - 08:59";"03178";"Mercatorplein";"4.84991664";"52.37080317";"28"
"9/20/2021 12:00:00 AM";"08:00 - 08:59";"03179";"Adm. Helfrichstraat";"4.84386882";"52.36944538";"25"
"9/20/2021 12:00:00 AM";"08:00 - 08:59";"03180";"Adm. Helfrichstraat";"4.84458860";"52.36942172";"28"
"9/20/2021 12:00:00 AM";"08:00 - 08:59";"03181";"Jan Voermanstraat";"4.83788946";"52.36970540";"39"
"9/20/2021 12:00:00 AM";"08:00 - 08:59";"03182";"Jan Voermanstraat";"4.83852226";"52.36959149";"16"
"9/20/2021 12:00:00 AM";"08:00 - 08:59";"03197";"W. Schoutenstraat";"4.85238084";"52.36737202";"12"
"9/20/2021 12:00:00 AM";"08:00 - 08:59";"03198";"W. Schoutenstraat";"4.85259061";"52.36702245";"13"
"9/20/2021 12:00:00 AM";"08:00 - 08:59";"04009";"Dijkgraafplein";"4.78689401";"52.35556268";"11"
"9/20/2021 12:00:00 AM";"08:00 - 08:59";"04012";"Baden Powellweg";"4.79137362";"52.35646612";"33"
"9/20/2021 12:00:00 AM";"08:00 - 08:59";"04016";"Hoekenes";"4.79854723";"52.35791310";"19"
"9/20/2021 12:00:00 AM";"08:00 - 08:59";"04021";"Osdorpplein West";"4.80322869";"52.35913166";"20"
"9/20/2021 12:00:00 AM";"08:00 - 08:59";"04049";"Meer en Vaart";"4.81058859";"52.35647140";"12"
"9/20/2021 12:00:00 AM";"08:00 - 08:59";"04050";"Meer en Vaart";"4.80994403";"52.35636940";"43"
"9/20/2021 12:00:00 AM";"08:00 - 08:59";"04060";"Derkinderenstraat";"4.83972293";"52.35796689";"35"
"9/20/2021 12:00:00 AM";"08:00 - 08:59";"04061";"Derkinderenstraat";"4.84014895";"52.35794190";"24"
"9/20/2021 12:00:00 AM";"08:00 - 08:59";"04062";"Johan Huizingalaan";"4.82582327";"52.35781191";"16"
"9/20/2021 12:00:00 AM";"08:00 - 08:59";"04063";"Johan Huizingalaan";"4.82626398";"52.35778704";"32"
"9/20/2021 12:00:00 AM";"08:00 - 08:59";"04064";"Osdorpplein Oost";"4.80806527";"52.35860717";"36"
"9/20/2021 12:00:00 AM";"08:00 - 08:59";"04065";"Osdorpplein Oost";"4.80773259";"52.35935153";"25"
"9/20/2021 12:00:00 AM";"08:00 - 08:59";"04088";"Louwesweg";"4.82436420";"52.34669608";"17"
"9/20/2021 12:00:00 AM";"08:00 - 08:59";"04110";"Westlandgracht";"4.84581964";"52.35156868";"18"
"9/20/2021 12:00:00 AM";"08:00 - 08:59";"04112";"Johan Huizingalaan";"4.82742878";"52.34923618";"38"
"9/20/2021 12:00:00 AM";"08:00 - 08:59";"04123";"Station Lelylaan";"4.83455700";"52.35668460";"13"
"9/20/2021 12:00:00 AM";"08:00 - 08:59";"04129";"Derkinderenstraat";"4.83926482";"52.36415734";"17"
"9/20/2021 12:00:00 AM";"08:00 - 08:59";"04132";"Jan Tooropstraat";"4.83537474";"52.36411231";"10"
"9/20/2021 12:00:00 AM";"08:00 - 08:59";"04136";"Justus Lipsiusstraat";"4.82704776";"52.36081963";"12"
"9/20/2021 12:00:00 AM";"08:00 - 08:59";"04140";"Sierplein";"4.82732630";"52.35503282";"18"
"9/20/2021 12:00:00 AM";"08:00 - 08:59";"04148";"Louis Davidsstraat";"4.80952552";"52.35356316";"68"
"9/20/2021 12:00:00 AM";"08:00 - 08:59";"04195";"Station Lelylaan";"4.83460082";"52.35788018";"169"
"9/20/2021 12:00:00 AM";"08:00 - 08:59";"04196";"Station Lelylaan";"4.83382251";"52.35790351";"116"
"9/20/2021 12:00:00 AM";"08:00 - 08:59";"04267";"Schiphol Airport/Plaza";"4.76139455";"52.30887344";"15"
"9/20/2021 12:00:00 AM";"08:00 - 08:59";"04274";"Schiphol Airport/Plaza";"4.76104997";"52.30939292";"40"
"9/20/2021 12:00:00 AM";"08:00 - 08:59";"04277";"Laan v.Vlaanderen";"4.81642720";"52.34648730";"11"
"9/20/2021 12:00:00 AM";"08:00 - 08:59";"04279";"Centrum Nieuw Sloten";"4.81104244";"52.34638930";"19"
"9/20/2021 12:00:00 AM";"08:00 - 08:59";"04308";"Antwerpenbaan";"4.81624222";"52.34603701";"13"
"9/20/2021 12:00:00 AM";"08:00 - 08:59";"04379";"Knooppunt Schiphol Nrd";"4.79320459";"52.32276196";"49"
"9/20/2021 12:00:00 AM";"08:00 - 08:59";"04402";"Matterhorn";"4.77477998";"52.35372103";"36"
"9/20/2021 12:00:00 AM";"08:00 - 08:59";"04403";"Pilatus";"4.77696371";"52.35289644";"13"
"9/20/2021 12:00:00 AM";"08:00 - 08:59";"04407";"Ecuplein";"4.78817670";"52.34970912";"12"
"9/20/2021 12:00:00 AM";"08:00 - 08:59";"04409";"Baden Powellweg";"4.79441281";"52.35092691";"45"
"9/20/2021 12:00:00 AM";"08:00 - 08:59";"04411";"Hoekenes";"4.80183430";"52.35243785";"15"
"9/20/2021 12:00:00 AM";"08:00 - 08:59";"04413";"Louis Davidsstraat";"4.80850916";"52.35383682";"74"
"9/20/2021 12:00:00 AM";"08:00 - 08:59";"04414";"Louis Davidsstraat";"4.80910976";"52.35392963";"12"
"9/20/2021 12:00:00 AM";"08:00 - 08:59";"05011";"Centraal Station";"4.89921803";"52.37810793";"280"
"9/20/2021 12:00:00 AM";"08:00 - 08:59";"05029";"Centraal Station";"4.90334975";"52.37900567";"228"
"9/20/2021 12:00:00 AM";"08:00 - 08:59";"05031";"Dam";"4.89348394";"52.37341055";"12"
"9/20/2021 12:00:00 AM";"08:00 - 08:59";"05035";"Rokin";"4.89210433";"52.36939627";"13"
"9/20/2021 12:00:00 AM";"08:00 - 08:59";"05036";"Rokin";"4.89230478";"52.36985548";"10"
"9/20/2021 12:00:00 AM";"08:00 - 08:59";"05047";"Rembrandtplein";"4.89702882";"52.36623511";"53"
"9/20/2021 12:00:00 AM";"08:00 - 08:59";"05060";"Koningsplein";"4.88894752";"52.36807981";"29"
"9/20/2021 12:00:00 AM";"08:00 - 08:59";"05064";"Koningsplein";"4.88949610";"52.36760577";"76"
"9/20/2021 12:00:00 AM";"08:00 - 08:59";"05065";"Dam";"4.89079364";"52.37367792";"83"
"9/20/2021 12:00:00 AM";"08:00 - 08:59";"05066";"Dam";"4.89027056";"52.37318140";"74"
"9/20/2021 12:00:00 AM";"08:00 - 08:59";"05069";"Nieuwezijds Kolk";"4.89373093";"52.37628765";"58"
"9/20/2021 12:00:00 AM";"08:00 - 08:59";"05070";"Nieuwezijds Kolk";"4.89284106";"52.37575366";"15"
"9/20/2021 12:00:00 AM";"08:00 - 08:59";"05073";"Westermarkt";"4.88453426";"52.37400204";"36"
"9/20/2021 12:00:00 AM";"08:00 - 08:59";"05074";"Westermarkt";"4.88354950";"52.37407874";"115"
"9/20/2021 12:00:00 AM";"08:00 - 08:59";"05077";"Marnixstraat";"4.87615428";"52.37228546";"30"
"9/20/2021 12:00:00 AM";"08:00 - 08:59";"05080";"Buiten Oranjestraat";"4.88782167";"52.38330923";"32"
"9/20/2021 12:00:00 AM";"08:00 - 08:59";"05081";"Buiten Brouwersstraat";"4.89157253";"52.38150947";"12"
"9/20/2021 12:00:00 AM";"08:00 - 08:59";"05082";"Buiten Brouwersstraat";"4.89129168";"52.38167008";"18"
"9/20/2021 12:00:00 AM";"08:00 - 08:59";"05090";"Westerdoksdijk";"4.89331977";"52.38551629";"23"
"9/20/2021 12:00:00 AM";"08:00 - 08:59";"05092";"Barentszplein";"4.89160204";"52.38938281";"25"
"9/20/2021 12:00:00 AM";"08:00 - 08:59";"05097";"Centraal Station";"4.90087651";"52.37954379";"91"
"9/20/2021 12:00:00 AM";"08:00 - 08:59";"05101";"Centraal Station";"4.90105195";"52.37961641";"36"
"9/20/2021 12:00:00 AM";"08:00 - 08:59";"05103";"Centraal Station";"4.90127481";"52.37938365";"24"
"9/20/2021 12:00:00 AM";"08:00 - 08:59";"05104";"Centraal Station";"4.90164343";"52.37925034";"38"
"9/20/2021 12:00:00 AM";"08:00 - 08:59";"05106";"Centraal Station";"4.90229030";"52.37919008";"14"
"9/20/2021 12:00:00 AM";"08:00 - 08:59";"05107";"Centraal Station";"4.90195282";"52.37916174";"30"
"9/20/2021 12:00:00 AM";"08:00 - 08:59";"05154";"Marnixstraat";"4.87536375";"52.37207533";"22"
"9/20/2021 12:00:00 AM";"08:00 - 08:59";"06001";"Surinameplein";"4.85252231";"52.35807034";"40"
"9/20/2021 12:00:00 AM";"08:00 - 08:59";"06002";"Surinameplein";"4.85090753";"52.35807202";"17"
"9/20/2021 12:00:00 AM";"08:00 - 08:59";"06010";"Corantijnstraat";"4.85326125";"52.36131825";"12"
"9/20/2021 12:00:00 AM";"08:00 - 08:59";"06013";"Corantijnstraat";"4.85329945";"52.36180376";"13"
"9/20/2021 12:00:00 AM";"08:00 - 08:59";"06015";"Postjesweg";"4.85316124";"52.36352879";"20"
"9/20/2021 12:00:00 AM";"08:00 - 08:59";"06016";"J.P. Heijestraat";"4.86239635";"52.36472951";"31"
"9/20/2021 12:00:00 AM";"08:00 - 08:59";"06017";"J.P. Heijestraat";"4.86292317";"52.36487565";"17"
"9/20/2021 12:00:00 AM";"08:00 - 08:59";"06019";"Ten Katestraat";"4.86737423";"52.36591988";"35"
"9/20/2021 12:00:00 AM";"08:00 - 08:59";"06020";"Ten Katestraat";"4.86773990";"52.36603832";"44"
"9/20/2021 12:00:00 AM";"08:00 - 08:59";"06021";"Bilderdijkstraat";"4.87176488";"52.36712545";"115"
"9/20/2021 12:00:00 AM";"08:00 - 08:59";"06023";"Bilderdijkstraat";"4.87254032";"52.36736251";"31"
"9/20/2021 12:00:00 AM";"08:00 - 08:59";"06024";"Kinkerstraat";"4.87230885";"52.36706491";"15"
"9/20/2021 12:00:00 AM";"08:00 - 08:59";"06027";"Elandsgracht";"4.87855189";"52.36808953";"43"
"9/20/2021 12:00:00 AM";"08:00 - 08:59";"06028";"Elandsgracht";"4.87741694";"52.36974738";"84"
"9/20/2021 12:00:00 AM";"08:00 - 08:59";"06029";"Elandsgracht";"4.87684368";"52.36852258";"216"
"9/20/2021 12:00:00 AM";"08:00 - 08:59";"06030";"Rozengracht";"4.87590932";"52.37187996";"14"
"9/20/2021 12:00:00 AM";"08:00 - 08:59";"06034";"Bilderdijkstraat";"4.87082347";"52.37105798";"22"
"9/20/2021 12:00:00 AM";"08:00 - 08:59";"06037";"Bilderdijkstraat";"4.86985701";"52.37082906";"46"
"9/20/2021 12:00:00 AM";"08:00 - 08:59";"06038";"De Clercqstraat";"4.87040279";"52.37061574";"10"
"9/20/2021 12:00:00 AM";"08:00 - 08:59";"06043";"Overtoom";"4.87510145";"52.36299659";"25"
"9/20/2021 12:00:00 AM";"08:00 - 08:59";"06044";"Overtoom";"4.87483191";"52.36345380";"12"
"9/20/2021 12:00:00 AM";"08:00 - 08:59";"06045";"1e Con. Huygensstraat";"4.87399228";"52.36242556";"26"
"9/20/2021 12:00:00 AM";"08:00 - 08:59";"06046";"1e Con. Huygensstraat";"4.87487082";"52.36262709";"80"
"9/20/2021 12:00:00 AM";"08:00 - 08:59";"06048";"J.P. Heijestraat";"4.86585368";"52.36037674";"21"
"9/20/2021 12:00:00 AM";"08:00 - 08:59";"06049";"J.P. Heijestraat";"4.86671778";"52.36055131";"22"
"9/20/2021 12:00:00 AM";"08:00 - 08:59";"06059";"Spiegelgracht";"4.88762090";"52.36071327";"27"
"9/20/2021 12:00:00 AM";"08:00 - 08:59";"06061";"Leidseplein";"4.88339576";"52.36305015";"73"
"9/20/2021 12:00:00 AM";"08:00 - 08:59";"06063";"Leidseplein";"4.88064547";"52.36476406";"54"
"9/20/2021 12:00:00 AM";"08:00 - 08:59";"06067";"Leidseplein";"4.88301434";"52.36431580";"17"
"9/20/2021 12:00:00 AM";"08:00 - 08:59";"06072";"Prinsengracht";"4.88428435";"52.36495933";"52"
"9/20/2021 12:00:00 AM";"08:00 - 08:59";"06073";"Keizersgracht";"4.88666521";"52.36604795";"18"
"9/20/2021 12:00:00 AM";"08:00 - 08:59";"06074";"Keizersgracht";"4.88624128";"52.36588437";"42"
"9/20/2021 12:00:00 AM";"08:00 - 08:59";"06081";"Rhijnvis Feithstraat";"4.86039355";"52.35905833";"21"
"9/20/2021 12:00:00 AM";"08:00 - 08:59";"06082";"Rhijnvis Feithstraat";"4.85967683";"52.35883943";"21"
"9/20/2021 12:00:00 AM";"08:00 - 08:59";"06089";"Leidseplein";"4.88085541";"52.36309324";"94"
"9/20/2021 12:00:00 AM";"08:00 - 08:59";"06114";"Hoofdweg";"4.85444451";"52.36425359";"30"
"9/20/2021 12:00:00 AM";"08:00 - 08:59";"06115";"Postjesweg";"4.85319014";"52.36478720";"17"
"9/20/2021 12:00:00 AM";"08:00 - 08:59";"07000";"Concertgebouw";"4.87980116";"52.35642881";"72"
"9/20/2021 12:00:00 AM";"08:00 - 08:59";"07001";"Concertgebouw";"4.87950215";"52.35690388";"156"
"9/20/2021 12:00:00 AM";"08:00 - 08:59";"07002";"Van Baerlestraat";"4.87836936";"52.35839997";"17"
"9/20/2021 12:00:00 AM";"08:00 - 08:59";"07004";"De Boelelaan/VU";"4.86586883";"52.33534587";"31"
"9/20/2021 12:00:00 AM";"08:00 - 08:59";"07015";"Roelof Hartplein";"4.88206971";"52.35314900";"42"
"9/20/2021 12:00:00 AM";"08:00 - 08:59";"07016";"Roelof Hartplein";"4.88286688";"52.35274795";"103"
"9/20/2021 12:00:00 AM";"08:00 - 08:59";"07017";"Roelof Hartplein";"4.88206086";"52.35263666";"28"
"9/20/2021 12:00:00 AM";"08:00 - 08:59";"07021";"Kastelenstraat";"4.87955984";"52.32619291";"12"
"9/20/2021 12:00:00 AM";"08:00 - 08:59";"07027";"Corn. Schuytstraat";"4.87051458";"52.35597520";"30"
"9/20/2021 12:00:00 AM";"08:00 - 08:59";"07028";"Corn. Schuytstraat";"4.87088070";"52.35604870";"24"
"9/20/2021 12:00:00 AM";"08:00 - 08:59";"07031";"Valeriusplein";"4.86374943";"52.35333004";"35"
"9/20/2021 12:00:00 AM";"08:00 - 08:59";"07032";"Valeriusplein";"4.86326678";"52.35318410";"32"
"9/20/2021 12:00:00 AM";"08:00 - 08:59";"07033";"Amstelveenseweg";"4.85695925";"52.35161911";"22"
"9/20/2021 12:00:00 AM";"08:00 - 08:59";"07034";"Amstelveenseweg";"4.85596467";"52.35132704";"18"
"9/20/2021 12:00:00 AM";"08:00 - 08:59";"07035";"Zeilstraat";"4.85672894";"52.35124059";"20"
"9/20/2021 12:00:00 AM";"08:00 - 08:59";"07044";"Haarlemmermeerstraat";"4.85044107";"52.35537358";"12"
"9/20/2021 12:00:00 AM";"08:00 - 08:59";"07045";"Haarlemmermeerstraat";"4.85023862";"52.35512100";"13"
"9/20/2021 12:00:00 AM";"08:00 - 08:59";"07048";"Hoofddorpplein";"4.85010578";"52.35154327";"21"
"9/20/2021 12:00:00 AM";"08:00 - 08:59";"07049";"Hoofddorpplein";"4.84958188";"52.35117239";"36"
"9/20/2021 12:00:00 AM";"08:00 - 08:59";"07050";"Haarlemmermeerstation";"4.85744749";"52.34883508";"32"
"9/20/2021 12:00:00 AM";"08:00 - 08:59";"07083";"Gerrit v.d. Veenstraat";"4.87735929";"52.34921014";"60"
"9/20/2021 12:00:00 AM";"08:00 - 08:59";"07084";"Gerrit v.d. Veenstraat";"4.87720177";"52.34886793";"58"
"9/20/2021 12:00:00 AM";"08:00 - 08:59";"07088";"Stadionweg";"4.87687497";"52.34665553";"19"
"9/20/2021 12:00:00 AM";"08:00 - 08:59";"07097";"Olympiaplein";"4.86582821";"52.34630180";"15"
"9/20/2021 12:00:00 AM";"08:00 - 08:59";"07098";"Olympiaplein";"4.86659057";"52.34636807";"16"
"9/20/2021 12:00:00 AM";"08:00 - 08:59";"07108";"Olympiaweg";"4.85873730";"52.34528169";"10"
"9/20/2021 12:00:00 AM";"08:00 - 08:59";"07116";"Haarlemmermeerstation";"4.85760410";"52.34924023";"51"
"9/20/2021 12:00:00 AM";"08:00 - 08:59";"07120";"Olympiaweg";"4.85834130";"52.34526195";"14"
"9/20/2021 12:00:00 AM";"08:00 - 08:59";"07130";"Pr. Irenestraat";"4.86819699";"52.34202504";"20"
"9/20/2021 12:00:00 AM";"08:00 - 08:59";"07131";"Pr. Irenestraat";"4.86833196";"52.34303226";"21"
"9/20/2021 12:00:00 AM";"08:00 - 08:59";"07133";"De Boelelaan";"4.86754589";"52.33496677";"18"
"9/20/2021 12:00:00 AM";"08:00 - 08:59";"07186";"Pr. Irenestraat";"4.87677483";"52.34260161";"24"
"9/20/2021 12:00:00 AM";"08:00 - 08:59";"07190";"Station Zuid";"4.87352214";"52.34089784";"23"
"9/20/2021 12:00:00 AM";"08:00 - 08:59";"07193";"Station Zuid";"4.87334616";"52.34088808";"59"
"9/20/2021 12:00:00 AM";"08:00 - 08:59";"07202";"Olympisch stadion";"4.85684420";"52.34405088";"24"
"9/20/2021 12:00:00 AM";"08:00 - 08:59";"07260";"Station RAI";"4.89077724";"52.33708876";"14"
"9/20/2021 12:00:00 AM";"08:00 - 08:59";"07268";"Station Zuid";"4.87428608";"52.34082026";"59"
"9/20/2021 12:00:00 AM";"08:00 - 08:59";"07269";"Station Zuid";"4.87374306";"52.34082689";"142"
"9/20/2021 12:00:00 AM";"08:00 - 08:59";"07270";"Parnassusweg";"4.86874218";"52.33806382";"77"
"9/20/2021 12:00:00 AM";"08:00 - 08:59";"07271";"Parnassusweg";"4.86866745";"52.33818033";"30"
"9/20/2021 12:00:00 AM";"08:00 - 08:59";"07294";"Station Zuid";"4.87327467";"52.34072599";"47"
"9/20/2021 12:00:00 AM";"08:00 - 08:59";"07303";"VU medisch centrum";"4.86097062";"52.33515342";"72"
"9/20/2021 12:00:00 AM";"08:00 - 08:59";"07307";"Beethovenstraat";"4.87820649";"52.34700280";"11"
"9/20/2021 12:00:00 AM";"08:00 - 08:59";"07325";"Museumplein";"4.88046549";"52.35866960";"65"
"9/20/2021 12:00:00 AM";"08:00 - 08:59";"07326";"Museumplein";"4.88178292";"52.35899880";"67"
"9/20/2021 12:00:00 AM";"08:00 - 08:59";"07339";"Nieuw Herlaer";"4.88985946";"52.32602094";"10"
"9/20/2021 12:00:00 AM";"08:00 - 08:59";"07350";"VU medisch centrum";"4.86006046";"52.33519431";"12"
"9/20/2021 12:00:00 AM";"08:00 - 08:59";"07390";"Kronenburg";"4.87055248";"52.31615048";"13"
"9/20/2021 12:00:00 AM";"08:00 - 08:59";"07391";"Kronenburg";"4.87070592";"52.31556694";"58"
"9/20/2021 12:00:00 AM";"08:00 - 08:59";"07418";"Van Boshuizenstraat";"4.86902148";"52.32544617";"29"
"9/20/2021 12:00:00 AM";"08:00 - 08:59";"07419";"Van Boshuizenstraat";"4.86896941";"52.32487971";"235"
"9/20/2021 12:00:00 AM";"08:00 - 08:59";"07423";"Uilenstede";"4.86910951";"52.32167168";"31"
"9/20/2021 12:00:00 AM";"08:00 - 08:59";"07435";"Onderuit";"4.87243689";"52.30793483";"15"
"9/20/2021 12:00:00 AM";"08:00 - 08:59";"07438";"Oranjebaan";"4.87217918";"52.30360157";"14"
"9/20/2021 12:00:00 AM";"08:00 - 08:59";"07439";"Oranjebaan";"4.87179001";"52.30302465";"54"
"9/20/2021 12:00:00 AM";"08:00 - 08:59";"07442";"Zonnestein";"4.87236664";"52.31146674";"24"
"9/20/2021 12:00:00 AM";"08:00 - 08:59";"07445";"Amstelveen Stadshart";"4.86751502";"52.30124433";"52"
"9/20/2021 12:00:00 AM";"08:00 - 08:59";"07448";"A.J. Ernststraat";"4.86887597";"52.33288743";"58"
"9/20/2021 12:00:00 AM";"08:00 - 08:59";"07449";"A.J. Ernststraat";"4.86879476";"52.33230287";"39"
"9/20/2021 12:00:00 AM";"08:00 - 08:59";"07453";"Ouderkerkerlaan";"4.86721192";"52.29582332";"31"
"9/20/2021 12:00:00 AM";"08:00 - 08:59";"07457";"Sportlaan";"4.86336804";"52.28987436";"59"
"9/20/2021 12:00:00 AM";"08:00 - 08:59";"07473";"Meent";"4.85693861";"52.28084883";"22"
"9/20/2021 12:00:00 AM";"08:00 - 08:59";"07481";"Poortwachter";"4.84496524";"52.28332911";"19"
"9/20/2021 12:00:00 AM";"08:00 - 08:59";"07482";"Sacharovlaan";"4.83228912";"52.28211984";"16"
"9/20/2021 12:00:00 AM";"08:00 - 08:59";"08007";"Bob Haarmslaan";"4.96921237";"52.36876786";"68"
"9/20/2021 12:00:00 AM";"08:00 - 08:59";"08009";"Bob Haarmslaan";"4.96859205";"52.36915214";"53"
"9/20/2021 12:00:00 AM";"08:00 - 08:59";"08013";"Azartplein";"4.93734445";"52.37656023";"16"
"9/20/2021 12:00:00 AM";"08:00 - 08:59";"08014";"Azartplein";"4.93735640";"52.37682991";"18"
"9/20/2021 12:00:00 AM";"08:00 - 08:59";"08016";"Wittenburgergracht";"4.91969400";"52.36942754";"21"
"9/20/2021 12:00:00 AM";"08:00 - 08:59";"08038";"Kattenburgerstraat";"4.91921370";"52.37320047";"25"
"9/20/2021 12:00:00 AM";"08:00 - 08:59";"08049";"Alexanderplein";"4.91916567";"52.36383510";"11"
"9/20/2021 12:00:00 AM";"08:00 - 08:59";"08050";"Alexanderplein";"4.91867098";"52.36341072";"10"
"9/20/2021 12:00:00 AM";"08:00 - 08:59";"08051";"K. 's-Gravesandestr.";"4.91366120";"52.36235720";"57"
"9/20/2021 12:00:00 AM";"08:00 - 08:59";"08052";"K. 's-Gravesandestr.";"4.91550720";"52.36271509";"20"
"9/20/2021 12:00:00 AM";"08:00 - 08:59";"08053";"Weesperplein";"4.90655690";"52.36088154";"53"
"9/20/2021 12:00:00 AM";"08:00 - 08:59";"08054";"Weesperplein";"4.90941338";"52.36145933";"222"
"9/20/2021 12:00:00 AM";"08:00 - 08:59";"08057";"Frederiksplein";"4.90024241";"52.35971430";"77"
"9/20/2021 12:00:00 AM";"08:00 - 08:59";"08058";"Veelaan";"4.93961588";"52.36830916";"24"
"9/20/2021 12:00:00 AM";"08:00 - 08:59";"08059";"Veelaan";"4.93944523";"52.36776026";"26"
"9/20/2021 12:00:00 AM";"08:00 - 08:59";"08060";"Keizersgracht";"4.89833435";"52.36367901";"18"
"9/20/2021 12:00:00 AM";"08:00 - 08:59";"08062";"Prinsengracht";"4.89899899";"52.36198307";"12"
"9/20/2021 12:00:00 AM";"08:00 - 08:59";"08066";"Frederiksplein";"4.89751569";"52.35937050";"24"
"9/20/2021 12:00:00 AM";"08:00 - 08:59";"08072";"Vijzelgracht";"4.89159781";"52.35953462";"36"
"9/20/2021 12:00:00 AM";"08:00 - 08:59";"08073";"Vijzelgracht";"4.89227386";"52.35946554";"40"
"9/20/2021 12:00:00 AM";"08:00 - 08:59";"08080";"Spiegelgracht";"4.88691222";"52.36106979";"64"
"9/20/2021 12:00:00 AM";"08:00 - 08:59";"08094";"Wijttenbachstraat";"4.92547668";"52.35979743";"12"
"9/20/2021 12:00:00 AM";"08:00 - 08:59";"08095";"Alexanderplein";"4.91969863";"52.36341478";"12"
"9/20/2021 12:00:00 AM";"08:00 - 08:59";"08096";"Alexanderplein";"4.91931589";"52.36351213";"12"
"9/20/2021 12:00:00 AM";"08:00 - 08:59";"08097";"1e v.Swindenstraat";"4.92412105";"52.36168854";"13"
"9/20/2021 12:00:00 AM";"08:00 - 08:59";"08113";"Javaplein";"4.93949828";"52.36395867";"13"
"9/20/2021 12:00:00 AM";"08:00 - 08:59";"08114";"Javaplein";"4.93955537";"52.36412066";"13"
"9/20/2021 12:00:00 AM";"08:00 - 08:59";"08119";"Insulindeweg";"4.94765323";"52.36476217";"10"
"9/20/2021 12:00:00 AM";"08:00 - 08:59";"08120";"Insulindeweg";"4.94763926";"52.36469021";"32"
"9/20/2021 12:00:00 AM";"08:00 - 08:59";"08121";"Soembawastraat";"4.94391980";"52.36224967";"38"
"9/20/2021 12:00:00 AM";"08:00 - 08:59";"08124";"Soembawastraat";"4.94346569";"52.36214910";"35"
"9/20/2021 12:00:00 AM";"08:00 - 08:59";"08129";"Molukkenstraat";"4.93861286";"52.36150167";"34"
"9/20/2021 12:00:00 AM";"08:00 - 08:59";"08132";"Valentijnkade";"4.94079607";"52.35900236";"16"
"9/20/2021 12:00:00 AM";"08:00 - 08:59";"08138";"Zuiderzeeweg";"4.96218432";"52.37129534";"31"
"9/20/2021 12:00:00 AM";"08:00 - 08:59";"08139";"Zuiderzeeweg";"4.96240105";"52.37166461";"26"
"9/20/2021 12:00:00 AM";"08:00 - 08:59";"08179";"K. 's-Gravesandestr.";"4.91480799";"52.36220000";"50"
"9/20/2021 12:00:00 AM";"08:00 - 08:59";"08190";"Molukkenstraat";"4.93934614";"52.36157635";"16"
"9/20/2021 12:00:00 AM";"08:00 - 08:59";"08195";"Oostenburgergracht";"4.92452709";"52.36780177";"27"
"9/20/2021 12:00:00 AM";"08:00 - 08:59";"08219";"Borneolaan";"4.93862058";"52.37090283";"10"
"9/20/2021 12:00:00 AM";"08:00 - 08:59";"08233";"C. van Eesterenlaan";"4.93812487";"52.37345346";"12"
"9/20/2021 12:00:00 AM";"08:00 - 08:59";"08235";"Muziekgeb. Bimhuis";"4.91290020";"52.37723779";"18"
"9/20/2021 12:00:00 AM";"08:00 - 08:59";"08236";"Kattenburgerstraat";"4.92203232";"52.37607865";"10"
"9/20/2021 12:00:00 AM";"08:00 - 08:59";"08237";"Kattenburgerstraat";"4.92126795";"52.37614755";"47"
"9/20/2021 12:00:00 AM";"08:00 - 08:59";"08238";"Rietlandpark";"4.93350159";"52.37322013";"46"
"9/20/2021 12:00:00 AM";"08:00 - 08:59";"08239";"Rietlandpark";"4.93413567";"52.37296191";"93"
"9/20/2021 12:00:00 AM";"08:00 - 08:59";"08241";"Zuiderzeeweg";"4.96185517";"52.37193228";"27"
"9/20/2021 12:00:00 AM";"08:00 - 08:59";"08244";"Steigereiland";"4.98083725";"52.36280456";"18"
"9/20/2021 12:00:00 AM";"08:00 - 08:59";"08245";"Steigereiland";"4.98012952";"52.36313467";"84"
"9/20/2021 12:00:00 AM";"08:00 - 08:59";"08247";"Vennepluimstraat";"4.99057242";"52.35769662";"38"
"9/20/2021 12:00:00 AM";"08:00 - 08:59";"08249";"Diemerparklaan";"4.99499716";"52.35532962";"42"
"9/20/2021 12:00:00 AM";"08:00 - 08:59";"08251";"Lumi?restraat";"4.99942127";"52.35298044";"14"
"9/20/2021 12:00:00 AM";"08:00 - 08:59";"08255";"Hoogte Kadijk";"4.92483038";"52.36687722";"25"
"9/20/2021 12:00:00 AM";"08:00 - 08:59";"08257";"1e Coehoornstraat";"4.92618328";"52.36808685";"19"
"9/20/2021 12:00:00 AM";"08:00 - 08:59";"08259";"1e Leeghwaterstraat";"4.93004964";"52.37047459";"34"
"9/20/2021 12:00:00 AM";"08:00 - 08:59";"08261";"Rietlandpark";"4.93481067";"52.37300943";"16"
"9/20/2021 12:00:00 AM";"08:00 - 08:59";"08262";"IJburg";"5.00486802";"52.35112872";"195"
"9/20/2021 12:00:00 AM";"08:00 - 08:59";"08270";"Diemerparklaan";"4.99472994";"52.35567027";"19"
"9/20/2021 12:00:00 AM";"08:00 - 08:59";"08281";"Vennepluimstraat";"4.99139941";"52.35714215";"11"
"9/20/2021 12:00:00 AM";"08:00 - 08:59";"08286";"Lumierestraat";"4.99915409";"52.35332109";"10"
"9/20/2021 12:00:00 AM";"08:00 - 08:59";"08300";"P.Oosterhuisstraat";"5.00693059";"52.35193526";"82"
"9/20/2021 12:00:00 AM";"08:00 - 08:59";"09003";"Dintelstraat";"4.89289498";"52.34192405";"27"
"9/20/2021 12:00:00 AM";"08:00 - 08:59";"09013";"Amstelstation";"4.91790223";"52.34725673";"30"
"9/20/2021 12:00:00 AM";"08:00 - 08:59";"09015";"Amstelstation";"4.91940405";"52.34679531";"17"
"9/20/2021 12:00:00 AM";"08:00 - 08:59";"09016";"Amstelstation";"4.91953925";"52.34649925";"14"
"9/20/2021 12:00:00 AM";"08:00 - 08:59";"09020";"Wibautstraat";"4.90928242";"52.35726154";"23"
"9/20/2021 12:00:00 AM";"08:00 - 08:59";"09026";"Amstelstation";"4.91874992";"52.34619953";"32"
"9/20/2021 12:00:00 AM";"08:00 - 08:59";"09027";"Wibautstraat";"4.90986831";"52.35738074";"20"
"9/20/2021 12:00:00 AM";"08:00 - 08:59";"09028";"Amstelstation";"4.91867673";"52.34618127";"11"
"9/20/2021 12:00:00 AM";"08:00 - 08:59";"09049";"Victorieplein";"4.90570139";"52.34637186";"27"
"9/20/2021 12:00:00 AM";"08:00 - 08:59";"09050";"Victorieplein";"4.90499015";"52.34699811";"12"
"9/20/2021 12:00:00 AM";"08:00 - 08:59";"09051";"Victorieplein";"4.90653699";"52.34645615";"24"
"9/20/2021 12:00:00 AM";"08:00 - 08:59";"09060";"Waalstraat";"4.90103893";"52.34462715";"17"
"9/20/2021 12:00:00 AM";"08:00 - 08:59";"09064";"Pres. Kennedylaan";"4.90174037";"52.34087315";"12"
"9/20/2021 12:00:00 AM";"08:00 - 08:59";"09065";"Pres. Kennedylaan";"4.90190089";"52.34095470";"13"
"9/20/2021 12:00:00 AM";"08:00 - 08:59";"09069";"Maasstraat";"4.89684393";"52.34310889";"11"
"9/20/2021 12:00:00 AM";"08:00 - 08:59";"09074";"Scheldestraat";"4.89116002";"52.34748022";"11"
"9/20/2021 12:00:00 AM";"08:00 - 08:59";"09078";"Maasstraat";"4.89476308";"52.34681220";"12"
"9/20/2021 12:00:00 AM";"08:00 - 08:59";"09079";"Maasstraat";"4.89545003";"52.34706671";"10"
"9/20/2021 12:00:00 AM";"08:00 - 08:59";"09082";"Waalstraat";"4.89974094";"52.34656317";"50"
"9/20/2021 12:00:00 AM";"08:00 - 08:59";"09083";"Waalstraat";"4.90032528";"52.34680824";"60"
"9/20/2021 12:00:00 AM";"08:00 - 08:59";"09088";"Amstelkade";"4.90406932";"52.34934914";"12"
"9/20/2021 12:00:00 AM";"08:00 - 08:59";"09096";"Van Woustraat";"4.90163035";"52.35495650";"16"
"9/20/2021 12:00:00 AM";"08:00 - 08:59";"09097";"Van Woustraat";"4.90084070";"52.35468363";"22"
"9/20/2021 12:00:00 AM";"08:00 - 08:59";"09108";"2e v.d.Helststraat";"4.89423729";"52.35319131";"20"
"9/20/2021 12:00:00 AM";"08:00 - 08:59";"09109";"2e v.d.Helststraat";"4.89488170";"52.35331982";"15"
"9/20/2021 12:00:00 AM";"08:00 - 08:59";"09111";"De Pijp";"4.89073444";"52.35272728";"30"
"9/20/2021 12:00:00 AM";"08:00 - 08:59";"09114";"De Pijp";"4.88948829";"52.35259622";"15"
"9/20/2021 12:00:00 AM";"08:00 - 08:59";"09120";"Cornelis Troostplein";"4.89161100";"52.35046604";"51"
"9/20/2021 12:00:00 AM";"08:00 - 08:59";"09139";"Amsteldijk";"4.91124086";"52.34711329";"14"
"9/20/2021 12:00:00 AM";"08:00 - 08:59";"09140";"Amsteldijk";"4.91055179";"52.34704760";"11"
"9/20/2021 12:00:00 AM";"08:00 - 08:59";"09176";"James Wattstraat";"4.92329155";"52.35116068";"36"
"9/20/2021 12:00:00 AM";"08:00 - 08:59";"ASA";"Amstelstation";"4.91751426";"52.34647326";"878"
"9/20/2021 12:00:00 AM";"08:00 - 08:59";"ASW";"Amstelveenseweg";"4.85798324";"52.33836671";"787"
"9/20/2021 12:00:00 AM";"08:00 - 08:59";"BLW";"Bullewijk";"4.95233581";"52.30642205";"184"
"9/20/2021 12:00:00 AM";"08:00 - 08:59";"BMR";"Station Bijlmer ArenA";"4.94713474";"52.31193030";"1014"
"9/20/2021 12:00:00 AM";"08:00 - 08:59";"CLL";"Station Lelylaan";"4.83426589";"52.35766291";"325"
"9/20/2021 12:00:00 AM";"08:00 - 08:59";"CS";"Centraal Station";"4.90078150";"52.37749421";"1199"
"9/20/2021 12:00:00 AM";"08:00 - 08:59";"DMZ";"Station Diemen-Zuid";"4.95713273";"52.33042795";"94"
"9/20/2021 12:00:00 AM";"08:00 - 08:59";"DPP";"De Pijp";"4.89101069";"52.35296212";"429"
"9/20/2021 12:00:00 AM";"08:00 - 08:59";"DVD";"Station Duivendrecht";"4.93678429";"52.32325190";"164"
"9/20/2021 12:00:00 AM";"08:00 - 08:59";"EPP";"Europaplein";"4.89138430";"52.34185482";"699"
"9/20/2021 12:00:00 AM";"08:00 - 08:59";"GN";"Gein";"4.98952268";"52.29627089";"82"
"9/20/2021 12:00:00 AM";"08:00 - 08:59";"GPP";"Gaasperplas";"4.98468551";"52.31080575";"30"
"9/20/2021 12:00:00 AM";"08:00 - 08:59";"GZH";"Station Ganzenhoef";"4.97323379";"52.32331315";"104"
"9/20/2021 12:00:00 AM";"08:00 - 08:59";"HDS";"Heemstedestraat";"4.83421208";"52.35255760";"134"
"9/20/2021 12:00:00 AM";"08:00 - 08:59";"HLD";"Station Holendrecht";"4.96021904";"52.29780451";"777"
"9/20/2021 12:00:00 AM";"08:00 - 08:59";"HVW";"Henk Sneevlietweg";"4.83439318";"52.34626699";"811"
"9/20/2021 12:00:00 AM";"08:00 - 08:59";"ITW";"Isolatorweg";"4.85013475";"52.39523277";"375"
"9/20/2021 12:00:00 AM";"08:00 - 08:59";"JLS";"Jan v.Galenstraat";"4.83492461";"52.37196551";"733"
"9/20/2021 12:00:00 AM";"08:00 - 08:59";"KEN";"Kraaienneststation";"4.97963450";"52.31632492";"55"
"9/20/2021 12:00:00 AM";"08:00 - 08:59";"MDW";"Van der Madeweg";"4.93048657";"52.32945629";"191"
"9/20/2021 12:00:00 AM";"08:00 - 08:59";"ND";"Noord";"4.93123182";"52.40117202";"265"
"9/20/2021 12:00:00 AM";"08:00 - 08:59";"NDP";"Noorderpark";"4.91789115";"52.38855518";"334"
"9/20/2021 12:00:00 AM";"08:00 - 08:59";"NMT";"Nieuwmarkt";"4.90123885";"52.37194169";"228"
"9/20/2021 12:00:00 AM";"08:00 - 08:59";"OAS";"Overamstel";"4.91815361";"52.33179879";"277"
"9/20/2021 12:00:00 AM";"08:00 - 08:59";"PJW";"Postjesweg";"4.83385543";"52.36468044";"390"
"9/20/2021 12:00:00 AM";"08:00 - 08:59";"RAI";"Station RAI";"4.88982004";"52.33739931";"550"
"9/20/2021 12:00:00 AM";"08:00 - 08:59";"RGB";"Reigersbos";"4.97473728";"52.29566301";"210"
"9/20/2021 12:00:00 AM";"08:00 - 08:59";"RKN";"Rokin";"4.89229651";"52.36928023";"617"
"9/20/2021 12:00:00 AM";"08:00 - 08:59";"SLW";"Spaklerweg";"4.92085640";"52.33986250";"190"
"9/20/2021 12:00:00 AM";"08:00 - 08:59";"STD";"Station Sloterdijk";"4.83878389";"52.38880848";"479"
"9/20/2021 12:00:00 AM";"08:00 - 08:59";"SVT";"Strandvliet";"4.94152820";"52.31825469";"256"
"9/20/2021 12:00:00 AM";"08:00 - 08:59";"VLN";"Burg.de Vlugtlaan";"4.83809109";"52.37951196";"72"
"9/20/2021 12:00:00 AM";"08:00 - 08:59";"VPD";"Venserpolder";"4.94665009";"52.32679428";"92"
"9/20/2021 12:00:00 AM";"08:00 - 08:59";"VSW";"Verrijn Stuartweg";"4.96693669";"52.32844093";"68"
"9/20/2021 12:00:00 AM";"08:00 - 08:59";"VZG";"Vijzelgracht";"4.89072870";"52.35980061";"461"
"9/20/2021 12:00:00 AM";"08:00 - 08:59";"WBS";"Wibautstraat";"4.91202993";"52.35428867";"367"
"9/20/2021 12:00:00 AM";"08:00 - 08:59";"WLP";"Waterlooplein";"4.90298171";"52.36697862";"593"
"9/20/2021 12:00:00 AM";"08:00 - 08:59";"WPP";"Weesperplein";"4.90787469";"52.36120146";"2072"
"9/20/2021 12:00:00 AM";"08:00 - 08:59";"WTC";"Station Zuid";"4.87509853";"52.33908015";"1936"
"9/20/2021 12:00:00 AM";"09:00 - 09:59";"";"Overig";"";"";"2133"
"9/20/2021 12:00:00 AM";"09:00 - 09:59";"[[ Onb";"[[ Onbekend ]]";"0.00000000";"0.00000000";"555"
"9/20/2021 12:00:00 AM";"09:00 - 09:59";"00001";"Muiderpoortstation";"4.93287450";"52.36132700";"14"
"9/20/2021 12:00:00 AM";"09:00 - 09:59";"00005";"Muiderpoortstation";"4.93280219";"52.36121887";"49"
"9/20/2021 12:00:00 AM";"09:00 - 09:59";"00006";"Muiderpoortstation";"4.93368466";"52.36106048";"14"
"9/20/2021 12:00:00 AM";"09:00 - 09:59";"00007";"Muiderpoortstation";"4.93356602";"52.36117686";"10"
"9/20/2021 12:00:00 AM";"09:00 - 09:59";"00008";"Dapperstraat";"4.92977913";"52.36110836";"50"
"9/20/2021 12:00:00 AM";"09:00 - 09:59";"00010";"Dapperstraat";"4.92891486";"52.36092527";"25"
"9/20/2021 12:00:00 AM";"09:00 - 09:59";"00017";"Linnaeusstraat";"4.92573745";"52.36013099";"13"
"9/20/2021 12:00:00 AM";"09:00 - 09:59";"00019";"Diemerknoop";"5.00296377";"52.33543002";"10"
"9/20/2021 12:00:00 AM";"09:00 - 09:59";"00020";"Beukenweg";"4.91674979";"52.35906203";"19"
"9/20/2021 12:00:00 AM";"09:00 - 09:59";"00021";"Beukenweg";"4.91721293";"52.35829991";"37"
"9/20/2021 12:00:00 AM";"09:00 - 09:59";"00023";"Beukenplein";"4.91809259";"52.35701816";"13"
"9/20/2021 12:00:00 AM";"09:00 - 09:59";"00029";"Oostpoort";"4.92719316";"52.35707185";"58"
"9/20/2021 12:00:00 AM";"09:00 - 09:59";"00030";"Oostpoort";"4.92694026";"52.35739442";"46"
"9/20/2021 12:00:00 AM";"09:00 - 09:59";"00039";"Hogeweg";"4.93084015";"52.35358075";"10"
"9/20/2021 12:00:00 AM";"09:00 - 09:59";"00040";"Hogeweg";"4.93135765";"52.35321425";"16"
"9/20/2021 12:00:00 AM";"09:00 - 09:59";"00059";"Radioweg";"4.93945830";"52.35337100";"10"
"9/20/2021 12:00:00 AM";"09:00 - 09:59";"00070";"Kruislaan";"4.93993910";"52.34789929";"12"
"9/20/2021 12:00:00 AM";"09:00 - 09:59";"00074";"Brinkstraat";"4.94797289";"52.34285131";"11"
"9/20/2021 12:00:00 AM";"09:00 - 09:59";"00114";"Dennenrode";"4.95213839";"52.32209601";"13"
"9/20/2021 12:00:00 AM";"09:00 - 09:59";"00116";"Station Ganzenhoef";"4.97272915";"52.32237665";"19"
"9/20/2021 12:00:00 AM";"09:00 - 09:59";"00141";"Kraaienneststation";"4.97868390";"52.31603403";"17"
"9/20/2021 12:00:00 AM";"09:00 - 09:59";"00150";"Tulastraat";"4.96535973";"52.31994189";"55"
"9/20/2021 12:00:00 AM";"09:00 - 09:59";"00151";"Tulastraat";"4.96584458";"52.31985374";"49"
"9/20/2021 12:00:00 AM";"09:00 - 09:59";"00152";"Florijn";"4.95859163";"52.31758973";"12"
"9/20/2021 12:00:00 AM";"09:00 - 09:59";"00197";"Annie Romeinplein";"4.97162041";"52.32173463";"20"
"9/20/2021 12:00:00 AM";"09:00 - 09:59";"00205";"Station Holendrecht";"4.95865657";"52.29716971";"18"
"9/20/2021 12:00:00 AM";"09:00 - 09:59";"00238";"Anton de Komplein";"4.95413359";"52.31603659";"49"
"9/20/2021 12:00:00 AM";"09:00 - 09:59";"00239";"Anton de Komplein";"4.95597669";"52.31652866";"19"
"9/20/2021 12:00:00 AM";"09:00 - 09:59";"00351";"Dostojevskisingel";"4.94525272";"52.32275356";"14"
"9/20/2021 12:00:00 AM";"09:00 - 09:59";"00432";"Diemerbrug";"4.96142958";"52.33824484";"14"
"9/20/2021 12:00:00 AM";"09:00 - 09:59";"00441";"Muiderpoortstation";"4.93254137";"52.36088532";"10"
"9/20/2021 12:00:00 AM";"09:00 - 09:59";"00444";"Linnaeusstraat";"4.92490296";"52.35991203";"39"
"9/20/2021 12:00:00 AM";"09:00 - 09:59";"00464";"Hogeschool InHolland";"4.95958754";"52.32687769";"21"
"9/20/2021 12:00:00 AM";"09:00 - 09:59";"00491";"Science Park Aer";"4.95218495";"52.35478458";"40"
"9/20/2021 12:00:00 AM";"09:00 - 09:59";"00494";"Science Park Aqua";"4.95416922";"52.35601419";"28"
"9/20/2021 12:00:00 AM";"09:00 - 09:59";"00515";"Station Duivendrecht";"4.93669692";"52.32318866";"14"
"9/20/2021 12:00:00 AM";"09:00 - 09:59";"00518";"Foppingadreef";"4.94967889";"52.31268573";"28"
"9/20/2021 12:00:00 AM";"09:00 - 09:59";"00538";"Station Science Park";"4.94808393";"52.35239669";"18"
"9/20/2021 12:00:00 AM";"09:00 - 09:59";"00553";"Kraaienneststation";"4.98073727";"52.31601414";"12"
"9/20/2021 12:00:00 AM";"09:00 - 09:59";"00554";"Science Park";"4.95088162";"52.35447420";"12"
"9/20/2021 12:00:00 AM";"09:00 - 09:59";"00560";"Station Bijlmer ArenA";"4.94747867";"52.31125750";"30"
"9/20/2021 12:00:00 AM";"09:00 - 09:59";"00561";"Station Bijlmer ArenA";"4.94741931";"52.31132918";"37"
"9/20/2021 12:00:00 AM";"09:00 - 09:59";"00562";"Station Bijlmer ArenA";"4.94736012";"52.31138289";"31"
"9/20/2021 12:00:00 AM";"09:00 - 09:59";"00568";"Station Bijlmer ArenA";"4.94762664";"52.31112323";"16"
"9/20/2021 12:00:00 AM";"09:00 - 09:59";"00651";"Casparuslaan";"5.03531862";"52.30911571";"14"
"9/20/2021 12:00:00 AM";"09:00 - 09:59";"00665";"Station Weesp";"5.04383463";"52.31145059";"12"
"9/20/2021 12:00:00 AM";"09:00 - 09:59";"00985";"Winkelcentrum";"4.96422695";"52.34186794";"11"
"9/20/2021 12:00:00 AM";"09:00 - 09:59";"01078";"Dijkmanshuizenstraat";"4.95475323";"52.39549915";"10"
"9/20/2021 12:00:00 AM";"09:00 - 09:59";"01110";"Rode Kruisstraat";"4.92847908";"52.39455548";"35"
"9/20/2021 12:00:00 AM";"09:00 - 09:59";"01111";"Rode Kruisstraat";"4.92881363";"52.39488033";"37"
"9/20/2021 12:00:00 AM";"09:00 - 09:59";"01117";"Merelstraat";"4.92505977";"52.38995848";"15"
"9/20/2021 12:00:00 AM";"09:00 - 09:59";"01189";"Pinksterbloemstraat";"4.91221693";"52.39852684";"11"
"9/20/2021 12:00:00 AM";"09:00 - 09:59";"01278";"Statenjachtstraat";"4.91380643";"52.40790731";"11"
"9/20/2021 12:00:00 AM";"09:00 - 09:59";"01305";"Station Noord";"4.93215715";"52.40264056";"14"
"9/20/2021 12:00:00 AM";"09:00 - 09:59";"01316";"Station Noord";"4.93336820";"52.40204304";"31"
"9/20/2021 12:00:00 AM";"09:00 - 09:59";"01352";"Oosterlengte";"4.92206974";"52.40611555";"11"
"9/20/2021 12:00:00 AM";"09:00 - 09:59";"01364";"Buikslotermeerplein";"4.93887054";"52.39992493";"13"
"9/20/2021 12:00:00 AM";"09:00 - 09:59";"01365";"Atat?rk";"4.89794256";"52.40319625";"10"
"9/20/2021 12:00:00 AM";"09:00 - 09:59";"01402";"Floraweg";"4.90614362";"52.39899665";"24"
"9/20/2021 12:00:00 AM";"09:00 - 09:59";"01414";"Olof Palmeplein";"4.94012168";"52.39679298";"16"
"9/20/2021 12:00:00 AM";"09:00 - 09:59";"02018";"Koivistokade";"4.87577082";"52.39789874";"19"
"9/20/2021 12:00:00 AM";"09:00 - 09:59";"02019";"Koivistokade";"4.87537403";"52.39790601";"37"
"9/20/2021 12:00:00 AM";"09:00 - 09:59";"02064";"Kabelweg";"4.84827817";"52.39205168";"18"
"9/20/2021 12:00:00 AM";"09:00 - 09:59";"02089";"Vredenhof";"4.86238820";"52.38527541";"13"
"9/20/2021 12:00:00 AM";"09:00 - 09:59";"02099";"Zaanstraat";"4.86990824";"52.39287613";"11"
"9/20/2021 12:00:00 AM";"09:00 - 09:59";"02103";"Spaarndammerstraat";"4.87765867";"52.39216375";"23"
"9/20/2021 12:00:00 AM";"09:00 - 09:59";"02113";"Haarlemmerplein";"4.88371739";"52.38516129";"23"
"9/20/2021 12:00:00 AM";"09:00 - 09:59";"02114";"Haarlemmerplein";"4.88341252";"52.38484542";"56"
"9/20/2021 12:00:00 AM";"09:00 - 09:59";"02126";"Bloemgracht";"4.87658402";"52.37449829";"10"
"9/20/2021 12:00:00 AM";"09:00 - 09:59";"02130";"Hugo de Grootplein";"4.87259092";"52.37439113";"18"
"9/20/2021 12:00:00 AM";"09:00 - 09:59";"02132";"Fred. Hendrikplants.";"4.87543499";"52.37862768";"29"
"9/20/2021 12:00:00 AM";"09:00 - 09:59";"02133";"Fred. Hendrikplants.";"4.87521709";"52.37842002";"10"
"9/20/2021 12:00:00 AM";"09:00 - 09:59";"02138";"Kostverlorenstraat";"4.87170885";"52.37952826";"10"
"9/20/2021 12:00:00 AM";"09:00 - 09:59";"02142";"V.d. Hoopstraat";"4.87031312";"52.38335094";"11"
"9/20/2021 12:00:00 AM";"09:00 - 09:59";"02145";"Van Hallstraat";"4.86990682";"52.38418503";"18"
"9/20/2021 12:00:00 AM";"09:00 - 09:59";"02153";"Nassaukade";"4.87920791";"52.38132226";"11"
"9/20/2021 12:00:00 AM";"09:00 - 09:59";"02155";"Willem de Zwijgerlaan";"4.86360306";"52.37071170";"24"
"9/20/2021 12:00:00 AM";"09:00 - 09:59";"02156";"Willem de Zwijgerlaan";"4.86425293";"52.37039101";"17"
"9/20/2021 12:00:00 AM";"09:00 - 09:59";"02157";"Adm. de Ruijterweg";"4.86009910";"52.37148707";"25"
"9/20/2021 12:00:00 AM";"09:00 - 09:59";"02158";"Adm. de Ruijterweg";"4.86096776";"52.37129320";"17"
"9/20/2021 12:00:00 AM";"09:00 - 09:59";"02160";"Haparandaweg";"4.87389760";"52.39471799";"28"
"9/20/2021 12:00:00 AM";"09:00 - 09:59";"02166";"Bos en Lommerweg";"4.85548704";"52.38016657";"16"
"9/20/2021 12:00:00 AM";"09:00 - 09:59";"02170";"Spaarndammerstraat";"4.87723089";"52.39231470";"19"
"9/20/2021 12:00:00 AM";"09:00 - 09:59";"02177";"Bos en Lommerweg";"4.85521256";"52.38101018";"10"
"9/20/2021 12:00:00 AM";"09:00 - 09:59";"02182";"Markthallen";"4.86695146";"52.37567869";"36"
"9/20/2021 12:00:00 AM";"09:00 - 09:59";"02183";"Markthallen";"4.86667150";"52.37575835";"15"
"9/20/2021 12:00:00 AM";"09:00 - 09:59";"02190";"Karel Doormanstraat";"4.85695623";"52.37889690";"16"
"9/20/2021 12:00:00 AM";"09:00 - 09:59";"02191";"Adm. de Ruijterweg";"4.86341616";"52.37161863";"12"
"9/20/2021 12:00:00 AM";"09:00 - 09:59";"02192";"Marnixplein";"4.87860283";"52.37773357";"10"
"9/20/2021 12:00:00 AM";"09:00 - 09:59";"02193";"Marnixplein";"4.87844490";"52.37741832";"55"
"9/20/2021 12:00:00 AM";"09:00 - 09:59";"02259";"Contactweg";"4.85657970";"52.39195435";"59"
"9/20/2021 12:00:00 AM";"09:00 - 09:59";"02260";"Contactweg";"4.85432952";"52.39215995";"43"
"9/20/2021 12:00:00 AM";"09:00 - 09:59";"02301";"Fred. Hendrikplants.";"4.87521585";"52.37852787";"44"
"9/20/2021 12:00:00 AM";"09:00 - 09:59";"02302";"Fred. Hendrikplants.";"4.87549415";"52.37859198";"37"
"9/20/2021 12:00:00 AM";"09:00 - 09:59";"02310";"Plesostraat";"4.82849791";"52.38788859";"18"
"9/20/2021 12:00:00 AM";"09:00 - 09:59";"02319";"Solebaystraat";"4.85540788";"52.38431853";"10"
"9/20/2021 12:00:00 AM";"09:00 - 09:59";"02321";"Van Hallstraat";"4.86864429";"52.38538386";"21"
"9/20/2021 12:00:00 AM";"09:00 - 09:59";"02361";"Station Sloterdijk";"4.83931858";"52.38833460";"57"
"9/20/2021 12:00:00 AM";"09:00 - 09:59";"02365";"Station Sloterdijk";"4.83873236";"52.38822404";"34"
"9/20/2021 12:00:00 AM";"09:00 - 09:59";"02366";"Station Sloterdijk";"4.83873347";"52.38813416";"32"
"9/20/2021 12:00:00 AM";"09:00 - 09:59";"02367";"Station Sloterdijk";"4.83876429";"52.38801747";"16"
"9/20/2021 12:00:00 AM";"09:00 - 09:59";"02368";"Station Sloterdijk";"4.83877999";"52.38793665";"22"
"9/20/2021 12:00:00 AM";"09:00 - 09:59";"02378";"Station Sloterdijk";"4.83809796";"52.38844579";"50"
"9/20/2021 12:00:00 AM";"09:00 - 09:59";"03009";"Witte de Withstraat";"4.85851970";"52.36478416";"59"
"9/20/2021 12:00:00 AM";"09:00 - 09:59";"03010";"Witte de Withstraat";"4.85928290";"52.36480554";"54"
"9/20/2021 12:00:00 AM";"09:00 - 09:59";"03025";"Jan v.Galenstraat";"4.84854861";"52.37342137";"21"
"9/20/2021 12:00:00 AM";"09:00 - 09:59";"03028";"Jan van Galenstraat";"4.84921138";"52.37204926";"17"
"9/20/2021 12:00:00 AM";"09:00 - 09:59";"03034";"Erasmusgracht";"4.84691117";"52.37644278";"18"
"9/20/2021 12:00:00 AM";"09:00 - 09:59";"03036";"Egidiusstraat";"4.85075841";"52.37890493";"13"
"9/20/2021 12:00:00 AM";"09:00 - 09:59";"03038";"Bos en Lommerweg";"4.85369544";"52.38014952";"12"
"9/20/2021 12:00:00 AM";"09:00 - 09:59";"03052";"Burg. Eliasstraat";"4.82565009";"52.38077481";"10"
"9/20/2021 12:00:00 AM";"09:00 - 09:59";"03055";"Burg. Fockstraat";"4.83108040";"52.37991964";"10"
"9/20/2021 12:00:00 AM";"09:00 - 09:59";"03060";"Bos en Lommerplein";"4.84718407";"52.37815169";"11"
"9/20/2021 12:00:00 AM";"09:00 - 09:59";"03061";"Bos en Lommerplein";"4.84523530";"52.37778328";"35"
"9/20/2021 12:00:00 AM";"09:00 - 09:59";"03076";"Jan Tooropstraat";"4.83810313";"52.37142305";"41"
"9/20/2021 12:00:00 AM";"09:00 - 09:59";"03077";"Jan Tooropstraat";"4.83817288";"52.37171997";"24"
"9/20/2021 12:00:00 AM";"09:00 - 09:59";"03087";"Plein '40 - '45";"4.82063128";"52.38159575";"35"
"9/20/2021 12:00:00 AM";"09:00 - 09:59";"03090";"Slotermeerlaan";"4.81728149";"52.37596234";"10"
"9/20/2021 12:00:00 AM";"09:00 - 09:59";"03097";"Burg. v. Leeuwenlaan";"4.81182601";"52.37651117";"20"
"9/20/2021 12:00:00 AM";"09:00 - 09:59";"03117";"Sam van Houtenstraat";"4.79790430";"52.37868964";"14"
"9/20/2021 12:00:00 AM";"09:00 - 09:59";"03121";"Aalbersestraat";"4.79774249";"52.38202329";"14"
"9/20/2021 12:00:00 AM";"09:00 - 09:59";"03129";"Plein '40 - '45";"4.82112672";"52.38075328";"38"
"9/20/2021 12:00:00 AM";"09:00 - 09:59";"03135";"Ookmeerweg";"4.80431836";"52.36558127";"88"
"9/20/2021 12:00:00 AM";"09:00 - 09:59";"03136";"Ookmeerweg";"4.80419536";"52.36600309";"23"
"9/20/2021 12:00:00 AM";"09:00 - 09:59";"03157";"Lambertus Zijlplein";"4.80338637";"52.37726977";"15"
"9/20/2021 12:00:00 AM";"09:00 - 09:59";"03167";"Bos en Lommerplein";"4.84650668";"52.37709704";"32"
"9/20/2021 12:00:00 AM";"09:00 - 09:59";"03168";"Mercatorplein";"4.85152392";"52.37024423";"12"
"9/20/2021 12:00:00 AM";"09:00 - 09:59";"03169";"Jan v.Galenstraat";"4.83601291";"52.37301316";"13"
"9/20/2021 12:00:00 AM";"09:00 - 09:59";"03171";"Burg. Rendorpstraat";"4.82768433";"52.37436719";"16"
"9/20/2021 12:00:00 AM";"09:00 - 09:59";"03172";"Burg. Rendorpstraat";"4.82691962";"52.37445346";"11"
"9/20/2021 12:00:00 AM";"09:00 - 09:59";"03174";"Burg. R?ellstraat";"4.81863325";"52.37476448";"20"
"9/20/2021 12:00:00 AM";"09:00 - 09:59";"03178";"Mercatorplein";"4.84991664";"52.37080317";"13"
"9/20/2021 12:00:00 AM";"09:00 - 09:59";"03179";"Adm. Helfrichstraat";"4.84386882";"52.36944538";"21"
"9/20/2021 12:00:00 AM";"09:00 - 09:59";"03180";"Adm. Helfrichstraat";"4.84458860";"52.36942172";"16"
"9/20/2021 12:00:00 AM";"09:00 - 09:59";"03181";"Jan Voermanstraat";"4.83788946";"52.36970540";"13"
"9/20/2021 12:00:00 AM";"09:00 - 09:59";"03198";"W. Schoutenstraat";"4.85259061";"52.36702245";"15"
"9/20/2021 12:00:00 AM";"09:00 - 09:59";"04008";"Dijkgraafplein";"4.78646982";"52.35545267";"18"
"9/20/2021 12:00:00 AM";"09:00 - 09:59";"04009";"Dijkgraafplein";"4.78689401";"52.35556268";"10"
"9/20/2021 12:00:00 AM";"09:00 - 09:59";"04012";"Baden Powellweg";"4.79137362";"52.35646612";"21"
"9/20/2021 12:00:00 AM";"09:00 - 09:59";"04016";"Hoekenes";"4.79854723";"52.35791310";"18"
"9/20/2021 12:00:00 AM";"09:00 - 09:59";"04021";"Osdorpplein West";"4.80322869";"52.35913166";"30"
"9/20/2021 12:00:00 AM";"09:00 - 09:59";"04022";"Osdorpplein West";"4.80322218";"52.35962596";"10"
"9/20/2021 12:00:00 AM";"09:00 - 09:59";"04050";"Meer en Vaart";"4.80994403";"52.35636940";"23"
"9/20/2021 12:00:00 AM";"09:00 - 09:59";"04060";"Derkinderenstraat";"4.83972293";"52.35796689";"15"
"9/20/2021 12:00:00 AM";"09:00 - 09:59";"04061";"Derkinderenstraat";"4.84014895";"52.35794190";"20"
"9/20/2021 12:00:00 AM";"09:00 - 09:59";"04063";"Johan Huizingalaan";"4.82626398";"52.35778704";"18"
"9/20/2021 12:00:00 AM";"09:00 - 09:59";"04064";"Osdorpplein Oost";"4.80806527";"52.35860717";"31"
"9/20/2021 12:00:00 AM";"09:00 - 09:59";"04065";"Osdorpplein Oost";"4.80773259";"52.35935153";"40"
"9/20/2021 12:00:00 AM";"09:00 - 09:59";"04088";"Louwesweg";"4.82436420";"52.34669608";"12"
"9/20/2021 12:00:00 AM";"09:00 - 09:59";"04110";"Westlandgracht";"4.84581964";"52.35156868";"11"
"9/20/2021 12:00:00 AM";"09:00 - 09:59";"04112";"Johan Huizingalaan";"4.82742878";"52.34923618";"22"
"9/20/2021 12:00:00 AM";"09:00 - 09:59";"04133";"Robert Fruinlaan";"4.82910660";"52.36403799";"16"
"9/20/2021 12:00:00 AM";"09:00 - 09:59";"04148";"Louis Davidsstraat";"4.80952552";"52.35356316";"27"
"9/20/2021 12:00:00 AM";"09:00 - 09:59";"04195";"Station Lelylaan";"4.83460082";"52.35788018";"70"
"9/20/2021 12:00:00 AM";"09:00 - 09:59";"04196";"Station Lelylaan";"4.83382251";"52.35790351";"59"
"9/20/2021 12:00:00 AM";"09:00 - 09:59";"04274";"Schiphol Airport/Plaza";"4.76104997";"52.30939292";"20"
"9/20/2021 12:00:00 AM";"09:00 - 09:59";"04279";"Centrum Nieuw Sloten";"4.81104244";"52.34638930";"17"
"9/20/2021 12:00:00 AM";"09:00 - 09:59";"04379";"Knooppunt Schiphol Nrd";"4.79320459";"52.32276196";"25"
"9/20/2021 12:00:00 AM";"09:00 - 09:59";"04402";"Matterhorn";"4.77477998";"52.35372103";"11"
"9/20/2021 12:00:00 AM";"09:00 - 09:59";"04403";"Pilatus";"4.77696371";"52.35289644";"13"
"9/20/2021 12:00:00 AM";"09:00 - 09:59";"04407";"Ecuplein";"4.78817670";"52.34970912";"14"
"9/20/2021 12:00:00 AM";"09:00 - 09:59";"04409";"Baden Powellweg";"4.79441281";"52.35092691";"45"
"9/20/2021 12:00:00 AM";"09:00 - 09:59";"04411";"Hoekenes";"4.80183430";"52.35243785";"20"
"9/20/2021 12:00:00 AM";"09:00 - 09:59";"04413";"Louis Davidsstraat";"4.80850916";"52.35383682";"30"
"9/20/2021 12:00:00 AM";"09:00 - 09:59";"05011";"Centraal Station";"4.89921803";"52.37810793";"212"
"9/20/2021 12:00:00 AM";"09:00 - 09:59";"05024";"Centraal Station";"4.89813942";"52.37736648";"16"
"9/20/2021 12:00:00 AM";"09:00 - 09:59";"05029";"Centraal Station";"4.90334975";"52.37900567";"141"
"9/20/2021 12:00:00 AM";"09:00 - 09:59";"05031";"Dam";"4.89348394";"52.37341055";"15"
"9/20/2021 12:00:00 AM";"09:00 - 09:59";"05032";"Dam";"4.89549360";"52.37492885";"14"
"9/20/2021 12:00:00 AM";"09:00 - 09:59";"05035";"Rokin";"4.89210433";"52.36939627";"14"
"9/20/2021 12:00:00 AM";"09:00 - 09:59";"05036";"Rokin";"4.89230478";"52.36985548";"14"
"9/20/2021 12:00:00 AM";"09:00 - 09:59";"05046";"Rembrandtplein";"4.89627976";"52.36625897";"14"
"9/20/2021 12:00:00 AM";"09:00 - 09:59";"05047";"Rembrandtplein";"4.89702882";"52.36623511";"28"
"9/20/2021 12:00:00 AM";"09:00 - 09:59";"05060";"Koningsplein";"4.88894752";"52.36807981";"29"
"9/20/2021 12:00:00 AM";"09:00 - 09:59";"05063";"Paleisstraat";"4.89064591";"52.37244599";"11"
"9/20/2021 12:00:00 AM";"09:00 - 09:59";"05064";"Koningsplein";"4.88949610";"52.36760577";"55"
"9/20/2021 12:00:00 AM";"09:00 - 09:59";"05065";"Dam";"4.89079364";"52.37367792";"63"
"9/20/2021 12:00:00 AM";"09:00 - 09:59";"05066";"Dam";"4.89027056";"52.37318140";"89"
"9/20/2021 12:00:00 AM";"09:00 - 09:59";"05069";"Nieuwezijds Kolk";"4.89373093";"52.37628765";"76"
"9/20/2021 12:00:00 AM";"09:00 - 09:59";"05070";"Nieuwezijds Kolk";"4.89284106";"52.37575366";"21"
"9/20/2021 12:00:00 AM";"09:00 - 09:59";"05073";"Westermarkt";"4.88453426";"52.37400204";"46"
"9/20/2021 12:00:00 AM";"09:00 - 09:59";"05074";"Westermarkt";"4.88354950";"52.37407874";"108"
"9/20/2021 12:00:00 AM";"09:00 - 09:59";"05077";"Marnixstraat";"4.87615428";"52.37228546";"59"
"9/20/2021 12:00:00 AM";"09:00 - 09:59";"05079";"Buiten Oranjestraat";"4.88805879";"52.38312149";"11"
"9/20/2021 12:00:00 AM";"09:00 - 09:59";"05080";"Buiten Oranjestraat";"4.88782167";"52.38330923";"32"
"9/20/2021 12:00:00 AM";"09:00 - 09:59";"05082";"Buiten Brouwersstraat";"4.89129168";"52.38167008";"28"
"9/20/2021 12:00:00 AM";"09:00 - 09:59";"05092";"Barentszplein";"4.89160204";"52.38938281";"19"
"9/20/2021 12:00:00 AM";"09:00 - 09:59";"05097";"Centraal Station";"4.90087651";"52.37954379";"47"
"9/20/2021 12:00:00 AM";"09:00 - 09:59";"05101";"Centraal Station";"4.90105195";"52.37961641";"21"
"9/20/2021 12:00:00 AM";"09:00 - 09:59";"05103";"Centraal Station";"4.90127481";"52.37938365";"31"
"9/20/2021 12:00:00 AM";"09:00 - 09:59";"05104";"Centraal Station";"4.90164343";"52.37925034";"82"
"9/20/2021 12:00:00 AM";"09:00 - 09:59";"05106";"Centraal Station";"4.90229030";"52.37919008";"20"
"9/20/2021 12:00:00 AM";"09:00 - 09:59";"05107";"Centraal Station";"4.90195282";"52.37916174";"27"
"9/20/2021 12:00:00 AM";"09:00 - 09:59";"05154";"Marnixstraat";"4.87536375";"52.37207533";"24"
"9/20/2021 12:00:00 AM";"09:00 - 09:59";"06001";"Surinameplein";"4.85252231";"52.35807034";"37"
"9/20/2021 12:00:00 AM";"09:00 - 09:59";"06002";"Surinameplein";"4.85090753";"52.35807202";"16"
"9/20/2021 12:00:00 AM";"09:00 - 09:59";"06015";"Postjesweg";"4.85316124";"52.36352879";"13"
"9/20/2021 12:00:00 AM";"09:00 - 09:59";"06016";"J.P. Heijestraat";"4.86239635";"52.36472951";"17"
"9/20/2021 12:00:00 AM";"09:00 - 09:59";"06017";"J.P. Heijestraat";"4.86292317";"52.36487565";"23"
"9/20/2021 12:00:00 AM";"09:00 - 09:59";"06019";"Ten Katestraat";"4.86737423";"52.36591988";"31"
"9/20/2021 12:00:00 AM";"09:00 - 09:59";"06020";"Ten Katestraat";"4.86773990";"52.36603832";"69"
"9/20/2021 12:00:00 AM";"09:00 - 09:59";"06021";"Bilderdijkstraat";"4.87176488";"52.36712545";"56"
"9/20/2021 12:00:00 AM";"09:00 - 09:59";"06023";"Bilderdijkstraat";"4.87254032";"52.36736251";"27"
