"Datum";"UurgroepOmschrijving (van aankomst)";"AankomstHalteCode";"AankomstHalteNaam";"AankomstLat";"AankomstLon";"AantalReizen"
"11/16/2020 12:00:00 AM";"00:00 - 00:59";"";"Overig";"";"";"10"
"11/16/2020 12:00:00 AM";"01:00 - 01:59";"";"Overig";"";"";"36"
"11/16/2020 12:00:00 AM";"02:00 - 02:59";"";"Overig";"";"";"43"
"11/16/2020 12:00:00 AM";"03:00 - 03:59";"";"Overig";"";"";"25"
"11/16/2020 12:00:00 AM";"04:00 - 04:59";"";"Overig";"";"";"56"
"11/16/2020 12:00:00 AM";"05:00 - 05:59";"";"Overig";"";"";"322"
"11/16/2020 12:00:00 AM";"05:00 - 05:59";"[[ Onb";"[[ Onbekend ]]";"0.00000000";"0.00000000";"25"
"11/16/2020 12:00:00 AM";"05:00 - 05:59";"00561";"Station Bijlmer ArenA";"4.94741931";"52.31132918";"13"
"11/16/2020 12:00:00 AM";"05:00 - 05:59";"00562";"Station Bijlmer ArenA";"4.94736012";"52.31138289";"15"
"11/16/2020 12:00:00 AM";"05:00 - 05:59";"01422";"Noorderpark";"4.91956087";"52.38902016";"11"
"11/16/2020 12:00:00 AM";"05:00 - 05:59";"04267";"Schiphol Airport/Plaza";"4.76139455";"52.30887344";"54"
"11/16/2020 12:00:00 AM";"05:00 - 05:59";"04274";"Schiphol Airport/Plaza";"4.76104997";"52.30939292";"10"
"11/16/2020 12:00:00 AM";"05:00 - 05:59";"04379";"Knooppunt Schiphol Nrd";"4.79320459";"52.32276196";"42"
"11/16/2020 12:00:00 AM";"05:00 - 05:59";"BMR";"Station Bijlmer ArenA";"4.94713474";"52.31193030";"27"
"11/16/2020 12:00:00 AM";"05:00 - 05:59";"CS";"Centraal Station";"4.90078150";"52.37749421";"46"
"11/16/2020 12:00:00 AM";"05:00 - 05:59";"WTC";"Station Zuid";"4.87509853";"52.33908015";"10"
"11/16/2020 12:00:00 AM";"06:00 - 06:59";"";"Overig";"";"";"1521"
"11/16/2020 12:00:00 AM";"06:00 - 06:59";"[[ Onb";"[[ Onbekend ]]";"0.00000000";"0.00000000";"62"
"11/16/2020 12:00:00 AM";"06:00 - 06:59";"00453";"Diemen Sniep";"4.96964866";"52.33644962";"53"
"11/16/2020 12:00:00 AM";"06:00 - 06:59";"00491";"Science Park Aer";"4.95218495";"52.35478458";"14"
"11/16/2020 12:00:00 AM";"06:00 - 06:59";"00561";"Station Bijlmer ArenA";"4.94741931";"52.31132918";"16"
"11/16/2020 12:00:00 AM";"06:00 - 06:59";"00562";"Station Bijlmer ArenA";"4.94736012";"52.31138289";"21"
"11/16/2020 12:00:00 AM";"06:00 - 06:59";"00902";"Stammerkamp";"4.98344083";"52.33320797";"15"
"11/16/2020 12:00:00 AM";"06:00 - 06:59";"01365";"Atat?rk";"4.89794256";"52.40319625";"10"
"11/16/2020 12:00:00 AM";"06:00 - 06:59";"02103";"Spaarndammerstraat";"4.87765867";"52.39216375";"12"
"11/16/2020 12:00:00 AM";"06:00 - 06:59";"02311";"Seineweg";"4.81857317";"52.38632242";"42"
"11/16/2020 12:00:00 AM";"06:00 - 06:59";"02360";"Station Sloterdijk";"4.83827278";"52.38856344";"23"
"11/16/2020 12:00:00 AM";"06:00 - 06:59";"02361";"Station Sloterdijk";"4.83931858";"52.38833460";"30"
"11/16/2020 12:00:00 AM";"06:00 - 06:59";"02368";"Station Sloterdijk";"4.83877999";"52.38793665";"14"
"11/16/2020 12:00:00 AM";"06:00 - 06:59";"02370";"Station Sloterdijk";"4.83879745";"52.38771204";"20"
"11/16/2020 12:00:00 AM";"06:00 - 06:59";"04195";"Station Lelylaan";"4.83460082";"52.35788018";"24"
"11/16/2020 12:00:00 AM";"06:00 - 06:59";"04267";"Schiphol Airport/Plaza";"4.76139455";"52.30887344";"27"
"11/16/2020 12:00:00 AM";"06:00 - 06:59";"04379";"Knooppunt Schiphol Nrd";"4.79320459";"52.32276196";"29"
"11/16/2020 12:00:00 AM";"06:00 - 06:59";"05011";"Centraal Station";"4.89921803";"52.37810793";"46"
"11/16/2020 12:00:00 AM";"06:00 - 06:59";"05022";"Centraal Station";"4.90104337";"52.37771998";"35"
"11/16/2020 12:00:00 AM";"06:00 - 06:59";"05031";"Dam";"4.89348394";"52.37341055";"10"
"11/16/2020 12:00:00 AM";"06:00 - 06:59";"05065";"Dam";"4.89079364";"52.37367792";"17"
"11/16/2020 12:00:00 AM";"06:00 - 06:59";"05066";"Dam";"4.89027056";"52.37318140";"18"
"11/16/2020 12:00:00 AM";"06:00 - 06:59";"05069";"Nieuwezijds Kolk";"4.89373093";"52.37628765";"13"
"11/16/2020 12:00:00 AM";"06:00 - 06:59";"05097";"Centraal Station";"4.90087651";"52.37954379";"29"
"11/16/2020 12:00:00 AM";"06:00 - 06:59";"05103";"Centraal Station";"4.90127481";"52.37938365";"11"
"11/16/2020 12:00:00 AM";"06:00 - 06:59";"05105";"Centraal Station";"4.90187762";"52.37932321";"10"
"11/16/2020 12:00:00 AM";"06:00 - 06:59";"05107";"Centraal Station";"4.90195282";"52.37916174";"10"
"11/16/2020 12:00:00 AM";"06:00 - 06:59";"06029";"Elandsgracht";"4.87684368";"52.36852258";"12"
"11/16/2020 12:00:00 AM";"06:00 - 06:59";"06061";"Leidseplein";"4.88339576";"52.36305015";"17"
"11/16/2020 12:00:00 AM";"06:00 - 06:59";"06063";"Leidseplein";"4.88064547";"52.36476406";"21"
"11/16/2020 12:00:00 AM";"06:00 - 06:59";"06089";"Leidseplein";"4.88085541";"52.36309324";"16"
"11/16/2020 12:00:00 AM";"06:00 - 06:59";"07050";"Haarlemmermeerstation";"4.85744749";"52.34883508";"13"
"11/16/2020 12:00:00 AM";"06:00 - 06:59";"07193";"Station Zuid";"4.87334616";"52.34088808";"12"
"11/16/2020 12:00:00 AM";"06:00 - 06:59";"07303";"VU medisch centrum";"4.86097062";"52.33515342";"23"
"11/16/2020 12:00:00 AM";"06:00 - 06:59";"07505";"Ziekenhuis";"4.87154263";"52.29401774";"13"
"11/16/2020 12:00:00 AM";"06:00 - 06:59";"08054";"Weesperplein";"4.90941338";"52.36145933";"18"
"11/16/2020 12:00:00 AM";"06:00 - 06:59";"08239";"Rietlandpark";"4.93413567";"52.37296191";"10"
"11/16/2020 12:00:00 AM";"06:00 - 06:59";"ASA";"Amstelstation";"4.91751426";"52.34647326";"91"
"11/16/2020 12:00:00 AM";"06:00 - 06:59";"ASW";"Amstelveenseweg";"4.85798324";"52.33836671";"134"
"11/16/2020 12:00:00 AM";"06:00 - 06:59";"BLW";"Bullewijk";"4.95233581";"52.30642205";"39"
"11/16/2020 12:00:00 AM";"06:00 - 06:59";"BMR";"Station Bijlmer ArenA";"4.94713474";"52.31193030";"154"
"11/16/2020 12:00:00 AM";"06:00 - 06:59";"CLL";"Station Lelylaan";"4.83426589";"52.35766291";"34"
"11/16/2020 12:00:00 AM";"06:00 - 06:59";"CS";"Centraal Station";"4.90078150";"52.37749421";"302"
"11/16/2020 12:00:00 AM";"06:00 - 06:59";"DMZ";"Station Diemen-Zuid";"4.95713273";"52.33042795";"10"
"11/16/2020 12:00:00 AM";"06:00 - 06:59";"DPP";"De Pijp";"4.89101069";"52.35296212";"37"
"11/16/2020 12:00:00 AM";"06:00 - 06:59";"DVD";"Station Duivendrecht";"4.93678429";"52.32325190";"36"
"11/16/2020 12:00:00 AM";"06:00 - 06:59";"EPP";"Europaplein";"4.89138430";"52.34185482";"21"
"11/16/2020 12:00:00 AM";"06:00 - 06:59";"GZH";"Station Ganzenhoef";"4.97323379";"52.32331315";"12"
"11/16/2020 12:00:00 AM";"06:00 - 06:59";"HDS";"Heemstedestraat";"4.83421208";"52.35255760";"27"
"11/16/2020 12:00:00 AM";"06:00 - 06:59";"HLD";"Station Holendrecht";"4.96021904";"52.29780451";"114"
"11/16/2020 12:00:00 AM";"06:00 - 06:59";"HVW";"Henk Sneevlietweg";"4.83439318";"52.34626699";"64"
"11/16/2020 12:00:00 AM";"06:00 - 06:59";"ITW";"Isolatorweg";"4.85013475";"52.39523277";"15"
"11/16/2020 12:00:00 AM";"06:00 - 06:59";"JLS";"Jan v.Galenstraat";"4.83492461";"52.37196551";"54"
"11/16/2020 12:00:00 AM";"06:00 - 06:59";"MDW";"Van der Madeweg";"4.93048657";"52.32945629";"33"
"11/16/2020 12:00:00 AM";"06:00 - 06:59";"ND";"Noord";"4.93123182";"52.40117202";"54"
"11/16/2020 12:00:00 AM";"06:00 - 06:59";"NDP";"Noorderpark";"4.91789115";"52.38855518";"35"
"11/16/2020 12:00:00 AM";"06:00 - 06:59";"NMT";"Nieuwmarkt";"4.90123885";"52.37194169";"26"
"11/16/2020 12:00:00 AM";"06:00 - 06:59";"OAS";"Overamstel";"4.91815361";"52.33179879";"21"
"11/16/2020 12:00:00 AM";"06:00 - 06:59";"RAI";"Station RAI";"4.88982004";"52.33739931";"63"
"11/16/2020 12:00:00 AM";"06:00 - 06:59";"RGB";"Reigersbos";"4.97473728";"52.29566301";"20"
"11/16/2020 12:00:00 AM";"06:00 - 06:59";"RKN";"Rokin";"4.89229651";"52.36928023";"69"
"11/16/2020 12:00:00 AM";"06:00 - 06:59";"SLW";"Spaklerweg";"4.92085640";"52.33986250";"31"
"11/16/2020 12:00:00 AM";"06:00 - 06:59";"STD";"Station Sloterdijk";"4.83878389";"52.38880848";"159"
"11/16/2020 12:00:00 AM";"06:00 - 06:59";"SVT";"Strandvliet";"4.94152820";"52.31825469";"15"
"11/16/2020 12:00:00 AM";"06:00 - 06:59";"VLN";"Burg.de Vlugtlaan";"4.83809109";"52.37951196";"10"
"11/16/2020 12:00:00 AM";"06:00 - 06:59";"VSW";"Verrijn Stuartweg";"4.96693669";"52.32844093";"24"
"11/16/2020 12:00:00 AM";"06:00 - 06:59";"VZG";"Vijzelgracht";"4.89072870";"52.35980061";"39"
"11/16/2020 12:00:00 AM";"06:00 - 06:59";"WBS";"Wibautstraat";"4.91202993";"52.35428867";"61"
"11/16/2020 12:00:00 AM";"06:00 - 06:59";"WLP";"Waterlooplein";"4.90298171";"52.36697862";"85"
"11/16/2020 12:00:00 AM";"06:00 - 06:59";"WPP";"Weesperplein";"4.90787469";"52.36120146";"86"
"11/16/2020 12:00:00 AM";"06:00 - 06:59";"WTC";"Station Zuid";"4.87509853";"52.33908015";"235"
"11/16/2020 12:00:00 AM";"07:00 - 07:59";"";"Overig";"";"";"2275"
"11/16/2020 12:00:00 AM";"07:00 - 07:59";"[[ Onb";"[[ Onbekend ]]";"0.00000000";"0.00000000";"223"
"11/16/2020 12:00:00 AM";"07:00 - 07:59";"00005";"Muiderpoortstation";"4.93280219";"52.36121887";"28"
"11/16/2020 12:00:00 AM";"07:00 - 07:59";"00006";"Muiderpoortstation";"4.93368466";"52.36106048";"12"
"11/16/2020 12:00:00 AM";"07:00 - 07:59";"00008";"Dapperstraat";"4.92977913";"52.36110836";"17"
"11/16/2020 12:00:00 AM";"07:00 - 07:59";"00018";"Diemerknoop";"5.00286153";"52.33537576";"14"
"11/16/2020 12:00:00 AM";"07:00 - 07:59";"00020";"Beukenweg";"4.91674979";"52.35906203";"28"
"11/16/2020 12:00:00 AM";"07:00 - 07:59";"00021";"Beukenweg";"4.91721293";"52.35829991";"31"
"11/16/2020 12:00:00 AM";"07:00 - 07:59";"00023";"Beukenplein";"4.91809259";"52.35701816";"16"
"11/16/2020 12:00:00 AM";"07:00 - 07:59";"00029";"Oostpoort";"4.92719316";"52.35707185";"21"
"11/16/2020 12:00:00 AM";"07:00 - 07:59";"00030";"Oostpoort";"4.92694026";"52.35739442";"11"
"11/16/2020 12:00:00 AM";"07:00 - 07:59";"00150";"Tulastraat";"4.96535973";"52.31994189";"10"
"11/16/2020 12:00:00 AM";"07:00 - 07:59";"00179";"Kelbergen";"4.97179997";"52.31351146";"10"
"11/16/2020 12:00:00 AM";"07:00 - 07:59";"00205";"Station Holendrecht";"4.95865657";"52.29716971";"19"
"11/16/2020 12:00:00 AM";"07:00 - 07:59";"00239";"Anton de Komplein";"4.95597669";"52.31652866";"15"
"11/16/2020 12:00:00 AM";"07:00 - 07:59";"00441";"Muiderpoortstation";"4.93254137";"52.36088532";"10"
"11/16/2020 12:00:00 AM";"07:00 - 07:59";"00453";"Diemen Sniep";"4.96964866";"52.33644962";"43"
"11/16/2020 12:00:00 AM";"07:00 - 07:59";"00505";"Arent Krijtsstraat";"4.95469645";"52.33956859";"10"
"11/16/2020 12:00:00 AM";"07:00 - 07:59";"00538";"Station Science Park";"4.94808393";"52.35239669";"12"
"11/16/2020 12:00:00 AM";"07:00 - 07:59";"00560";"Station Bijlmer ArenA";"4.94747867";"52.31125750";"26"
"11/16/2020 12:00:00 AM";"07:00 - 07:59";"00561";"Station Bijlmer ArenA";"4.94741931";"52.31132918";"47"
"11/16/2020 12:00:00 AM";"07:00 - 07:59";"00562";"Station Bijlmer ArenA";"4.94736012";"52.31138289";"17"
"11/16/2020 12:00:00 AM";"07:00 - 07:59";"00568";"Station Bijlmer ArenA";"4.94762664";"52.31112323";"13"
"11/16/2020 12:00:00 AM";"07:00 - 07:59";"00651";"Casparuslaan";"5.03531862";"52.30911571";"10"
"11/16/2020 12:00:00 AM";"07:00 - 07:59";"00665";"Station Weesp";"5.04383463";"52.31145059";"10"
"11/16/2020 12:00:00 AM";"07:00 - 07:59";"00999";"Vinkenbrug";"4.97831599";"52.33370267";"14"
"11/16/2020 12:00:00 AM";"07:00 - 07:59";"01111";"Rode Kruisstraat";"4.92881363";"52.39488033";"20"
"11/16/2020 12:00:00 AM";"07:00 - 07:59";"01189";"Pinksterbloemstraat";"4.91221693";"52.39852684";"10"
"11/16/2020 12:00:00 AM";"07:00 - 07:59";"01191";"Pinksterbloemstraat";"4.91203754";"52.39881372";"11"
"11/16/2020 12:00:00 AM";"07:00 - 07:59";"01315";"Station Noord";"4.93339740";"52.40206112";"12"
"11/16/2020 12:00:00 AM";"07:00 - 07:59";"01316";"Station Noord";"4.93336820";"52.40204304";"20"
"11/16/2020 12:00:00 AM";"07:00 - 07:59";"01352";"Oosterlengte";"4.92206974";"52.40611555";"12"
"11/16/2020 12:00:00 AM";"07:00 - 07:59";"01365";"Atat?rk";"4.89794256";"52.40319625";"17"
"11/16/2020 12:00:00 AM";"07:00 - 07:59";"01369";"Pomonastraat";"4.89546974";"52.40886620";"11"
"11/16/2020 12:00:00 AM";"07:00 - 07:59";"02064";"Kabelweg";"4.84827817";"52.39205168";"11"
"11/16/2020 12:00:00 AM";"07:00 - 07:59";"02081";"Haparandaweg";"4.87212228";"52.39451255";"10"
"11/16/2020 12:00:00 AM";"07:00 - 07:59";"02103";"Spaarndammerstraat";"4.87765867";"52.39216375";"23"
"11/16/2020 12:00:00 AM";"07:00 - 07:59";"02106";"Assendelftstraat";"4.87943840";"52.38941217";"10"
"11/16/2020 12:00:00 AM";"07:00 - 07:59";"02114";"Haarlemmerplein";"4.88341252";"52.38484542";"31"
"11/16/2020 12:00:00 AM";"07:00 - 07:59";"02128";"G. v.Ledenberchstraat";"4.87062828";"52.37520945";"12"
"11/16/2020 12:00:00 AM";"07:00 - 07:59";"02155";"Willem de Zwijgerlaan";"4.86360306";"52.37071170";"12"
"11/16/2020 12:00:00 AM";"07:00 - 07:59";"02156";"Willem de Zwijgerlaan";"4.86425293";"52.37039101";"12"
"11/16/2020 12:00:00 AM";"07:00 - 07:59";"02158";"Adm. de Ruijterweg";"4.86096776";"52.37129320";"11"
"11/16/2020 12:00:00 AM";"07:00 - 07:59";"02222";"Jan van Galenstraat";"4.85874763";"52.37399761";"12"
"11/16/2020 12:00:00 AM";"07:00 - 07:59";"02311";"Seineweg";"4.81857317";"52.38632242";"25"
"11/16/2020 12:00:00 AM";"07:00 - 07:59";"02319";"Solebaystraat";"4.85540788";"52.38431853";"10"
"11/16/2020 12:00:00 AM";"07:00 - 07:59";"02360";"Station Sloterdijk";"4.83827278";"52.38856344";"21"
"11/16/2020 12:00:00 AM";"07:00 - 07:59";"02361";"Station Sloterdijk";"4.83931858";"52.38833460";"58"
"11/16/2020 12:00:00 AM";"07:00 - 07:59";"02365";"Station Sloterdijk";"4.83873236";"52.38822404";"10"
"11/16/2020 12:00:00 AM";"07:00 - 07:59";"02366";"Station Sloterdijk";"4.83873347";"52.38813416";"17"
"11/16/2020 12:00:00 AM";"07:00 - 07:59";"02367";"Station Sloterdijk";"4.83876429";"52.38801747";"14"
"11/16/2020 12:00:00 AM";"07:00 - 07:59";"02368";"Station Sloterdijk";"4.83877999";"52.38793665";"15"
"11/16/2020 12:00:00 AM";"07:00 - 07:59";"02370";"Station Sloterdijk";"4.83879745";"52.38771204";"43"
"11/16/2020 12:00:00 AM";"07:00 - 07:59";"03010";"Witte de Withstraat";"4.85928290";"52.36480554";"12"
"11/16/2020 12:00:00 AM";"07:00 - 07:59";"03061";"Bos en Lommerplein";"4.84523530";"52.37778328";"28"
"11/16/2020 12:00:00 AM";"07:00 - 07:59";"03076";"Jan Tooropstraat";"4.83810313";"52.37142305";"22"
"11/16/2020 12:00:00 AM";"07:00 - 07:59";"03087";"Plein '40 - '45";"4.82063128";"52.38159575";"10"
"11/16/2020 12:00:00 AM";"07:00 - 07:59";"03129";"Plein '40 - '45";"4.82112672";"52.38075328";"16"
"11/16/2020 12:00:00 AM";"07:00 - 07:59";"03145";"J. Cabeliaustraat";"4.80409638";"52.38246819";"17"
"11/16/2020 12:00:00 AM";"07:00 - 07:59";"03157";"Lambertus Zijlplein";"4.80338637";"52.37726977";"15"
"11/16/2020 12:00:00 AM";"07:00 - 07:59";"03167";"Bos en Lommerplein";"4.84650668";"52.37709704";"17"
"11/16/2020 12:00:00 AM";"07:00 - 07:59";"03181";"Jan Voermanstraat";"4.83788946";"52.36970540";"12"
"11/16/2020 12:00:00 AM";"07:00 - 07:59";"04009";"Dijkgraafplein";"4.78689401";"52.35556268";"11"
"11/16/2020 12:00:00 AM";"07:00 - 07:59";"04012";"Baden Powellweg";"4.79137362";"52.35646612";"16"
"11/16/2020 12:00:00 AM";"07:00 - 07:59";"04021";"Osdorpplein";"4.80322868";"52.35913166";"10"
"11/16/2020 12:00:00 AM";"07:00 - 07:59";"04050";"Meer en Vaart";"4.80994403";"52.35636940";"15"
"11/16/2020 12:00:00 AM";"07:00 - 07:59";"04088";"Louwesweg";"4.82436420";"52.34669608";"12"
"11/16/2020 12:00:00 AM";"07:00 - 07:59";"04112";"Johan Huizingalaan";"4.82742878";"52.34923618";"30"
"11/16/2020 12:00:00 AM";"07:00 - 07:59";"04148";"Louis Davidsstraat";"4.80952552";"52.35356316";"10"
"11/16/2020 12:00:00 AM";"07:00 - 07:59";"04195";"Station Lelylaan";"4.83460082";"52.35788018";"43"
"11/16/2020 12:00:00 AM";"07:00 - 07:59";"04196";"Station Lelylaan";"4.83382251";"52.35790351";"49"
"11/16/2020 12:00:00 AM";"07:00 - 07:59";"04267";"Schiphol Airport/Plaza";"4.76139455";"52.30887344";"31"
"11/16/2020 12:00:00 AM";"07:00 - 07:59";"04379";"Knooppunt Schiphol Nrd";"4.79320459";"52.32276196";"42"
"11/16/2020 12:00:00 AM";"07:00 - 07:59";"04402";"Matterhorn";"4.77477998";"52.35372103";"10"
"11/16/2020 12:00:00 AM";"07:00 - 07:59";"04403";"Pilatus";"4.77696371";"52.35289644";"10"
"11/16/2020 12:00:00 AM";"07:00 - 07:59";"04407";"Ecuplein";"4.78817670";"52.34970912";"10"
"11/16/2020 12:00:00 AM";"07:00 - 07:59";"04409";"Baden Powellweg";"4.79441281";"52.35092691";"14"
"11/16/2020 12:00:00 AM";"07:00 - 07:59";"04411";"Hoekenes";"4.80183430";"52.35243785";"12"
"11/16/2020 12:00:00 AM";"07:00 - 07:59";"04413";"Louis Davidsstraat";"4.80850916";"52.35383682";"18"
"11/16/2020 12:00:00 AM";"07:00 - 07:59";"05011";"Centraal Station";"4.89921803";"52.37810793";"97"
"11/16/2020 12:00:00 AM";"07:00 - 07:59";"05022";"Centraal Station";"4.90104337";"52.37771998";"75"
"11/16/2020 12:00:00 AM";"07:00 - 07:59";"05036";"Rokin";"4.89230478";"52.36985548";"10"
"11/16/2020 12:00:00 AM";"07:00 - 07:59";"05047";"Rembrandtplein";"4.89702882";"52.36623511";"13"
"11/16/2020 12:00:00 AM";"07:00 - 07:59";"05062";"Spui";"4.88925912";"52.36909673";"15"
"11/16/2020 12:00:00 AM";"07:00 - 07:59";"05065";"Dam";"4.89079364";"52.37367792";"27"
"11/16/2020 12:00:00 AM";"07:00 - 07:59";"05066";"Dam";"4.89027056";"52.37318140";"24"
"11/16/2020 12:00:00 AM";"07:00 - 07:59";"05073";"Westermarkt";"4.88453426";"52.37400204";"10"
"11/16/2020 12:00:00 AM";"07:00 - 07:59";"05074";"Westermarkt";"4.88354950";"52.37407874";"24"
"11/16/2020 12:00:00 AM";"07:00 - 07:59";"05077";"Marnixstraat";"4.87615428";"52.37228546";"14"
"11/16/2020 12:00:00 AM";"07:00 - 07:59";"05080";"Buiten Oranjestraat";"4.88782167";"52.38330923";"10"
"11/16/2020 12:00:00 AM";"07:00 - 07:59";"05090";"Westerdoksdijk";"4.89331977";"52.38551629";"11"
"11/16/2020 12:00:00 AM";"07:00 - 07:59";"05097";"Centraal Station";"4.90087651";"52.37954379";"31"
"11/16/2020 12:00:00 AM";"07:00 - 07:59";"05103";"Centraal Station";"4.90127481";"52.37938365";"18"
"11/16/2020 12:00:00 AM";"07:00 - 07:59";"05104";"Centraal Station";"4.90164343";"52.37925034";"24"
"11/16/2020 12:00:00 AM";"07:00 - 07:59";"05105";"Centraal Station";"4.90187762";"52.37932321";"15"
"11/16/2020 12:00:00 AM";"07:00 - 07:59";"05106";"Centraal Station";"4.90229030";"52.37919008";"10"
"11/16/2020 12:00:00 AM";"07:00 - 07:59";"05107";"Centraal Station";"4.90195282";"52.37916174";"11"
"11/16/2020 12:00:00 AM";"07:00 - 07:59";"06001";"Surinameplein";"4.85252231";"52.35807034";"18"
"11/16/2020 12:00:00 AM";"07:00 - 07:59";"06020";"Ten Katestraat";"4.86773990";"52.36603832";"14"
"11/16/2020 12:00:00 AM";"07:00 - 07:59";"06028";"Elandsgracht";"4.87741694";"52.36974738";"18"
"11/16/2020 12:00:00 AM";"07:00 - 07:59";"06029";"Elandsgracht";"4.87684368";"52.36852258";"37"
"11/16/2020 12:00:00 AM";"07:00 - 07:59";"06030";"Rozengracht";"4.87590932";"52.37187996";"10"
"11/16/2020 12:00:00 AM";"07:00 - 07:59";"06034";"Bilderdijkstraat";"4.87082347";"52.37105798";"11"
"11/16/2020 12:00:00 AM";"07:00 - 07:59";"06037";"Bilderdijkstraat";"4.86985701";"52.37082906";"20"
"11/16/2020 12:00:00 AM";"07:00 - 07:59";"06048";"J.P. Heijestraat";"4.86585368";"52.36037674";"19"
"11/16/2020 12:00:00 AM";"07:00 - 07:59";"06061";"Leidseplein";"4.88339576";"52.36305015";"13"
"11/16/2020 12:00:00 AM";"07:00 - 07:59";"06063";"Leidseplein";"4.88064547";"52.36476406";"11"
"11/16/2020 12:00:00 AM";"07:00 - 07:59";"06072";"Prinsengracht";"4.88428435";"52.36495933";"12"
"11/16/2020 12:00:00 AM";"07:00 - 07:59";"06076";"Koningsplein";"4.88857910";"52.36689188";"16"
"11/16/2020 12:00:00 AM";"07:00 - 07:59";"06082";"Rhijnvis Feithstraat";"4.85967683";"52.35883943";"14"
"11/16/2020 12:00:00 AM";"07:00 - 07:59";"06089";"Leidseplein";"4.88085541";"52.36309324";"27"
"11/16/2020 12:00:00 AM";"07:00 - 07:59";"06115";"Postjesweg";"4.85319014";"52.36478720";"10"
"11/16/2020 12:00:00 AM";"07:00 - 07:59";"07006";"Museumplein";"4.87980116";"52.35642881";"15"
"11/16/2020 12:00:00 AM";"07:00 - 07:59";"07007";"Museumplein";"4.87950215";"52.35690388";"40"
"11/16/2020 12:00:00 AM";"07:00 - 07:59";"07016";"Roelof Hartplein";"4.88286688";"52.35274795";"17"
"11/16/2020 12:00:00 AM";"07:00 - 07:59";"07031";"Valeriusplein";"4.86374943";"52.35333004";"15"
"11/16/2020 12:00:00 AM";"07:00 - 07:59";"07032";"Valeriusplein";"4.86326678";"52.35318410";"12"
"11/16/2020 12:00:00 AM";"07:00 - 07:59";"07049";"Hoofddorpplein";"4.84958188";"52.35117239";"11"
"11/16/2020 12:00:00 AM";"07:00 - 07:59";"07050";"Haarlemmermeerstation";"4.85744749";"52.34883508";"19"
"11/16/2020 12:00:00 AM";"07:00 - 07:59";"07083";"Gerrit v.d. Veenstraat";"4.87735929";"52.34921014";"12"
"11/16/2020 12:00:00 AM";"07:00 - 07:59";"07084";"Gerrit v.d. Veenstraat";"4.87720177";"52.34886793";"23"
"11/16/2020 12:00:00 AM";"07:00 - 07:59";"07191";"Station Zuid";"4.87340673";"52.34072657";"11"
"11/16/2020 12:00:00 AM";"07:00 - 07:59";"07193";"Station Zuid";"4.87334616";"52.34088808";"18"
"11/16/2020 12:00:00 AM";"07:00 - 07:59";"07260";"Station RAI";"4.89077724";"52.33708876";"10"
"11/16/2020 12:00:00 AM";"07:00 - 07:59";"07266";"Station Zuid";"4.87252654";"52.34070477";"21"
"11/16/2020 12:00:00 AM";"07:00 - 07:59";"07269";"Station Zuid";"4.87374306";"52.34082689";"16"
"11/16/2020 12:00:00 AM";"07:00 - 07:59";"07270";"Parnassusweg";"4.86874218";"52.33806382";"13"
"11/16/2020 12:00:00 AM";"07:00 - 07:59";"07303";"VU medisch centrum";"4.86097062";"52.33515342";"45"
"11/16/2020 12:00:00 AM";"07:00 - 07:59";"07321";"Van Baerlestraat";"4.87895796";"52.35827667";"16"
"11/16/2020 12:00:00 AM";"07:00 - 07:59";"07322";"Van Baerlestraat";"4.87971942";"52.35844171";"17"
"11/16/2020 12:00:00 AM";"07:00 - 07:59";"07323";"Rijksmuseum";"4.88355043";"52.35977029";"16"
"11/16/2020 12:00:00 AM";"07:00 - 07:59";"07339";"Nieuw Herlaer";"4.88985946";"52.32602094";"19"
"11/16/2020 12:00:00 AM";"07:00 - 07:59";"07391";"Kronenburg";"4.87070592";"52.31556694";"11"
"11/16/2020 12:00:00 AM";"07:00 - 07:59";"07419";"Van Boshuizenstraat";"4.86896941";"52.32487971";"35"
"11/16/2020 12:00:00 AM";"07:00 - 07:59";"07423";"Uilenstede";"4.86910951";"52.32167168";"11"
"11/16/2020 12:00:00 AM";"07:00 - 07:59";"07442";"Zonnestein";"4.87236664";"52.31146674";"11"
"11/16/2020 12:00:00 AM";"07:00 - 07:59";"07445";"Amstelveen Stadshart";"4.86751502";"52.30124433";"17"
"11/16/2020 12:00:00 AM";"07:00 - 07:59";"07449";"A.J. Ernststraat";"4.86879476";"52.33230287";"12"
"11/16/2020 12:00:00 AM";"07:00 - 07:59";"07504";"Langerhuize";"4.87793694";"52.29501614";"11"
"11/16/2020 12:00:00 AM";"07:00 - 07:59";"07505";"Ziekenhuis";"4.87154263";"52.29401774";"20"
"11/16/2020 12:00:00 AM";"07:00 - 07:59";"07513";"Sacharovlaan";"4.83264484";"52.28179795";"17"
"11/16/2020 12:00:00 AM";"07:00 - 07:59";"08051";"K. 's-Gravesandestr.";"4.91366120";"52.36235720";"12"
"11/16/2020 12:00:00 AM";"07:00 - 07:59";"08054";"Weesperplein";"4.90941338";"52.36145933";"19"
"11/16/2020 12:00:00 AM";"07:00 - 07:59";"08057";"Frederiksplein";"4.90024241";"52.35971430";"14"
"11/16/2020 12:00:00 AM";"07:00 - 07:59";"08072";"Vijzelgracht";"4.89159781";"52.35953462";"11"
"11/16/2020 12:00:00 AM";"07:00 - 07:59";"08080";"Spiegelgracht";"4.88691222";"52.36106979";"19"
"11/16/2020 12:00:00 AM";"07:00 - 07:59";"08129";"Molukkenstraat";"4.93861286";"52.36150167";"12"
"11/16/2020 12:00:00 AM";"07:00 - 07:59";"08139";"Zuiderzeeweg";"4.96240105";"52.37166461";"12"
"11/16/2020 12:00:00 AM";"07:00 - 07:59";"08195";"Oostenburgergracht";"4.92452709";"52.36780177";"12"
"11/16/2020 12:00:00 AM";"07:00 - 07:59";"08237";"Kattenburgerstraat";"4.92126795";"52.37614755";"10"
"11/16/2020 12:00:00 AM";"07:00 - 07:59";"08239";"Rietlandpark";"4.93413567";"52.37296191";"17"
"11/16/2020 12:00:00 AM";"07:00 - 07:59";"08241";"Zuiderzeeweg";"4.96185517";"52.37193228";"19"
"11/16/2020 12:00:00 AM";"07:00 - 07:59";"08245";"Steigereiland";"4.98012952";"52.36313467";"11"
"11/16/2020 12:00:00 AM";"07:00 - 07:59";"08247";"Vennepluimstraat";"4.99057242";"52.35769662";"17"
"11/16/2020 12:00:00 AM";"07:00 - 07:59";"08249";"Diemerparklaan";"4.99499716";"52.35532962";"16"
"11/16/2020 12:00:00 AM";"07:00 - 07:59";"08262";"IJburg";"5.00486802";"52.35112872";"41"
"11/16/2020 12:00:00 AM";"07:00 - 07:59";"08300";"P.Oosterhuisstraat";"5.00693059";"52.35193526";"14"
"11/16/2020 12:00:00 AM";"07:00 - 07:59";"09013";"Amstelstation";"4.91790223";"52.34725673";"15"
"11/16/2020 12:00:00 AM";"07:00 - 07:59";"09023";"Camperstraat";"4.91383551";"52.35840330";"10"
"11/16/2020 12:00:00 AM";"07:00 - 07:59";"09051";"Victorieplein";"4.90653699";"52.34645615";"11"
"11/16/2020 12:00:00 AM";"07:00 - 07:59";"09082";"Waalstraat";"4.89974094";"52.34656317";"11"
"11/16/2020 12:00:00 AM";"07:00 - 07:59";"09083";"Waalstraat";"4.90032528";"52.34680824";"10"
"11/16/2020 12:00:00 AM";"07:00 - 07:59";"09096";"Van Woustraat";"4.90163035";"52.35495650";"12"
"11/16/2020 12:00:00 AM";"07:00 - 07:59";"09114";"De Pijp";"4.88948829";"52.35259622";"10"
"11/16/2020 12:00:00 AM";"07:00 - 07:59";"09120";"Cornelis Troostplein";"4.89161100";"52.35046604";"12"
"11/16/2020 12:00:00 AM";"07:00 - 07:59";"ASA";"Amstelstation";"4.91751426";"52.34647326";"209"
"11/16/2020 12:00:00 AM";"07:00 - 07:59";"ASW";"Amstelveenseweg";"4.85798324";"52.33836671";"310"
"11/16/2020 12:00:00 AM";"07:00 - 07:59";"BLW";"Bullewijk";"4.95233581";"52.30642205";"90"
"11/16/2020 12:00:00 AM";"07:00 - 07:59";"BMR";"Station Bijlmer ArenA";"4.94713474";"52.31193030";"285"
"11/16/2020 12:00:00 AM";"07:00 - 07:59";"CLL";"Station Lelylaan";"4.83426589";"52.35766291";"100"
"11/16/2020 12:00:00 AM";"07:00 - 07:59";"CS";"Centraal Station";"4.90078150";"52.37749421";"453"
"11/16/2020 12:00:00 AM";"07:00 - 07:59";"DMZ";"Station Diemen-Zuid";"4.95713273";"52.33042795";"33"
"11/16/2020 12:00:00 AM";"07:00 - 07:59";"DPP";"De Pijp";"4.89101069";"52.35296212";"126"
"11/16/2020 12:00:00 AM";"07:00 - 07:59";"DVD";"Station Duivendrecht";"4.93678429";"52.32325190";"73"
"11/16/2020 12:00:00 AM";"07:00 - 07:59";"EPP";"Europaplein";"4.89138430";"52.34185482";"122"
"11/16/2020 12:00:00 AM";"07:00 - 07:59";"GN";"Gein";"4.98952268";"52.29627089";"39"
"11/16/2020 12:00:00 AM";"07:00 - 07:59";"GPP";"Gaasperplas";"4.98468551";"52.31080575";"20"
"11/16/2020 12:00:00 AM";"07:00 - 07:59";"GZH";"Station Ganzenhoef";"4.97323379";"52.32331315";"21"
"11/16/2020 12:00:00 AM";"07:00 - 07:59";"HDS";"Heemstedestraat";"4.83421208";"52.35255760";"67"
"11/16/2020 12:00:00 AM";"07:00 - 07:59";"HLD";"Station Holendrecht";"4.96021904";"52.29780451";"343"
"11/16/2020 12:00:00 AM";"07:00 - 07:59";"HVW";"Henk Sneevlietweg";"4.83439318";"52.34626699";"150"
"11/16/2020 12:00:00 AM";"07:00 - 07:59";"ITW";"Isolatorweg";"4.85013475";"52.39523277";"52"
"11/16/2020 12:00:00 AM";"07:00 - 07:59";"JLS";"Jan v.Galenstraat";"4.83492461";"52.37196551";"163"
"11/16/2020 12:00:00 AM";"07:00 - 07:59";"KEN";"Kraaienneststation";"4.97963450";"52.31632492";"35"
"11/16/2020 12:00:00 AM";"07:00 - 07:59";"MDW";"Van der Madeweg";"4.93048657";"52.32945629";"62"
"11/16/2020 12:00:00 AM";"07:00 - 07:59";"ND";"Noord";"4.93123182";"52.40117202";"146"
"11/16/2020 12:00:00 AM";"07:00 - 07:59";"NDP";"Noorderpark";"4.91789115";"52.38855518";"70"
"11/16/2020 12:00:00 AM";"07:00 - 07:59";"NMT";"Nieuwmarkt";"4.90123885";"52.37194169";"49"
"11/16/2020 12:00:00 AM";"07:00 - 07:59";"OAS";"Overamstel";"4.91815361";"52.33179879";"51"
"11/16/2020 12:00:00 AM";"07:00 - 07:59";"PJW";"Postjesweg";"4.83385543";"52.36468044";"41"
"11/16/2020 12:00:00 AM";"07:00 - 07:59";"RAI";"Station RAI";"4.88982004";"52.33739931";"113"
"11/16/2020 12:00:00 AM";"07:00 - 07:59";"RGB";"Reigersbos";"4.97473728";"52.29566301";"56"
"11/16/2020 12:00:00 AM";"07:00 - 07:59";"RKN";"Rokin";"4.89229651";"52.36928023";"137"
"11/16/2020 12:00:00 AM";"07:00 - 07:59";"SLW";"Spaklerweg";"4.92085640";"52.33986250";"72"
"11/16/2020 12:00:00 AM";"07:00 - 07:59";"STD";"Station Sloterdijk";"4.83878389";"52.38880848";"219"
"11/16/2020 12:00:00 AM";"07:00 - 07:59";"SVT";"Strandvliet";"4.94152820";"52.31825469";"54"
"11/16/2020 12:00:00 AM";"07:00 - 07:59";"VLN";"Burg.de Vlugtlaan";"4.83809109";"52.37951196";"39"
"11/16/2020 12:00:00 AM";"07:00 - 07:59";"VPD";"Venserpolder";"4.94665009";"52.32679428";"38"
"11/16/2020 12:00:00 AM";"07:00 - 07:59";"VSW";"Verrijn Stuartweg";"4.96693669";"52.32844093";"45"
"11/16/2020 12:00:00 AM";"07:00 - 07:59";"VZG";"Vijzelgracht";"4.89072870";"52.35980061";"71"
"11/16/2020 12:00:00 AM";"07:00 - 07:59";"WBS";"Wibautstraat";"4.91202993";"52.35428867";"182"
"11/16/2020 12:00:00 AM";"07:00 - 07:59";"WLP";"Waterlooplein";"4.90298171";"52.36697862";"96"
"11/16/2020 12:00:00 AM";"07:00 - 07:59";"WPP";"Weesperplein";"4.90787469";"52.36120146";"163"
"11/16/2020 12:00:00 AM";"07:00 - 07:59";"WTC";"Station Zuid";"4.87509853";"52.33908015";"512"
"11/16/2020 12:00:00 AM";"08:00 - 08:59";"";"Overig";"";"";"2220"
"11/16/2020 12:00:00 AM";"08:00 - 08:59";"[[ Onb";"[[ Onbekend ]]";"0.00000000";"0.00000000";"501"
"11/16/2020 12:00:00 AM";"08:00 - 08:59";"00001";"Muiderpoortstation";"4.93287450";"52.36132700";"10"
"11/16/2020 12:00:00 AM";"08:00 - 08:59";"00005";"Muiderpoortstation";"4.93280219";"52.36121887";"71"
"11/16/2020 12:00:00 AM";"08:00 - 08:59";"00006";"Muiderpoortstation";"4.93368466";"52.36106048";"14"
"11/16/2020 12:00:00 AM";"08:00 - 08:59";"00007";"Muiderpoortstation";"4.93356602";"52.36117686";"23"
"11/16/2020 12:00:00 AM";"08:00 - 08:59";"00008";"Dapperstraat";"4.92977913";"52.36110836";"41"
"11/16/2020 12:00:00 AM";"08:00 - 08:59";"00010";"Dapperstraat";"4.92891486";"52.36092527";"25"
"11/16/2020 12:00:00 AM";"08:00 - 08:59";"00017";"Linnaeusstraat";"4.92573745";"52.36013099";"15"
"11/16/2020 12:00:00 AM";"08:00 - 08:59";"00019";"Diemerknoop";"5.00296377";"52.33543002";"12"
"11/16/2020 12:00:00 AM";"08:00 - 08:59";"00020";"Beukenweg";"4.91674979";"52.35906203";"34"
"11/16/2020 12:00:00 AM";"08:00 - 08:59";"00021";"Beukenweg";"4.91721293";"52.35829991";"49"
"11/16/2020 12:00:00 AM";"08:00 - 08:59";"00023";"Beukenplein";"4.91809259";"52.35701816";"36"
"11/16/2020 12:00:00 AM";"08:00 - 08:59";"00029";"Oostpoort";"4.92719316";"52.35707185";"130"
"11/16/2020 12:00:00 AM";"08:00 - 08:59";"00030";"Oostpoort";"4.92694026";"52.35739442";"89"
"11/16/2020 12:00:00 AM";"08:00 - 08:59";"00039";"Hogeweg";"4.93084015";"52.35358075";"26"
"11/16/2020 12:00:00 AM";"08:00 - 08:59";"00046";"Fizeaustraat";"4.92463808";"52.34589015";"11"
"11/16/2020 12:00:00 AM";"08:00 - 08:59";"00059";"Radioweg";"4.93945830";"52.35337100";"39"
"11/16/2020 12:00:00 AM";"08:00 - 08:59";"00060";"Radioweg";"4.93979325";"52.35363291";"16"
"11/16/2020 12:00:00 AM";"08:00 - 08:59";"00066";"Hugo de Vrieslaan";"4.93540468";"52.35073118";"12"
"11/16/2020 12:00:00 AM";"08:00 - 08:59";"00070";"Kruislaan";"4.93993910";"52.34789929";"17"
"11/16/2020 12:00:00 AM";"08:00 - 08:59";"00114";"Dennenrode";"4.95213839";"52.32209601";"36"
"11/16/2020 12:00:00 AM";"08:00 - 08:59";"00116";"Station Ganzenhoef";"4.97272915";"52.32237665";"18"
"11/16/2020 12:00:00 AM";"08:00 - 08:59";"00134";"Koornhorst";"4.98400929";"52.31907218";"25"
"11/16/2020 12:00:00 AM";"08:00 - 08:59";"00135";"Koornhorst";"4.98396309";"52.31931470";"16"
"11/16/2020 12:00:00 AM";"08:00 - 08:59";"00141";"Kraaienneststation";"4.97868390";"52.31603403";"16"
"11/16/2020 12:00:00 AM";"08:00 - 08:59";"00145";"Kikkenstein";"4.97271326";"52.31621998";"14"
"11/16/2020 12:00:00 AM";"08:00 - 08:59";"00150";"Tulastraat";"4.96535973";"52.31994189";"100"
"11/16/2020 12:00:00 AM";"08:00 - 08:59";"00151";"Tulastraat";"4.96584458";"52.31985374";"84"
"11/16/2020 12:00:00 AM";"08:00 - 08:59";"00152";"Florijn";"4.95859163";"52.31758973";"13"
"11/16/2020 12:00:00 AM";"08:00 - 08:59";"00157";"Dolingadreef";"4.94847023";"52.31925132";"17"
"11/16/2020 12:00:00 AM";"08:00 - 08:59";"00158";"Dolingadreef";"4.94901581";"52.31895674";"35"
"11/16/2020 12:00:00 AM";"08:00 - 08:59";"00167";"Hogevecht";"4.95956435";"52.30947729";"13"
"11/16/2020 12:00:00 AM";"08:00 - 08:59";"00168";"Hogevecht";"4.95997517";"52.30945181";"10"
"11/16/2020 12:00:00 AM";"08:00 - 08:59";"00172";"Holendrechtplein";"4.96402882";"52.29952588";"14"
"11/16/2020 12:00:00 AM";"08:00 - 08:59";"00179";"Kelbergen";"4.97179997";"52.31351146";"12"
"11/16/2020 12:00:00 AM";"08:00 - 08:59";"00180";"Kelbergen";"4.97143303";"52.31354612";"10"
"11/16/2020 12:00:00 AM";"08:00 - 08:59";"00198";"Annie Romeinplein";"4.96998049";"52.32143226";"12"
"11/16/2020 12:00:00 AM";"08:00 - 08:59";"00238";"Anton de Komplein";"4.95413359";"52.31603659";"17"
"11/16/2020 12:00:00 AM";"08:00 - 08:59";"00250";"Station Diemen Zuid";"4.95668889";"52.33081280";"11"
"11/16/2020 12:00:00 AM";"08:00 - 08:59";"00330";"Middenweg";"4.93455629";"52.35044932";"13"
"11/16/2020 12:00:00 AM";"08:00 - 08:59";"00331";"Station Reigersbos";"4.97350466";"52.29737537";"22"
"11/16/2020 12:00:00 AM";"08:00 - 08:59";"00341";"Woudrichemstraat";"4.98882309";"52.29418337";"16"
"11/16/2020 12:00:00 AM";"08:00 - 08:59";"00345";"Station Gein";"4.98911240";"52.29625153";"14"
"11/16/2020 12:00:00 AM";"08:00 - 08:59";"00351";"Dostojevskisingel";"4.94525272";"52.32275356";"43"
"11/16/2020 12:00:00 AM";"08:00 - 08:59";"00441";"Muiderpoortstation";"4.93254137";"52.36088532";"16"
"11/16/2020 12:00:00 AM";"08:00 - 08:59";"00444";"Linnaeusstraat";"4.92490296";"52.35991203";"67"
"11/16/2020 12:00:00 AM";"08:00 - 08:59";"00453";"Diemen Sniep";"4.96964866";"52.33644962";"21"
"11/16/2020 12:00:00 AM";"08:00 - 08:59";"00491";"Science Park Aer";"4.95218495";"52.35478458";"14"
"11/16/2020 12:00:00 AM";"08:00 - 08:59";"00494";"Science Park Aqua";"4.95416922";"52.35601419";"12"
"11/16/2020 12:00:00 AM";"08:00 - 08:59";"00506";"Science Park Terra";"4.95831008";"52.35434856";"10"
"11/16/2020 12:00:00 AM";"08:00 - 08:59";"00515";"Station Duivendrecht";"4.93669692";"52.32318866";"10"
"11/16/2020 12:00:00 AM";"08:00 - 08:59";"00518";"Foppingadreef";"4.94967889";"52.31268573";"12"
"11/16/2020 12:00:00 AM";"08:00 - 08:59";"00529";"Station Science Park";"4.94782063";"52.35230583";"11"
"11/16/2020 12:00:00 AM";"08:00 - 08:59";"00538";"Station Science Park";"4.94808393";"52.35239669";"25"
"11/16/2020 12:00:00 AM";"08:00 - 08:59";"00553";"Kraaienneststation";"4.98073727";"52.31601414";"10"
"11/16/2020 12:00:00 AM";"08:00 - 08:59";"00560";"Station Bijlmer ArenA";"4.94747867";"52.31125750";"37"
"11/16/2020 12:00:00 AM";"08:00 - 08:59";"00561";"Station Bijlmer ArenA";"4.94741931";"52.31132918";"38"
"11/16/2020 12:00:00 AM";"08:00 - 08:59";"00562";"Station Bijlmer ArenA";"4.94736012";"52.31138289";"34"
"11/16/2020 12:00:00 AM";"08:00 - 08:59";"00568";"Station Bijlmer ArenA";"4.94762664";"52.31112323";"11"
"11/16/2020 12:00:00 AM";"08:00 - 08:59";"00603";"V. Houten Ind.park";"5.03580865";"52.30648376";"19"
"11/16/2020 12:00:00 AM";"08:00 - 08:59";"00651";"Casparuslaan";"5.03531862";"52.30911571";"15"
"11/16/2020 12:00:00 AM";"08:00 - 08:59";"00985";"Winkelcentrum";"4.96422695";"52.34186794";"14"
"11/16/2020 12:00:00 AM";"08:00 - 08:59";"01007";"Purmerweg";"4.94871052";"52.38999448";"11"
"11/16/2020 12:00:00 AM";"08:00 - 08:59";"01076";"Waterlandplein";"4.95247364";"52.39274059";"14"
"11/16/2020 12:00:00 AM";"08:00 - 08:59";"01078";"Dijkmanshuizenstraat";"4.95475323";"52.39549915";"32"
"11/16/2020 12:00:00 AM";"08:00 - 08:59";"01108";"J. Drijverweg";"4.94437079";"52.39943333";"15"
"11/16/2020 12:00:00 AM";"08:00 - 08:59";"01110";"Rode Kruisstraat";"4.92847908";"52.39455548";"83"
"11/16/2020 12:00:00 AM";"08:00 - 08:59";"01111";"Rode Kruisstraat";"4.92881363";"52.39488033";"141"
"11/16/2020 12:00:00 AM";"08:00 - 08:59";"01116";"Merelstraat";"4.92492850";"52.38986809";"18"
"11/16/2020 12:00:00 AM";"08:00 - 08:59";"01117";"Merelstraat";"4.92505977";"52.38995848";"22"
"11/16/2020 12:00:00 AM";"08:00 - 08:59";"01151";"Mosplein";"4.91407704";"52.39357310";"11"
"11/16/2020 12:00:00 AM";"08:00 - 08:59";"01155";"Mosplein";"4.91358361";"52.39300490";"22"
"11/16/2020 12:00:00 AM";"08:00 - 08:59";"01158";"Sneeuwbalstraat";"4.91413517";"52.39638647";"12"
"11/16/2020 12:00:00 AM";"08:00 - 08:59";"01168";"Tjalkstraat";"4.91116991";"52.40572174";"11"
"11/16/2020 12:00:00 AM";"08:00 - 08:59";"01188";"Barkpad";"4.91148172";"52.40268517";"13"
"11/16/2020 12:00:00 AM";"08:00 - 08:59";"01189";"Pinksterbloemstraat";"4.91221693";"52.39852684";"27"
"11/16/2020 12:00:00 AM";"08:00 - 08:59";"01191";"Pinksterbloemstraat";"4.91203754";"52.39881372";"60"
"11/16/2020 12:00:00 AM";"08:00 - 08:59";"01194";"Slijperweg";"4.90768400";"52.39921860";"10"
"11/16/2020 12:00:00 AM";"08:00 - 08:59";"01212";"Oostzanerdijk";"4.88149588";"52.42023965";"71"
"11/16/2020 12:00:00 AM";"08:00 - 08:59";"01237";"Beemsterstraat";"4.95210741";"52.39712521";"20"
"11/16/2020 12:00:00 AM";"08:00 - 08:59";"01278";"Statenjachtstraat";"4.91380643";"52.40790731";"16"
"11/16/2020 12:00:00 AM";"08:00 - 08:59";"01305";"Station Noord";"4.93215715";"52.40264056";"19"
"11/16/2020 12:00:00 AM";"08:00 - 08:59";"01315";"Station Noord";"4.93339740";"52.40206112";"37"
"11/16/2020 12:00:00 AM";"08:00 - 08:59";"01316";"Station Noord";"4.93336820";"52.40204304";"25"
"11/16/2020 12:00:00 AM";"08:00 - 08:59";"01347";"Nageljongenstraat";"4.89978361";"52.40815603";"13"
"11/16/2020 12:00:00 AM";"08:00 - 08:59";"01352";"Oosterlengte";"4.92206974";"52.40611555";"23"
"11/16/2020 12:00:00 AM";"08:00 - 08:59";"01363";"Buikslotermeerplein";"4.93968364";"52.39943369";"13"
"11/16/2020 12:00:00 AM";"08:00 - 08:59";"01369";"Pomonastraat";"4.89546974";"52.40886620";"13"
"11/16/2020 12:00:00 AM";"08:00 - 08:59";"01402";"Floraweg";"4.90614362";"52.39899665";"12"
"11/16/2020 12:00:00 AM";"08:00 - 08:59";"01403";"Distelweg";"4.90268094";"52.39451567";"11"
"11/16/2020 12:00:00 AM";"08:00 - 08:59";"01414";"Olof Palmeplein";"4.94012168";"52.39679298";"16"
"11/16/2020 12:00:00 AM";"08:00 - 08:59";"01417";"Johan v.Hasseltweg";"4.92309870";"52.38784770";"16"
"11/16/2020 12:00:00 AM";"08:00 - 08:59";"01422";"Noorderpark";"4.91956087";"52.38902016";"39"
"11/16/2020 12:00:00 AM";"08:00 - 08:59";"01423";"Noorderpark";"4.91921998";"52.38930641";"13"
"11/16/2020 12:00:00 AM";"08:00 - 08:59";"02018";"Koivistokade";"4.87577082";"52.39789874";"28"
"11/16/2020 12:00:00 AM";"08:00 - 08:59";"02019";"Koivistokade";"4.87537403";"52.39790601";"10"
"11/16/2020 12:00:00 AM";"08:00 - 08:59";"02064";"Kabelweg";"4.84827817";"52.39205168";"20"
"11/16/2020 12:00:00 AM";"08:00 - 08:59";"02066";"La Guardiaweg";"4.84008244";"52.39190625";"12"
"11/16/2020 12:00:00 AM";"08:00 - 08:59";"02081";"Haparandaweg";"4.87212228";"52.39451255";"54"
"11/16/2020 12:00:00 AM";"08:00 - 08:59";"02103";"Spaarndammerstraat";"4.87765867";"52.39216375";"21"
"11/16/2020 12:00:00 AM";"08:00 - 08:59";"02106";"Assendelftstraat";"4.87943840";"52.38941217";"16"
"11/16/2020 12:00:00 AM";"08:00 - 08:59";"02113";"Haarlemmerplein";"4.88371739";"52.38516129";"19"
"11/16/2020 12:00:00 AM";"08:00 - 08:59";"02114";"Haarlemmerplein";"4.88341252";"52.38484542";"34"
"11/16/2020 12:00:00 AM";"08:00 - 08:59";"02126";"Bloemgracht";"4.87658402";"52.37449829";"10"
"11/16/2020 12:00:00 AM";"08:00 - 08:59";"02130";"Hugo de Grootplein";"4.87259092";"52.37439113";"17"
"11/16/2020 12:00:00 AM";"08:00 - 08:59";"02155";"Willem de Zwijgerlaan";"4.86360306";"52.37071170";"12"
"11/16/2020 12:00:00 AM";"08:00 - 08:59";"02156";"Willem de Zwijgerlaan";"4.86425293";"52.37039101";"20"
"11/16/2020 12:00:00 AM";"08:00 - 08:59";"02157";"Adm. de Ruijterweg";"4.86009910";"52.37148707";"22"
"11/16/2020 12:00:00 AM";"08:00 - 08:59";"02158";"Adm. de Ruijterweg";"4.86096776";"52.37129320";"30"
"11/16/2020 12:00:00 AM";"08:00 - 08:59";"02160";"Haparandaweg";"4.87389760";"52.39471799";"26"
"11/16/2020 12:00:00 AM";"08:00 - 08:59";"02169";"Wiltzanghlaan";"4.85218893";"52.38206609";"10"
"11/16/2020 12:00:00 AM";"08:00 - 08:59";"02170";"Spaarndammerstraat";"4.87723089";"52.39231470";"18"
"11/16/2020 12:00:00 AM";"08:00 - 08:59";"02171";"Wiltzanghlaan";"4.85060722";"52.38290378";"11"
"11/16/2020 12:00:00 AM";"08:00 - 08:59";"02172";"Molenwerf";"4.84552895";"52.38620612";"12"
"11/16/2020 12:00:00 AM";"08:00 - 08:59";"02177";"Bos en Lommerweg";"4.85521256";"52.38101018";"11"
"11/16/2020 12:00:00 AM";"08:00 - 08:59";"02182";"Markthallen";"4.86695146";"52.37567869";"59"
"11/16/2020 12:00:00 AM";"08:00 - 08:59";"02183";"Markthallen";"4.86667150";"52.37575835";"14"
"11/16/2020 12:00:00 AM";"08:00 - 08:59";"02184";"Jan v.Galenstraat";"4.86033817";"52.37484954";"17"
"11/16/2020 12:00:00 AM";"08:00 - 08:59";"02199";"Eerste Marnixdwarsstraat";"4.88203787";"52.38302405";"12"
"11/16/2020 12:00:00 AM";"08:00 - 08:59";"02222";"Jan van Galenstraat";"4.85874763";"52.37399761";"15"
"11/16/2020 12:00:00 AM";"08:00 - 08:59";"02252";"Zekeringstraat";"4.84719064";"52.39690907";"12"
"11/16/2020 12:00:00 AM";"08:00 - 08:59";"02259";"Contactweg";"4.85657970";"52.39195435";"87"
"11/16/2020 12:00:00 AM";"08:00 - 08:59";"02260";"Contactweg";"4.85432952";"52.39215995";"35"
"11/16/2020 12:00:00 AM";"08:00 - 08:59";"02309";"Plesostraat";"4.82645527";"52.38795084";"52"
"11/16/2020 12:00:00 AM";"08:00 - 08:59";"02310";"Plesostraat";"4.82849791";"52.38788859";"32"
"11/16/2020 12:00:00 AM";"08:00 - 08:59";"02319";"Solebaystraat";"4.85540788";"52.38431853";"12"
"11/16/2020 12:00:00 AM";"08:00 - 08:59";"02320";"Van Hallstraat";"4.86782303";"52.38527240";"14"
"11/16/2020 12:00:00 AM";"08:00 - 08:59";"02321";"Van Hallstraat";"4.86864429";"52.38538386";"21"
"11/16/2020 12:00:00 AM";"08:00 - 08:59";"02361";"Station Sloterdijk";"4.83931858";"52.38833460";"79"
"11/16/2020 12:00:00 AM";"08:00 - 08:59";"02365";"Station Sloterdijk";"4.83873236";"52.38822404";"27"
"11/16/2020 12:00:00 AM";"08:00 - 08:59";"02366";"Station Sloterdijk";"4.83873347";"52.38813416";"23"
"11/16/2020 12:00:00 AM";"08:00 - 08:59";"02367";"Station Sloterdijk";"4.83876429";"52.38801747";"14"
"11/16/2020 12:00:00 AM";"08:00 - 08:59";"02368";"Station Sloterdijk";"4.83877999";"52.38793665";"17"
"11/16/2020 12:00:00 AM";"08:00 - 08:59";"02370";"Station Sloterdijk";"4.83879745";"52.38771204";"56"
"11/16/2020 12:00:00 AM";"08:00 - 08:59";"03009";"Witte de Withstraat";"4.85851970";"52.36478416";"18"
"11/16/2020 12:00:00 AM";"08:00 - 08:59";"03010";"Witte de Withstraat";"4.85928290";"52.36480554";"18"
"11/16/2020 12:00:00 AM";"08:00 - 08:59";"03022";"Mercatorplein";"4.85070310";"52.37012367";"14"
"11/16/2020 12:00:00 AM";"08:00 - 08:59";"03023";"Marco Polostraat";"4.85520189";"52.37088096";"39"
"11/16/2020 12:00:00 AM";"08:00 - 08:59";"03025";"Jan v.Galenstraat";"4.84854861";"52.37342137";"12"
"11/16/2020 12:00:00 AM";"08:00 - 08:59";"03036";"Egidiusstraat";"4.85075841";"52.37890493";"11"
"11/16/2020 12:00:00 AM";"08:00 - 08:59";"03052";"Burg. Eliasstraat";"4.82565009";"52.38077481";"36"
"11/16/2020 12:00:00 AM";"08:00 - 08:59";"03055";"Burg. Fockstraat";"4.83108040";"52.37991964";"28"
"11/16/2020 12:00:00 AM";"08:00 - 08:59";"03060";"Bos en Lommerplein";"4.84718407";"52.37815169";"13"
"11/16/2020 12:00:00 AM";"08:00 - 08:59";"03061";"Bos en Lommerplein";"4.84523530";"52.37778328";"46"
"11/16/2020 12:00:00 AM";"08:00 - 08:59";"03076";"Jan Tooropstraat";"4.83810313";"52.37142305";"28"
"11/16/2020 12:00:00 AM";"08:00 - 08:59";"03087";"Plein '40 - '45";"4.82063128";"52.38159575";"49"
"11/16/2020 12:00:00 AM";"08:00 - 08:59";"03090";"Slotermeerlaan";"4.81728149";"52.37596234";"29"
"11/16/2020 12:00:00 AM";"08:00 - 08:59";"03091";"Slotermeerlaan";"4.82076888";"52.37542183";"17"
"11/16/2020 12:00:00 AM";"08:00 - 08:59";"03097";"Burg. v. Leeuwenlaan";"4.81182601";"52.37651117";"11"
"11/16/2020 12:00:00 AM";"08:00 - 08:59";"03099";"Dr. H. Colijnstraat";"4.80672448";"52.37693566";"12"
"11/16/2020 12:00:00 AM";"08:00 - 08:59";"03103";"Confuciusplein";"4.81207122";"52.37458898";"10"
"11/16/2020 12:00:00 AM";"08:00 - 08:59";"03108";"Herman Bonpad";"4.80080718";"52.36796367";"21"
"11/16/2020 12:00:00 AM";"08:00 - 08:59";"03121";"Aalbersestraat";"4.79774249";"52.38202329";"11"
"11/16/2020 12:00:00 AM";"08:00 - 08:59";"03124";"Osdorper Ban";"4.80589840";"52.36265004";"16"
"11/16/2020 12:00:00 AM";"08:00 - 08:59";"03129";"Plein '40 - '45";"4.82112672";"52.38075328";"29"
"11/16/2020 12:00:00 AM";"08:00 - 08:59";"03132";"Burg. R?ellstraat";"4.81950345";"52.37676393";"17"
"11/16/2020 12:00:00 AM";"08:00 - 08:59";"03145";"J. Cabeliaustraat";"4.80409638";"52.38246819";"13"
"11/16/2020 12:00:00 AM";"08:00 - 08:59";"03150";"Mercatorplein";"4.85011339";"52.37031872";"15"
"11/16/2020 12:00:00 AM";"08:00 - 08:59";"03167";"Bos en Lommerplein";"4.84650668";"52.37709704";"32"
"11/16/2020 12:00:00 AM";"08:00 - 08:59";"03168";"Mercatorplein";"4.85152392";"52.37024423";"39"
"11/16/2020 12:00:00 AM";"08:00 - 08:59";"03169";"Jan v.Galenstraat";"4.83601291";"52.37301316";"13"
"11/16/2020 12:00:00 AM";"08:00 - 08:59";"03170";"Jan v.Galenstraat";"4.83495277";"52.37324190";"11"
"11/16/2020 12:00:00 AM";"08:00 - 08:59";"03171";"Burg. Rendorpstraat";"4.82768433";"52.37436719";"25"
"11/16/2020 12:00:00 AM";"08:00 - 08:59";"03172";"Burg. Rendorpstraat";"4.82691962";"52.37445346";"35"
"11/16/2020 12:00:00 AM";"08:00 - 08:59";"03178";"Mercatorplein";"4.84991664";"52.37080317";"13"
"11/16/2020 12:00:00 AM";"08:00 - 08:59";"03179";"Adm. Helfrichstraat";"4.84386882";"52.36944538";"15"
"11/16/2020 12:00:00 AM";"08:00 - 08:59";"03180";"Adm. Helfrichstraat";"4.84458860";"52.36942172";"16"
"11/16/2020 12:00:00 AM";"08:00 - 08:59";"03181";"Jan Voermanstraat";"4.83788946";"52.36970540";"32"
"11/16/2020 12:00:00 AM";"08:00 - 08:59";"03182";"Jan Voermanstraat";"4.83852226";"52.36959149";"11"
"11/16/2020 12:00:00 AM";"08:00 - 08:59";"03197";"W. Schoutenstraat";"4.85238084";"52.36737202";"18"
"11/16/2020 12:00:00 AM";"08:00 - 08:59";"03198";"W. Schoutenstraat";"4.85259061";"52.36702245";"18"
"11/16/2020 12:00:00 AM";"08:00 - 08:59";"04008";"Dijkgraafplein";"4.78646982";"52.35545267";"14"
"11/16/2020 12:00:00 AM";"08:00 - 08:59";"04009";"Dijkgraafplein";"4.78689401";"52.35556268";"17"
"11/16/2020 12:00:00 AM";"08:00 - 08:59";"04012";"Baden Powellweg";"4.79137362";"52.35646612";"28"
"11/16/2020 12:00:00 AM";"08:00 - 08:59";"04016";"Hoekenes";"4.79854723";"52.35791310";"20"
"11/16/2020 12:00:00 AM";"08:00 - 08:59";"04021";"Osdorpplein";"4.80322868";"52.35913166";"40"
"11/16/2020 12:00:00 AM";"08:00 - 08:59";"04043";"Ruimzicht";"4.80749209";"52.35978176";"24"
"11/16/2020 12:00:00 AM";"08:00 - 08:59";"04049";"Meer en Vaart";"4.81058859";"52.35647140";"15"
"11/16/2020 12:00:00 AM";"08:00 - 08:59";"04050";"Meer en Vaart";"4.80994403";"52.35636940";"49"
"11/16/2020 12:00:00 AM";"08:00 - 08:59";"04060";"Derkinderenstraat";"4.83972293";"52.35796689";"17"
"11/16/2020 12:00:00 AM";"08:00 - 08:59";"04061";"Derkinderenstraat";"4.84014895";"52.35794190";"25"
"11/16/2020 12:00:00 AM";"08:00 - 08:59";"04062";"Johan Huizingalaan";"4.82582327";"52.35781191";"19"
"11/16/2020 12:00:00 AM";"08:00 - 08:59";"04063";"Johan Huizingalaan";"4.82626398";"52.35778704";"45"
"11/16/2020 12:00:00 AM";"08:00 - 08:59";"04088";"Louwesweg";"4.82436420";"52.34669608";"12"
"11/16/2020 12:00:00 AM";"08:00 - 08:59";"04110";"Westlandgracht";"4.84581964";"52.35156868";"19"
"11/16/2020 12:00:00 AM";"08:00 - 08:59";"04111";"Delflandlaan";"4.84191575";"52.35154177";"13"
"11/16/2020 12:00:00 AM";"08:00 - 08:59";"04112";"Johan Huizingalaan";"4.82742878";"52.34923618";"36"
"11/16/2020 12:00:00 AM";"08:00 - 08:59";"04129";"Derkinderenstraat";"4.83926482";"52.36415734";"12"
"11/16/2020 12:00:00 AM";"08:00 - 08:59";"04132";"Jan Tooropstraat";"4.83537474";"52.36411231";"14"
"11/16/2020 12:00:00 AM";"08:00 - 08:59";"04133";"Robert Fruinlaan";"4.82910660";"52.36403799";"18"
"11/16/2020 12:00:00 AM";"08:00 - 08:59";"04135";"Justus Lipsiusstraat";"4.82725922";"52.36151269";"10"
"11/16/2020 12:00:00 AM";"08:00 - 08:59";"04136";"Justus Lipsiusstraat";"4.82704776";"52.36081963";"12"
"11/16/2020 12:00:00 AM";"08:00 - 08:59";"04140";"Sierplein";"4.82732630";"52.35503282";"13"
"11/16/2020 12:00:00 AM";"08:00 - 08:59";"04148";"Louis Davidsstraat";"4.80952552";"52.35356316";"79"
"11/16/2020 12:00:00 AM";"08:00 - 08:59";"04195";"Station Lelylaan";"4.83460082";"52.35788018";"130"
"11/16/2020 12:00:00 AM";"08:00 - 08:59";"04196";"Station Lelylaan";"4.83382251";"52.35790351";"68"
"11/16/2020 12:00:00 AM";"08:00 - 08:59";"04267";"Schiphol Airport/Plaza";"4.76139455";"52.30887344";"10"
"11/16/2020 12:00:00 AM";"08:00 - 08:59";"04277";"Laan v.Vlaanderen";"4.81642720";"52.34648730";"13"
"11/16/2020 12:00:00 AM";"08:00 - 08:59";"04279";"Kasterleepark";"4.81104243";"52.34638930";"14"
"11/16/2020 12:00:00 AM";"08:00 - 08:59";"04379";"Knooppunt Schiphol Nrd";"4.79320459";"52.32276196";"37"
"11/16/2020 12:00:00 AM";"08:00 - 08:59";"04402";"Matterhorn";"4.77477998";"52.35372103";"10"
"11/16/2020 12:00:00 AM";"08:00 - 08:59";"04407";"Ecuplein";"4.78817670";"52.34970912";"16"
"11/16/2020 12:00:00 AM";"08:00 - 08:59";"04409";"Baden Powellweg";"4.79441281";"52.35092691";"27"
"11/16/2020 12:00:00 AM";"08:00 - 08:59";"04411";"Hoekenes";"4.80183430";"52.35243785";"18"
"11/16/2020 12:00:00 AM";"08:00 - 08:59";"04413";"Louis Davidsstraat";"4.80850916";"52.35383682";"98"
"11/16/2020 12:00:00 AM";"08:00 - 08:59";"04414";"Louis Davidsstraat";"4.80910976";"52.35392963";"23"
"11/16/2020 12:00:00 AM";"08:00 - 08:59";"05011";"Centraal Station";"4.89921803";"52.37810793";"137"
"11/16/2020 12:00:00 AM";"08:00 - 08:59";"05022";"Centraal Station";"4.90104337";"52.37771998";"147"
"11/16/2020 12:00:00 AM";"08:00 - 08:59";"05031";"Dam";"4.89348394";"52.37341055";"19"
"11/16/2020 12:00:00 AM";"08:00 - 08:59";"05032";"Dam";"4.89549360";"52.37492885";"10"
"11/16/2020 12:00:00 AM";"08:00 - 08:59";"05036";"Rokin";"4.89230478";"52.36985548";"21"
"11/16/2020 12:00:00 AM";"08:00 - 08:59";"05046";"Rembrandtplein";"4.89627976";"52.36625897";"12"
"11/16/2020 12:00:00 AM";"08:00 - 08:59";"05047";"Rembrandtplein";"4.89702882";"52.36623511";"22"
"11/16/2020 12:00:00 AM";"08:00 - 08:59";"05061";"Spui";"4.88932991";"52.36933071";"10"
"11/16/2020 12:00:00 AM";"08:00 - 08:59";"05062";"Spui";"4.88925912";"52.36909673";"17"
"11/16/2020 12:00:00 AM";"08:00 - 08:59";"05063";"Dam";"4.89064590";"52.37244599";"16"
"11/16/2020 12:00:00 AM";"08:00 - 08:59";"05065";"Dam";"4.89079364";"52.37367792";"35"
"11/16/2020 12:00:00 AM";"08:00 - 08:59";"05066";"Dam";"4.89027056";"52.37318140";"44"
"11/16/2020 12:00:00 AM";"08:00 - 08:59";"05069";"Nieuwezijds Kolk";"4.89373093";"52.37628765";"23"
"11/16/2020 12:00:00 AM";"08:00 - 08:59";"05070";"Nieuwezijds Kolk";"4.89284106";"52.37575366";"12"
"11/16/2020 12:00:00 AM";"08:00 - 08:59";"05073";"Westermarkt";"4.88453426";"52.37400204";"35"
"11/16/2020 12:00:00 AM";"08:00 - 08:59";"05074";"Westermarkt";"4.88354950";"52.37407874";"75"
"11/16/2020 12:00:00 AM";"08:00 - 08:59";"05077";"Marnixstraat";"4.87615428";"52.37228546";"24"
"11/16/2020 12:00:00 AM";"08:00 - 08:59";"05080";"Buiten Oranjestraat";"4.88782167";"52.38330923";"18"
"11/16/2020 12:00:00 AM";"08:00 - 08:59";"05081";"Buiten Brouwersstraat";"4.89157253";"52.38150947";"11"
"11/16/2020 12:00:00 AM";"08:00 - 08:59";"05082";"Buiten Brouwersstraat";"4.89129168";"52.38167008";"21"
"11/16/2020 12:00:00 AM";"08:00 - 08:59";"05092";"Barentszplein";"4.89160204";"52.38938281";"11"
"11/16/2020 12:00:00 AM";"08:00 - 08:59";"05097";"Centraal Station";"4.90087651";"52.37954379";"42"
"11/16/2020 12:00:00 AM";"08:00 - 08:59";"05103";"Centraal Station";"4.90127481";"52.37938365";"50"
"11/16/2020 12:00:00 AM";"08:00 - 08:59";"05104";"Centraal Station";"4.90164343";"52.37925034";"12"
"11/16/2020 12:00:00 AM";"08:00 - 08:59";"05105";"Centraal Station";"4.90187762";"52.37932321";"18"
"11/16/2020 12:00:00 AM";"08:00 - 08:59";"05107";"Centraal Station";"4.90195282";"52.37916174";"15"
"11/16/2020 12:00:00 AM";"08:00 - 08:59";"05154";"Marnixstraat";"4.87536375";"52.37207533";"11"
"11/16/2020 12:00:00 AM";"08:00 - 08:59";"06001";"Surinameplein";"4.85252231";"52.35807034";"46"
"11/16/2020 12:00:00 AM";"08:00 - 08:59";"06002";"Surinameplein";"4.85090753";"52.35807202";"17"
"11/16/2020 12:00:00 AM";"08:00 - 08:59";"06015";"Postjesweg";"4.85316124";"52.36352879";"13"
"11/16/2020 12:00:00 AM";"08:00 - 08:59";"06016";"J.P. Heijestraat";"4.86239635";"52.36472951";"29"
"11/16/2020 12:00:00 AM";"08:00 - 08:59";"06017";"J.P. Heijestraat";"4.86292316";"52.36487565";"14"
"11/16/2020 12:00:00 AM";"08:00 - 08:59";"06019";"Ten Katestraat";"4.86737423";"52.36591988";"29"
"11/16/2020 12:00:00 AM";"08:00 - 08:59";"06020";"Ten Katestraat";"4.86773990";"52.36603832";"33"
"11/16/2020 12:00:00 AM";"08:00 - 08:59";"06021";"Bilderdijkstraat";"4.87176488";"52.36712545";"53"
"11/16/2020 12:00:00 AM";"08:00 - 08:59";"06023";"Bilderdijkstraat";"4.87254032";"52.36736251";"22"
"11/16/2020 12:00:00 AM";"08:00 - 08:59";"06027";"Elandsgracht";"4.87855189";"52.36808953";"23"
"11/16/2020 12:00:00 AM";"08:00 - 08:59";"06028";"Elandsgracht";"4.87741694";"52.36974738";"46"
"11/16/2020 12:00:00 AM";"08:00 - 08:59";"06029";"Elandsgracht";"4.87684368";"52.36852258";"101"
"11/16/2020 12:00:00 AM";"08:00 - 08:59";"06034";"Bilderdijkstraat";"4.87082347";"52.37105798";"17"
"11/16/2020 12:00:00 AM";"08:00 - 08:59";"06037";"Bilderdijkstraat";"4.86985701";"52.37082906";"50"
"11/16/2020 12:00:00 AM";"08:00 - 08:59";"06038";"De Clercqstraat";"4.87040279";"52.37061574";"11"
"11/16/2020 12:00:00 AM";"08:00 - 08:59";"06043";"Overtoom";"4.87510145";"52.36299659";"20"
"11/16/2020 12:00:00 AM";"08:00 - 08:59";"06044";"Overtoom";"4.87483191";"52.36345380";"17"
"11/16/2020 12:00:00 AM";"08:00 - 08:59";"06045";"1e Con. Huygensstraat";"4.87399228";"52.36242556";"33"
"11/16/2020 12:00:00 AM";"08:00 - 08:59";"06046";"1e Con. Huygensstraat";"4.87487082";"52.36262709";"52"
"11/16/2020 12:00:00 AM";"08:00 - 08:59";"06048";"J.P. Heijestraat";"4.86585368";"52.36037674";"31"
"11/16/2020 12:00:00 AM";"08:00 - 08:59";"06049";"J.P. Heijestraat";"4.86671778";"52.36055131";"12"
"11/16/2020 12:00:00 AM";"08:00 - 08:59";"06059";"Spiegelgracht";"4.88762090";"52.36071327";"16"
"11/16/2020 12:00:00 AM";"08:00 - 08:59";"06061";"Leidseplein";"4.88339576";"52.36305015";"47"
"11/16/2020 12:00:00 AM";"08:00 - 08:59";"06063";"Leidseplein";"4.88064547";"52.36476406";"33"
"11/16/2020 12:00:00 AM";"08:00 - 08:59";"06067";"Leidseplein";"4.88301434";"52.36431580";"13"
"11/16/2020 12:00:00 AM";"08:00 - 08:59";"06072";"Prinsengracht";"4.88428435";"52.36495933";"16"
"11/16/2020 12:00:00 AM";"08:00 - 08:59";"06074";"Keizersgracht";"4.88624128";"52.36588437";"17"
"11/16/2020 12:00:00 AM";"08:00 - 08:59";"06075";"Koningsplein";"4.88942793";"52.36713812";"17"
"11/16/2020 12:00:00 AM";"08:00 - 08:59";"06076";"Koningsplein";"4.88857910";"52.36689188";"37"
"11/16/2020 12:00:00 AM";"08:00 - 08:59";"06081";"Rhijnvis Feithstraat";"4.86039355";"52.35905833";"10"
"11/16/2020 12:00:00 AM";"08:00 - 08:59";"06082";"Rhijnvis Feithstraat";"4.85967683";"52.35883943";"15"
"11/16/2020 12:00:00 AM";"08:00 - 08:59";"06089";"Leidseplein";"4.88085541";"52.36309324";"62"
"11/16/2020 12:00:00 AM";"08:00 - 08:59";"06114";"Hoofdweg";"4.85444451";"52.36425359";"22"
"11/16/2020 12:00:00 AM";"08:00 - 08:59";"06115";"Postjesweg";"4.85319014";"52.36478720";"15"
"11/16/2020 12:00:00 AM";"08:00 - 08:59";"07002";"Van Baerlestraat";"4.87836936";"52.35839997";"11"
"11/16/2020 12:00:00 AM";"08:00 - 08:59";"07006";"Museumplein";"4.87980116";"52.35642881";"39"
"11/16/2020 12:00:00 AM";"08:00 - 08:59";"07007";"Museumplein";"4.87950215";"52.35690388";"80"
"11/16/2020 12:00:00 AM";"08:00 - 08:59";"07014";"Kastelenstraat";"4.87944660";"52.32583291";"11"
"11/16/2020 12:00:00 AM";"08:00 - 08:59";"07015";"Roelof Hartplein";"4.88206971";"52.35314900";"46"
"11/16/2020 12:00:00 AM";"08:00 - 08:59";"07016";"Roelof Hartplein";"4.88286688";"52.35274795";"85"
"11/16/2020 12:00:00 AM";"08:00 - 08:59";"07017";"Roelof Hartplein";"4.88206086";"52.35263666";"24"
"11/16/2020 12:00:00 AM";"08:00 - 08:59";"07021";"Kastelenstraat";"4.87955984";"52.32619291";"11"
"11/16/2020 12:00:00 AM";"08:00 - 08:59";"07027";"Corn. Schuytstraat";"4.87051458";"52.35597520";"27"
"11/16/2020 12:00:00 AM";"08:00 - 08:59";"07028";"Corn. Schuytstraat";"4.87088070";"52.35604870";"13"
"11/16/2020 12:00:00 AM";"08:00 - 08:59";"07031";"Valeriusplein";"4.86374943";"52.35333004";"26"
"11/16/2020 12:00:00 AM";"08:00 - 08:59";"07032";"Valeriusplein";"4.86326678";"52.35318410";"42"
"11/16/2020 12:00:00 AM";"08:00 - 08:59";"07033";"Amstelveenseweg";"4.85695925";"52.35161911";"14"
"11/16/2020 12:00:00 AM";"08:00 - 08:59";"07034";"Amstelveenseweg";"4.85596467";"52.35132704";"12"
"11/16/2020 12:00:00 AM";"08:00 - 08:59";"07035";"Zeilstraat";"4.85672894";"52.35124059";"20"
"11/16/2020 12:00:00 AM";"08:00 - 08:59";"07045";"Haarlemmermeerstraat";"4.85023862";"52.35512100";"12"
"11/16/2020 12:00:00 AM";"08:00 - 08:59";"07048";"Hoofddorpplein";"4.85010578";"52.35154327";"24"
"11/16/2020 12:00:00 AM";"08:00 - 08:59";"07049";"Hoofddorpplein";"4.84958188";"52.35117239";"29"
"11/16/2020 12:00:00 AM";"08:00 - 08:59";"07050";"Haarlemmermeerstation";"4.85744749";"52.34883508";"16"
"11/16/2020 12:00:00 AM";"08:00 - 08:59";"07083";"Gerrit v.d. Veenstraat";"4.87735929";"52.34921014";"83"
"11/16/2020 12:00:00 AM";"08:00 - 08:59";"07084";"Gerrit v.d. Veenstraat";"4.87720177";"52.34886793";"41"
"11/16/2020 12:00:00 AM";"08:00 - 08:59";"07087";"Stadionweg";"4.87688397";"52.34714989";"10"
"11/16/2020 12:00:00 AM";"08:00 - 08:59";"07088";"Stadionweg";"4.87687497";"52.34665553";"26"
"11/16/2020 12:00:00 AM";"08:00 - 08:59";"07097";"Olympiaplein";"4.86582821";"52.34630180";"27"
"11/16/2020 12:00:00 AM";"08:00 - 08:59";"07098";"Olympiaplein";"4.86659057";"52.34636807";"22"
"11/16/2020 12:00:00 AM";"08:00 - 08:59";"07108";"Olympiaweg";"4.85873730";"52.34528169";"15"
"11/16/2020 12:00:00 AM";"08:00 - 08:59";"07116";"Haarl'meerstation";"4.85760410";"52.34924023";"13"
"11/16/2020 12:00:00 AM";"08:00 - 08:59";"07120";"Olympiaweg";"4.85834130";"52.34526195";"14"
"11/16/2020 12:00:00 AM";"08:00 - 08:59";"07130";"Pr. Irenestraat";"4.86819699";"52.34202504";"22"
"11/16/2020 12:00:00 AM";"08:00 - 08:59";"07131";"Pr. Irenestraat";"4.86833196";"52.34303226";"34"
"11/16/2020 12:00:00 AM";"08:00 - 08:59";"07138";"De Boelelaan/VU";"4.86910356";"52.33475789";"14"
"11/16/2020 12:00:00 AM";"08:00 - 08:59";"07157";"Van Heenvlietlaan";"4.88302129";"52.32494043";"14"
"11/16/2020 12:00:00 AM";"08:00 - 08:59";"07186";"Pr. Irenestraat";"4.87677483";"52.34260161";"21"
"11/16/2020 12:00:00 AM";"08:00 - 08:59";"07190";"Station Zuid";"4.87352214";"52.34089784";"18"
"11/16/2020 12:00:00 AM";"08:00 - 08:59";"07191";"Station Zuid";"4.87340673";"52.34072657";"35"
"11/16/2020 12:00:00 AM";"08:00 - 08:59";"07193";"Station Zuid";"4.87334616";"52.34088808";"43"
"11/16/2020 12:00:00 AM";"08:00 - 08:59";"07195";"Oranjebaan";"4.87311228";"52.30278774";"31"
"11/16/2020 12:00:00 AM";"08:00 - 08:59";"07198";"Oranjebaan";"4.87333874";"52.30348977";"14"
"11/16/2020 12:00:00 AM";"08:00 - 08:59";"07207";"IJsbaanpad";"4.85756146";"52.34051291";"15"
"11/16/2020 12:00:00 AM";"08:00 - 08:59";"07266";"Station Zuid";"4.87252654";"52.34070477";"39"
"11/16/2020 12:00:00 AM";"08:00 - 08:59";"07268";"Station Zuid";"4.87428608";"52.34082026";"31"
"11/16/2020 12:00:00 AM";"08:00 - 08:59";"07269";"Station Zuid";"4.87374306";"52.34082689";"42"
"11/16/2020 12:00:00 AM";"08:00 - 08:59";"07270";"Parnassusweg";"4.86874218";"52.33806382";"27"
"11/16/2020 12:00:00 AM";"08:00 - 08:59";"07303";"VU medisch centrum";"4.86097062";"52.33515342";"43"
"11/16/2020 12:00:00 AM";"08:00 - 08:59";"07307";"Beethovenstraat";"4.87820649";"52.34700280";"12"
"11/16/2020 12:00:00 AM";"08:00 - 08:59";"07310";"Apollolaan";"4.88211179";"52.34816097";"10"
"11/16/2020 12:00:00 AM";"08:00 - 08:59";"07321";"Van Baerlestraat";"4.87895796";"52.35827667";"29"
"11/16/2020 12:00:00 AM";"08:00 - 08:59";"07322";"Van Baerlestraat";"4.87971942";"52.35844171";"47"
"11/16/2020 12:00:00 AM";"08:00 - 08:59";"07323";"Rijksmuseum";"4.88355043";"52.35977029";"22"
"11/16/2020 12:00:00 AM";"08:00 - 08:59";"07324";"Rijksmuseum";"4.88332565";"52.36017378";"19"
"11/16/2020 12:00:00 AM";"08:00 - 08:59";"07391";"Kronenburg";"4.87070592";"52.31556694";"26"
"11/16/2020 12:00:00 AM";"08:00 - 08:59";"07418";"Van Boshuizenstraat";"4.86902148";"52.32544617";"13"
"11/16/2020 12:00:00 AM";"08:00 - 08:59";"07419";"Van Boshuizenstraat";"4.86896941";"52.32487971";"178"
"11/16/2020 12:00:00 AM";"08:00 - 08:59";"07423";"Uilenstede";"4.86910951";"52.32167168";"30"
"11/16/2020 12:00:00 AM";"08:00 - 08:59";"07435";"Onderuit";"4.87243689";"52.30793483";"13"
"11/16/2020 12:00:00 AM";"08:00 - 08:59";"07439";"Oranjebaan";"4.87179001";"52.30302465";"23"
"11/16/2020 12:00:00 AM";"08:00 - 08:59";"07442";"Zonnestein";"4.87236664";"52.31146674";"18"
"11/16/2020 12:00:00 AM";"08:00 - 08:59";"07445";"Amstelveen Stadshart";"4.86751502";"52.30124433";"37"
"11/16/2020 12:00:00 AM";"08:00 - 08:59";"07448";"A.J. Ernststraat";"4.86887597";"52.33288743";"15"
"11/16/2020 12:00:00 AM";"08:00 - 08:59";"07449";"A.J. Ernststraat";"4.86879476";"52.33230287";"40"
"11/16/2020 12:00:00 AM";"08:00 - 08:59";"07504";"Langerhuize";"4.87793694";"52.29501614";"14"
"11/16/2020 12:00:00 AM";"08:00 - 08:59";"07505";"Ziekenhuis";"4.87154263";"52.29401774";"21"
"11/16/2020 12:00:00 AM";"08:00 - 08:59";"07506";"Groenhof";"4.86811736";"52.28858308";"15"
"11/16/2020 12:00:00 AM";"08:00 - 08:59";"07509";"Praam";"4.85570317";"52.27999842";"15"
"11/16/2020 12:00:00 AM";"08:00 - 08:59";"07513";"Sacharovlaan";"4.83264484";"52.28179795";"20"
"11/16/2020 12:00:00 AM";"08:00 - 08:59";"07523";"Zagerij";"4.84179654";"52.28120238";"15"
"11/16/2020 12:00:00 AM";"08:00 - 08:59";"08007";"Bob Haarmslaan";"4.96921237";"52.36876786";"67"
"11/16/2020 12:00:00 AM";"08:00 - 08:59";"08009";"Bob Haarmslaan";"4.96859205";"52.36915214";"55"
"11/16/2020 12:00:00 AM";"08:00 - 08:59";"08011";"C. van Eesterenlaan";"4.93855181";"52.37334722";"13"
"11/16/2020 12:00:00 AM";"08:00 - 08:59";"08014";"Azartplein";"4.93735640";"52.37682991";"22"
"11/16/2020 12:00:00 AM";"08:00 - 08:59";"08016";"Wittenburgergracht";"4.91969400";"52.36942754";"14"
"11/16/2020 12:00:00 AM";"08:00 - 08:59";"08027";"Kadijksplein";"4.91357159";"52.37075136";"15"
"11/16/2020 12:00:00 AM";"08:00 - 08:59";"08049";"Alexanderplein";"4.91916567";"52.36383510";"13"
"11/16/2020 12:00:00 AM";"08:00 - 08:59";"08051";"K. 's-Gravesandestr.";"4.91366120";"52.36235720";"16"
"11/16/2020 12:00:00 AM";"08:00 - 08:59";"08052";"K. 's-Gravesandestr.";"4.91550720";"52.36271509";"24"
"11/16/2020 12:00:00 AM";"08:00 - 08:59";"08053";"Weesperplein";"4.90655690";"52.36088154";"21"
"11/16/2020 12:00:00 AM";"08:00 - 08:59";"08054";"Weesperplein";"4.90941338";"52.36145933";"71"
"11/16/2020 12:00:00 AM";"08:00 - 08:59";"08057";"Frederiksplein";"4.90024241";"52.35971430";"39"
"11/16/2020 12:00:00 AM";"08:00 - 08:59";"08058";"Veelaan";"4.93961588";"52.36830916";"14"
"11/16/2020 12:00:00 AM";"08:00 - 08:59";"08066";"Frederiksplein";"4.89751569";"52.35937050";"32"
"11/16/2020 12:00:00 AM";"08:00 - 08:59";"08072";"Vijzelgracht";"4.89159781";"52.35953462";"31"
"11/16/2020 12:00:00 AM";"08:00 - 08:59";"08073";"Vijzelgracht";"4.89227386";"52.35946554";"23"
"11/16/2020 12:00:00 AM";"08:00 - 08:59";"08080";"Spiegelgracht";"4.88691222";"52.36106979";"46"
"11/16/2020 12:00:00 AM";"08:00 - 08:59";"08094";"Wijttenbachstraat";"4.92547668";"52.35979743";"16"
"11/16/2020 12:00:00 AM";"08:00 - 08:59";"08095";"Alexanderplein";"4.91969863";"52.36341478";"24"
"11/16/2020 12:00:00 AM";"08:00 - 08:59";"08096";"Alexanderplein";"4.91931589";"52.36351213";"16"
"11/16/2020 12:00:00 AM";"08:00 - 08:59";"08097";"1e v.Swindenstraat";"4.92412105";"52.36168854";"11"
"11/16/2020 12:00:00 AM";"08:00 - 08:59";"08113";"Javaplein";"4.93949828";"52.36395867";"13"
"11/16/2020 12:00:00 AM";"08:00 - 08:59";"08114";"Javaplein";"4.93955537";"52.36412066";"13"
"11/16/2020 12:00:00 AM";"08:00 - 08:59";"08120";"Insulindeweg";"4.94763926";"52.36469021";"22"
"11/16/2020 12:00:00 AM";"08:00 - 08:59";"08121";"Soembawastraat";"4.94391980";"52.36224967";"16"
"11/16/2020 12:00:00 AM";"08:00 - 08:59";"08124";"Soembawastraat";"4.94346569";"52.36214910";"37"
"11/16/2020 12:00:00 AM";"08:00 - 08:59";"08129";"Molukkenstraat";"4.93861286";"52.36150167";"33"
"11/16/2020 12:00:00 AM";"08:00 - 08:59";"08132";"Valentijnkade";"4.94079607";"52.35900236";"20"
"11/16/2020 12:00:00 AM";"08:00 - 08:59";"08138";"Zuiderzeeweg";"4.96218432";"52.37129534";"10"
"11/16/2020 12:00:00 AM";"08:00 - 08:59";"08139";"Zuiderzeeweg";"4.96240105";"52.37166461";"20"
"11/16/2020 12:00:00 AM";"08:00 - 08:59";"08179";"K. 's-Gravesandestr.";"4.91480799";"52.36220000";"21"
"11/16/2020 12:00:00 AM";"08:00 - 08:59";"08183";"Het Funen";"4.93160770";"52.36746073";"12"
"11/16/2020 12:00:00 AM";"08:00 - 08:59";"08190";"Molukkenstraat";"4.93934614";"52.36157635";"18"
"11/16/2020 12:00:00 AM";"08:00 - 08:59";"08195";"Oostenburgergracht";"4.92452709";"52.36780177";"13"
"11/16/2020 12:00:00 AM";"08:00 - 08:59";"08219";"Borneolaan";"4.93862058";"52.37090283";"23"
"11/16/2020 12:00:00 AM";"08:00 - 08:59";"08233";"C. van Eesterenlaan";"4.93812487";"52.37345346";"16"
"11/16/2020 12:00:00 AM";"08:00 - 08:59";"08235";"Muziekgeb. Bimhuis";"4.91290020";"52.37723779";"15"
"11/16/2020 12:00:00 AM";"08:00 - 08:59";"08236";"Kattenburgerstraat";"4.92203232";"52.37607865";"16"
"11/16/2020 12:00:00 AM";"08:00 - 08:59";"08237";"Kattenburgerstraat";"4.92126795";"52.37614755";"28"
"11/16/2020 12:00:00 AM";"08:00 - 08:59";"08238";"Rietlandpark";"4.93350159";"52.37322013";"22"
"11/16/2020 12:00:00 AM";"08:00 - 08:59";"08239";"Rietlandpark";"4.93413567";"52.37296191";"44"
"11/16/2020 12:00:00 AM";"08:00 - 08:59";"08241";"Zuiderzeeweg";"4.96185517";"52.37193228";"41"
"11/16/2020 12:00:00 AM";"08:00 - 08:59";"08245";"Steigereiland";"4.98012952";"52.36313467";"41"
"11/16/2020 12:00:00 AM";"08:00 - 08:59";"08247";"Vennepluimstraat";"4.99057242";"52.35769662";"27"
"11/16/2020 12:00:00 AM";"08:00 - 08:59";"08249";"Diemerparklaan";"4.99499716";"52.35532962";"30"
"11/16/2020 12:00:00 AM";"08:00 - 08:59";"08251";"Lumi?restraat";"4.99942127";"52.35298044";"13"
"11/16/2020 12:00:00 AM";"08:00 - 08:59";"08255";"Hoogte Kadijk";"4.92483038";"52.36687722";"13"
"11/16/2020 12:00:00 AM";"08:00 - 08:59";"08257";"1e Coehoornstraat";"4.92618328";"52.36808685";"14"
"11/16/2020 12:00:00 AM";"08:00 - 08:59";"08259";"1e Leeghwaterstraat";"4.93004964";"52.37047459";"14"
"11/16/2020 12:00:00 AM";"08:00 - 08:59";"08261";"Rietlandpark";"4.93481067";"52.37300943";"17"
"11/16/2020 12:00:00 AM";"08:00 - 08:59";"08262";"IJburg";"5.00486802";"52.35112872";"186"
"11/16/2020 12:00:00 AM";"08:00 - 08:59";"08292";"Zeeburgerdijk";"4.93952581";"52.36559453";"11"
"11/16/2020 12:00:00 AM";"08:00 - 08:59";"08300";"P.Oosterhuisstraat";"5.00693059";"52.35193526";"39"
"11/16/2020 12:00:00 AM";"08:00 - 08:59";"09003";"Dintelstraat";"4.89289498";"52.34192405";"21"
"11/16/2020 12:00:00 AM";"08:00 - 08:59";"09013";"Amstelstation";"4.91790223";"52.34725673";"21"
"11/16/2020 12:00:00 AM";"08:00 - 08:59";"09015";"Amstelstation";"4.91940405";"52.34679531";"14"
"11/16/2020 12:00:00 AM";"08:00 - 08:59";"09023";"Camperstraat";"4.91383551";"52.35840330";"22"
"11/16/2020 12:00:00 AM";"08:00 - 08:59";"09024";"Camperstraat";"4.91339591";"52.35832964";"14"
"11/16/2020 12:00:00 AM";"08:00 - 08:59";"09049";"Victorieplein";"4.90570139";"52.34637186";"28"
"11/16/2020 12:00:00 AM";"08:00 - 08:59";"09051";"Victorieplein";"4.90653699";"52.34645615";"19"
"11/16/2020 12:00:00 AM";"08:00 - 08:59";"09060";"Waalstraat";"4.90103893";"52.34462715";"10"
"11/16/2020 12:00:00 AM";"08:00 - 08:59";"09064";"Pres. Kennedylaan";"4.90174037";"52.34087315";"13"
"11/16/2020 12:00:00 AM";"08:00 - 08:59";"09068";"Maasstraat";"4.89636198";"52.34290018";"10"
"11/16/2020 12:00:00 AM";"08:00 - 08:59";"09078";"Maasstraat";"4.89476308";"52.34681220";"12"
"11/16/2020 12:00:00 AM";"08:00 - 08:59";"09079";"Maasstraat";"4.89545003";"52.34706671";"12"
"11/16/2020 12:00:00 AM";"08:00 - 08:59";"09082";"Waalstraat";"4.89974094";"52.34656317";"54"
"11/16/2020 12:00:00 AM";"08:00 - 08:59";"09083";"Waalstraat";"4.90032528";"52.34680824";"81"
"11/16/2020 12:00:00 AM";"08:00 - 08:59";"09091";"Lutmastraat";"4.90313216";"52.35184391";"16"
"11/16/2020 12:00:00 AM";"08:00 - 08:59";"09096";"Van Woustraat";"4.90163035";"52.35495650";"17"
"11/16/2020 12:00:00 AM";"08:00 - 08:59";"09097";"Van Woustraat";"4.90084070";"52.35468363";"47"
"11/16/2020 12:00:00 AM";"08:00 - 08:59";"09108";"2e v.d.Helststraat";"4.89423729";"52.35319131";"25"
"11/16/2020 12:00:00 AM";"08:00 - 08:59";"09109";"2e v.d.Helststraat";"4.89488170";"52.35331982";"23"
"11/16/2020 12:00:00 AM";"08:00 - 08:59";"09111";"De Pijp";"4.89073444";"52.35272728";"46"
"11/16/2020 12:00:00 AM";"08:00 - 08:59";"09114";"De Pijp";"4.88948829";"52.35259622";"31"
"11/16/2020 12:00:00 AM";"08:00 - 08:59";"09120";"Cornelis Troostplein";"4.89161100";"52.35046604";"30"
"11/16/2020 12:00:00 AM";"08:00 - 08:59";"09175";"James Wattstraat";"4.92275924";"52.35153607";"11"
"11/16/2020 12:00:00 AM";"08:00 - 08:59";"09176";"James Wattstraat";"4.92329155";"52.35116068";"35"
"11/16/2020 12:00:00 AM";"08:00 - 08:59";"ASA";"Amstelstation";"4.91751426";"52.34647326";"418"
"11/16/2020 12:00:00 AM";"08:00 - 08:59";"ASW";"Amstelveenseweg";"4.85798324";"52.33836671";"423"
"11/16/2020 12:00:00 AM";"08:00 - 08:59";"BLW";"Bullewijk";"4.95233581";"52.30642205";"153"
"11/16/2020 12:00:00 AM";"08:00 - 08:59";"BMR";"Station Bijlmer ArenA";"4.94713474";"52.31193030";"466"
"11/16/2020 12:00:00 AM";"08:00 - 08:59";"CLL";"Station Lelylaan";"4.83426589";"52.35766291";"273"
"11/16/2020 12:00:00 AM";"08:00 - 08:59";"CS";"Centraal Station";"4.90078150";"52.37749421";"605"
"11/16/2020 12:00:00 AM";"08:00 - 08:59";"DMZ";"Station Diemen-Zuid";"4.95713273";"52.33042795";"41"
"11/16/2020 12:00:00 AM";"08:00 - 08:59";"DPP";"De Pijp";"4.89101069";"52.35296212";"442"
"11/16/2020 12:00:00 AM";"08:00 - 08:59";"DVD";"Station Duivendrecht";"4.93678429";"52.32325190";"85"
"11/16/2020 12:00:00 AM";"08:00 - 08:59";"EPP";"Europaplein";"4.89138430";"52.34185482";"462"
"11/16/2020 12:00:00 AM";"08:00 - 08:59";"GN";"Gein";"4.98952268";"52.29627089";"86"
"11/16/2020 12:00:00 AM";"08:00 - 08:59";"GPP";"Gaasperplas";"4.98468551";"52.31080575";"36"
"11/16/2020 12:00:00 AM";"08:00 - 08:59";"GZH";"Station Ganzenhoef";"4.97323379";"52.32331315";"92"
"11/16/2020 12:00:00 AM";"08:00 - 08:59";"HDS";"Heemstedestraat";"4.83421208";"52.35255760";"97"
"11/16/2020 12:00:00 AM";"08:00 - 08:59";"HLD";"Station Holendrecht";"4.96021904";"52.29780451";"507"
"11/16/2020 12:00:00 AM";"08:00 - 08:59";"HVW";"Henk Sneevlietweg";"4.83439318";"52.34626699";"549"
"11/16/2020 12:00:00 AM";"08:00 - 08:59";"ITW";"Isolatorweg";"4.85013475";"52.39523277";"239"
"11/16/2020 12:00:00 AM";"08:00 - 08:59";"JLS";"Jan v.Galenstraat";"4.83492461";"52.37196551";"361"
"11/16/2020 12:00:00 AM";"08:00 - 08:59";"KEN";"Kraaienneststation";"4.97963450";"52.31632492";"39"
"11/16/2020 12:00:00 AM";"08:00 - 08:59";"MDW";"Van der Madeweg";"4.93048657";"52.32945629";"122"
"11/16/2020 12:00:00 AM";"08:00 - 08:59";"ND";"Noord";"4.93123182";"52.40117202";"247"
"11/16/2020 12:00:00 AM";"08:00 - 08:59";"NDP";"Noorderpark";"4.91789115";"52.38855518";"248"
"11/16/2020 12:00:00 AM";"08:00 - 08:59";"NMT";"Nieuwmarkt";"4.90123885";"52.37194169";"135"
"11/16/2020 12:00:00 AM";"08:00 - 08:59";"OAS";"Overamstel";"4.91815361";"52.33179879";"105"
"11/16/2020 12:00:00 AM";"08:00 - 08:59";"PJW";"Postjesweg";"4.83385543";"52.36468044";"343"
"11/16/2020 12:00:00 AM";"08:00 - 08:59";"RAI";"Station RAI";"4.88982004";"52.33739931";"253"
"11/16/2020 12:00:00 AM";"08:00 - 08:59";"RGB";"Reigersbos";"4.97473728";"52.29566301";"206"
"11/16/2020 12:00:00 AM";"08:00 - 08:59";"RKN";"Rokin";"4.89229651";"52.36928023";"323"
"11/16/2020 12:00:00 AM";"08:00 - 08:59";"SLW";"Spaklerweg";"4.92085640";"52.33986250";"148"
"11/16/2020 12:00:00 AM";"08:00 - 08:59";"STD";"Station Sloterdijk";"4.83878389";"52.38880848";"307"
"11/16/2020 12:00:00 AM";"08:00 - 08:59";"SVT";"Strandvliet";"4.94152820";"52.31825469";"142"
"11/16/2020 12:00:00 AM";"08:00 - 08:59";"VLN";"Burg.de Vlugtlaan";"4.83809109";"52.37951196";"61"
"11/16/2020 12:00:00 AM";"08:00 - 08:59";"VPD";"Venserpolder";"4.94665009";"52.32679428";"106"
"11/16/2020 12:00:00 AM";"08:00 - 08:59";"VSW";"Verrijn Stuartweg";"4.96693669";"52.32844093";"59"
"11/16/2020 12:00:00 AM";"08:00 - 08:59";"VZG";"Vijzelgracht";"4.89072870";"52.35980061";"222"
"11/16/2020 12:00:00 AM";"08:00 - 08:59";"WBS";"Wibautstraat";"4.91202993";"52.35428867";"291"
"11/16/2020 12:00:00 AM";"08:00 - 08:59";"WLP";"Waterlooplein";"4.90298171";"52.36697862";"280"
"11/16/2020 12:00:00 AM";"08:00 - 08:59";"WPP";"Weesperplein";"4.90787469";"52.36120146";"448"
"11/16/2020 12:00:00 AM";"08:00 - 08:59";"WTC";"Station Zuid";"4.87509853";"52.33908015";"992"
"11/16/2020 12:00:00 AM";"09:00 - 09:59";"";"Overig";"";"";"2419"
"11/16/2020 12:00:00 AM";"09:00 - 09:59";"[[ Onb";"[[ Onbekend ]]";"0.00000000";"0.00000000";"273"
"11/16/2020 12:00:00 AM";"09:00 - 09:59";"00001";"Muiderpoortstation";"4.93287450";"52.36132700";"14"
"11/16/2020 12:00:00 AM";"09:00 - 09:59";"00005";"Muiderpoortstation";"4.93280219";"52.36121887";"31"
"11/16/2020 12:00:00 AM";"09:00 - 09:59";"00007";"Muiderpoortstation";"4.93356602";"52.36117686";"19"
"11/16/2020 12:00:00 AM";"09:00 - 09:59";"00008";"Dapperstraat";"4.92977913";"52.36110836";"43"
"11/16/2020 12:00:00 AM";"09:00 - 09:59";"00017";"Linnaeusstraat";"4.92573745";"52.36013099";"15"
"11/16/2020 12:00:00 AM";"09:00 - 09:59";"00020";"Beukenweg";"4.91674979";"52.35906203";"13"
"11/16/2020 12:00:00 AM";"09:00 - 09:59";"00021";"Beukenweg";"4.91721293";"52.35829991";"44"
"11/16/2020 12:00:00 AM";"09:00 - 09:59";"00023";"Beukenplein";"4.91809259";"52.35701816";"20"
"11/16/2020 12:00:00 AM";"09:00 - 09:59";"00029";"Oostpoort";"4.92719316";"52.35707185";"30"
"11/16/2020 12:00:00 AM";"09:00 - 09:59";"00030";"Oostpoort";"4.92694026";"52.35739442";"26"
"11/16/2020 12:00:00 AM";"09:00 - 09:59";"00039";"Hogeweg";"4.93084015";"52.35358075";"15"
"11/16/2020 12:00:00 AM";"09:00 - 09:59";"00040";"Hogeweg";"4.93135765";"52.35321425";"13"
"11/16/2020 12:00:00 AM";"09:00 - 09:59";"00070";"Kruislaan";"4.93993910";"52.34789929";"15"
"11/16/2020 12:00:00 AM";"09:00 - 09:59";"00114";"Dennenrode";"4.95213839";"52.32209601";"18"
"11/16/2020 12:00:00 AM";"09:00 - 09:59";"00116";"Station Ganzenhoef";"4.97272915";"52.32237665";"10"
"11/16/2020 12:00:00 AM";"09:00 - 09:59";"00141";"Kraaienneststation";"4.97868390";"52.31603403";"24"
"11/16/2020 12:00:00 AM";"09:00 - 09:59";"00146";"Gooioord";"4.96906535";"52.32048532";"12"
"11/16/2020 12:00:00 AM";"09:00 - 09:59";"00150";"Tulastraat";"4.96535973";"52.31994189";"52"
"11/16/2020 12:00:00 AM";"09:00 - 09:59";"00151";"Tulastraat";"4.96584458";"52.31985374";"44"
"11/16/2020 12:00:00 AM";"09:00 - 09:59";"00197";"Annie Romeinplein";"4.97162041";"52.32173463";"20"
"11/16/2020 12:00:00 AM";"09:00 - 09:59";"00205";"Station Holendrecht";"4.95865657";"52.29716971";"10"
"11/16/2020 12:00:00 AM";"09:00 - 09:59";"00238";"Anton de Komplein";"4.95413359";"52.31603659";"29"
"11/16/2020 12:00:00 AM";"09:00 - 09:59";"00239";"Anton de Komplein";"4.95597669";"52.31652866";"17"
"11/16/2020 12:00:00 AM";"09:00 - 09:59";"00331";"Station Reigersbos";"4.97350466";"52.29737537";"16"
"11/16/2020 12:00:00 AM";"09:00 - 09:59";"00345";"Station Gein";"4.98911240";"52.29625153";"10"
"11/16/2020 12:00:00 AM";"09:00 - 09:59";"00351";"Dostojevskisingel";"4.94525272";"52.32275356";"14"
"11/16/2020 12:00:00 AM";"09:00 - 09:59";"00432";"Diemerbrug";"4.96142958";"52.33824484";"10"
"11/16/2020 12:00:00 AM";"09:00 - 09:59";"00441";"Muiderpoortstation";"4.93254137";"52.36088532";"10"
"11/16/2020 12:00:00 AM";"09:00 - 09:59";"00444";"Linnaeusstraat";"4.92490296";"52.35991203";"43"
"11/16/2020 12:00:00 AM";"09:00 - 09:59";"00491";"Science Park Aer";"4.95218495";"52.35478458";"16"
"11/16/2020 12:00:00 AM";"09:00 - 09:59";"00505";"Arent Krijtsstraat";"4.95469645";"52.33956859";"11"
"11/16/2020 12:00:00 AM";"09:00 - 09:59";"00515";"Station Duivendrecht";"4.93669692";"52.32318866";"12"
"11/16/2020 12:00:00 AM";"09:00 - 09:59";"00518";"Foppingadreef";"4.94967889";"52.31268573";"10"
"11/16/2020 12:00:00 AM";"09:00 - 09:59";"00538";"Station Science Park";"4.94808393";"52.35239669";"17"
"11/16/2020 12:00:00 AM";"09:00 - 09:59";"00561";"Station Bijlmer ArenA";"4.94741931";"52.31132918";"17"
"11/16/2020 12:00:00 AM";"09:00 - 09:59";"00562";"Station Bijlmer ArenA";"4.94736012";"52.31138289";"10"
"11/16/2020 12:00:00 AM";"09:00 - 09:59";"00568";"Station Bijlmer ArenA";"4.94762664";"52.31112323";"10"
"11/16/2020 12:00:00 AM";"09:00 - 09:59";"00665";"Station Weesp";"5.04383463";"52.31145059";"10"
"11/16/2020 12:00:00 AM";"09:00 - 09:59";"01076";"Waterlandplein";"4.95247364";"52.39274059";"12"
"11/16/2020 12:00:00 AM";"09:00 - 09:59";"01110";"Rode Kruisstraat";"4.92847908";"52.39455548";"38"
"11/16/2020 12:00:00 AM";"09:00 - 09:59";"01111";"Rode Kruisstraat";"4.92881363";"52.39488033";"79"
"11/16/2020 12:00:00 AM";"09:00 - 09:59";"01155";"Mosplein";"4.91358361";"52.39300490";"12"
"11/16/2020 12:00:00 AM";"09:00 - 09:59";"01203";"Meteorensingel";"4.89157478";"52.41021609";"10"
"11/16/2020 12:00:00 AM";"09:00 - 09:59";"01278";"Statenjachtstraat";"4.91380643";"52.40790731";"13"
"11/16/2020 12:00:00 AM";"09:00 - 09:59";"01305";"Station Noord";"4.93215715";"52.40264056";"11"
"11/16/2020 12:00:00 AM";"09:00 - 09:59";"01315";"Station Noord";"4.93339740";"52.40206112";"23"
"11/16/2020 12:00:00 AM";"09:00 - 09:59";"01316";"Station Noord";"4.93336820";"52.40204304";"19"
"11/16/2020 12:00:00 AM";"09:00 - 09:59";"01363";"Buikslotermeerplein";"4.93968364";"52.39943369";"11"
"11/16/2020 12:00:00 AM";"09:00 - 09:59";"01365";"Atat?rk";"4.89794256";"52.40319625";"16"
"11/16/2020 12:00:00 AM";"09:00 - 09:59";"01417";"Johan v.Hasseltweg";"4.92309870";"52.38784770";"15"
"11/16/2020 12:00:00 AM";"09:00 - 09:59";"01422";"Noorderpark";"4.91956087";"52.38902016";"23"
"11/16/2020 12:00:00 AM";"09:00 - 09:59";"02018";"Koivistokade";"4.87577082";"52.39789874";"24"
"11/16/2020 12:00:00 AM";"09:00 - 09:59";"02019";"Koivistokade";"4.87537403";"52.39790601";"16"
"11/16/2020 12:00:00 AM";"09:00 - 09:59";"02081";"Haparandaweg";"4.87212228";"52.39451255";"19"
"11/16/2020 12:00:00 AM";"09:00 - 09:59";"02103";"Spaarndammerstraat";"4.87765867";"52.39216375";"21"
"11/16/2020 12:00:00 AM";"09:00 - 09:59";"02113";"Haarlemmerplein";"4.88371739";"52.38516129";"19"
"11/16/2020 12:00:00 AM";"09:00 - 09:59";"02114";"Haarlemmerplein";"4.88341252";"52.38484542";"34"
"11/16/2020 12:00:00 AM";"09:00 - 09:59";"02132";"Fred. Hendrikplants.";"4.87543499";"52.37862768";"18"
"11/16/2020 12:00:00 AM";"09:00 - 09:59";"02155";"Willem de Zwijgerlaan";"4.86360306";"52.37071170";"24"
"11/16/2020 12:00:00 AM";"09:00 - 09:59";"02156";"Willem de Zwijgerlaan";"4.86425293";"52.37039101";"19"
"11/16/2020 12:00:00 AM";"09:00 - 09:59";"02157";"Adm. de Ruijterweg";"4.86009910";"52.37148707";"13"
"11/16/2020 12:00:00 AM";"09:00 - 09:59";"02158";"Adm. de Ruijterweg";"4.86096776";"52.37129320";"19"
"11/16/2020 12:00:00 AM";"09:00 - 09:59";"02160";"Haparandaweg";"4.87389760";"52.39471799";"15"
"11/16/2020 12:00:00 AM";"09:00 - 09:59";"02170";"Spaarndammerstraat";"4.87723089";"52.39231470";"13"
"11/16/2020 12:00:00 AM";"09:00 - 09:59";"02177";"Bos en Lommerweg";"4.85521256";"52.38101018";"12"
"11/16/2020 12:00:00 AM";"09:00 - 09:59";"02182";"Markthallen";"4.86695146";"52.37567869";"65"
"11/16/2020 12:00:00 AM";"09:00 - 09:59";"02183";"Markthallen";"4.86667150";"52.37575835";"19"
"11/16/2020 12:00:00 AM";"09:00 - 09:59";"02193";"Marnixplein";"4.87844490";"52.37741832";"20"
"11/16/2020 12:00:00 AM";"09:00 - 09:59";"02199";"Eerste Marnixdwarsstraat";"4.88203787";"52.38302405";"11"
"11/16/2020 12:00:00 AM";"09:00 - 09:59";"02221";"Jan v.Galenstraat";"4.85842340";"52.37532634";"11"
"11/16/2020 12:00:00 AM";"09:00 - 09:59";"02222";"Jan van Galenstraat";"4.85874763";"52.37399761";"22"
"11/16/2020 12:00:00 AM";"09:00 - 09:59";"02259";"Contactweg";"4.85657970";"52.39195435";"45"
"11/16/2020 12:00:00 AM";"09:00 - 09:59";"02260";"Contactweg";"4.85432952";"52.39215995";"20"
"11/16/2020 12:00:00 AM";"09:00 - 09:59";"02301";"Fred. Hendrikplants.";"4.87521585";"52.37852787";"15"
"11/16/2020 12:00:00 AM";"09:00 - 09:59";"02302";"Fred. Hendrikplants.";"4.87549415";"52.37859198";"11"
"11/16/2020 12:00:00 AM";"09:00 - 09:59";"02309";"Plesostraat";"4.82645527";"52.38795084";"38"
"11/16/2020 12:00:00 AM";"09:00 - 09:59";"02310";"Plesostraat";"4.82849791";"52.38788859";"30"
"11/16/2020 12:00:00 AM";"09:00 - 09:59";"02319";"Solebaystraat";"4.85540788";"52.38431853";"11"
"11/16/2020 12:00:00 AM";"09:00 - 09:59";"02321";"Van Hallstraat";"4.86864429";"52.38538386";"21"
"11/16/2020 12:00:00 AM";"09:00 - 09:59";"02361";"Station Sloterdijk";"4.83931858";"52.38833460";"46"
"11/16/2020 12:00:00 AM";"09:00 - 09:59";"02365";"Station Sloterdijk";"4.83873236";"52.38822404";"14"
"11/16/2020 12:00:00 AM";"09:00 - 09:59";"02366";"Station Sloterdijk";"4.83873347";"52.38813416";"12"
"11/16/2020 12:00:00 AM";"09:00 - 09:59";"02367";"Station Sloterdijk";"4.83876429";"52.38801747";"14"
"11/16/2020 12:00:00 AM";"09:00 - 09:59";"02368";"Station Sloterdijk";"4.83877999";"52.38793665";"11"
"11/16/2020 12:00:00 AM";"09:00 - 09:59";"02370";"Station Sloterdijk";"4.83879745";"52.38771204";"21"
"11/16/2020 12:00:00 AM";"09:00 - 09:59";"03009";"Witte de Withstraat";"4.85851970";"52.36478416";"36"
"11/16/2020 12:00:00 AM";"09:00 - 09:59";"03010";"Witte de Withstraat";"4.85928290";"52.36480554";"26"
"11/16/2020 12:00:00 AM";"09:00 - 09:59";"03025";"Jan v.Galenstraat";"4.84854861";"52.37342137";"13"
"11/16/2020 12:00:00 AM";"09:00 - 09:59";"03034";"Erasmusgracht";"4.84691117";"52.37644278";"13"
"11/16/2020 12:00:00 AM";"09:00 - 09:59";"03052";"Burg. Eliasstraat";"4.82565009";"52.38077481";"19"
"11/16/2020 12:00:00 AM";"09:00 - 09:59";"03055";"Burg. Fockstraat";"4.83108040";"52.37991964";"15"
"11/16/2020 12:00:00 AM";"09:00 - 09:59";"03061";"Bos en Lommerplein";"4.84523530";"52.37778328";"28"
"11/16/2020 12:00:00 AM";"09:00 - 09:59";"03076";"Jan Tooropstraat";"4.83810313";"52.37142305";"20"
"11/16/2020 12:00:00 AM";"09:00 - 09:59";"03087";"Plein '40 - '45";"4.82063128";"52.38159575";"21"
"11/16/2020 12:00:00 AM";"09:00 - 09:59";"03090";"Slotermeerlaan";"4.81728149";"52.37596234";"10"
"11/16/2020 12:00:00 AM";"09:00 - 09:59";"03108";"Herman Bonpad";"4.80080718";"52.36796367";"71"
"11/16/2020 12:00:00 AM";"09:00 - 09:59";"03109";"Herman Bonpad";"4.80064754";"52.36893356";"27"
"11/16/2020 12:00:00 AM";"09:00 - 09:59";"03117";"Sam van Houtenstraat";"4.79790430";"52.37868964";"17"
"11/16/2020 12:00:00 AM";"09:00 - 09:59";"03121";"Aalbersestraat";"4.79774249";"52.38202329";"17"
"11/16/2020 12:00:00 AM";"09:00 - 09:59";"03124";"Osdorper Ban";"4.80589840";"52.36265004";"11"
"11/16/2020 12:00:00 AM";"09:00 - 09:59";"03129";"Plein '40 - '45";"4.82112672";"52.38075328";"24"
"11/16/2020 12:00:00 AM";"09:00 - 09:59";"03145";"J. Cabeliaustraat";"4.80409638";"52.38246819";"10"
"11/16/2020 12:00:00 AM";"09:00 - 09:59";"03150";"Mercatorplein";"4.85011339";"52.37031872";"11"
"11/16/2020 12:00:00 AM";"09:00 - 09:59";"03167";"Bos en Lommerplein";"4.84650668";"52.37709704";"29"
"11/16/2020 12:00:00 AM";"09:00 - 09:59";"03168";"Mercatorplein";"4.85152392";"52.37024423";"11"
"11/16/2020 12:00:00 AM";"09:00 - 09:59";"03171";"Burg. Rendorpstraat";"4.82768433";"52.37436719";"11"
"11/16/2020 12:00:00 AM";"09:00 - 09:59";"03172";"Burg. Rendorpstraat";"4.82691962";"52.37445346";"18"
"11/16/2020 12:00:00 AM";"09:00 - 09:59";"03178";"Mercatorplein";"4.84991664";"52.37080317";"18"
"11/16/2020 12:00:00 AM";"09:00 - 09:59";"04008";"Dijkgraafplein";"4.78646982";"52.35545267";"12"
"11/16/2020 12:00:00 AM";"09:00 - 09:59";"04009";"Dijkgraafplein";"4.78689401";"52.35556268";"10"
"11/16/2020 12:00:00 AM";"09:00 - 09:59";"04012";"Baden Powellweg";"4.79137362";"52.35646612";"20"
"11/16/2020 12:00:00 AM";"09:00 - 09:59";"04016";"Hoekenes";"4.79854723";"52.35791310";"10"
"11/16/2020 12:00:00 AM";"09:00 - 09:59";"04021";"Osdorpplein";"4.80322868";"52.35913166";"40"
"11/16/2020 12:00:00 AM";"09:00 - 09:59";"04043";"Ruimzicht";"4.80749209";"52.35978176";"27"
"11/16/2020 12:00:00 AM";"09:00 - 09:59";"04050";"Meer en Vaart";"4.80994403";"52.35636940";"33"
"11/16/2020 12:00:00 AM";"09:00 - 09:59";"04060";"Derkinderenstraat";"4.83972293";"52.35796689";"11"
"11/16/2020 12:00:00 AM";"09:00 - 09:59";"04062";"Johan Huizingalaan";"4.82582327";"52.35781191";"11"
"11/16/2020 12:00:00 AM";"09:00 - 09:59";"04063";"Johan Huizingalaan";"4.82626398";"52.35778704";"21"
"11/16/2020 12:00:00 AM";"09:00 - 09:59";"04064";"Ruimzicht";"4.80806527";"52.35860717";"10"
"11/16/2020 12:00:00 AM";"09:00 - 09:59";"04112";"Johan Huizingalaan";"4.82742878";"52.34923618";"22"
"11/16/2020 12:00:00 AM";"09:00 - 09:59";"04133";"Robert Fruinlaan";"4.82910660";"52.36403799";"10"
"11/16/2020 12:00:00 AM";"09:00 - 09:59";"04136";"Justus Lipsiusstraat";"4.82704776";"52.36081963";"10"
"11/16/2020 12:00:00 AM";"09:00 - 09:59";"04148";"Louis Davidsstraat";"4.80952552";"52.35356316";"30"
"11/16/2020 12:00:00 AM";"09:00 - 09:59";"04195";"Station Lelylaan";"4.83460082";"52.35788018";"45"
"11/16/2020 12:00:00 AM";"09:00 - 09:59";"04196";"Station Lelylaan";"4.83382251";"52.35790351";"47"
"11/16/2020 12:00:00 AM";"09:00 - 09:59";"04267";"Schiphol Airport/Plaza";"4.76139455";"52.30887344";"11"
"11/16/2020 12:00:00 AM";"09:00 - 09:59";"04277";"Laan v.Vlaanderen";"4.81642720";"52.34648730";"10"
"11/16/2020 12:00:00 AM";"09:00 - 09:59";"04379";"Knooppunt Schiphol Nrd";"4.79320459";"52.32276196";"14"
"11/16/2020 12:00:00 AM";"09:00 - 09:59";"04402";"Matterhorn";"4.77477998";"52.35372103";"11"
"11/16/2020 12:00:00 AM";"09:00 - 09:59";"04409";"Baden Powellweg";"4.79441281";"52.35092691";"51"
"11/16/2020 12:00:00 AM";"09:00 - 09:59";"04411";"Hoekenes";"4.80183430";"52.35243785";"17"
"11/16/2020 12:00:00 AM";"09:00 - 09:59";"04413";"Louis Davidsstraat";"4.80850916";"52.35383682";"30"
"11/16/2020 12:00:00 AM";"09:00 - 09:59";"05011";"Centraal Station";"4.89921803";"52.37810793";"102"
"11/16/2020 12:00:00 AM";"09:00 - 09:59";"05022";"Centraal Station";"4.90104337";"52.37771998";"109"
"11/16/2020 12:00:00 AM";"09:00 - 09:59";"05031";"Dam";"4.89348394";"52.37341055";"20"
"11/16/2020 12:00:00 AM";"09:00 - 09:59";"05032";"Dam";"4.89549360";"52.37492885";"10"
"11/16/2020 12:00:00 AM";"09:00 - 09:59";"05035";"Rokin";"4.89210433";"52.36939627";"16"
"11/16/2020 12:00:00 AM";"09:00 - 09:59";"05036";"Rokin";"4.89230478";"52.36985548";"18"
"11/16/2020 12:00:00 AM";"09:00 - 09:59";"05047";"Rembrandtplein";"4.89702882";"52.36623511";"22"
"11/16/2020 12:00:00 AM";"09:00 - 09:59";"05062";"Spui";"4.88925912";"52.36909673";"17"
"11/16/2020 12:00:00 AM";"09:00 - 09:59";"05063";"Dam";"4.89064590";"52.37244599";"23"
"11/16/2020 12:00:00 AM";"09:00 - 09:59";"05065";"Dam";"4.89079364";"52.37367792";"36"
"11/16/2020 12:00:00 AM";"09:00 - 09:59";"05066";"Dam";"4.89027056";"52.37318140";"43"
"11/16/2020 12:00:00 AM";"09:00 - 09:59";"05069";"Nieuwezijds Kolk";"4.89373093";"52.37628765";"31"
"11/16/2020 12:00:00 AM";"09:00 - 09:59";"05070";"Nieuwezijds Kolk";"4.89284106";"52.37575366";"13"
"11/16/2020 12:00:00 AM";"09:00 - 09:59";"05073";"Westermarkt";"4.88453426";"52.37400204";"35"
"11/16/2020 12:00:00 AM";"09:00 - 09:59";"05074";"Westermarkt";"4.88354950";"52.37407874";"52"
"11/16/2020 12:00:00 AM";"09:00 - 09:59";"05077";"Marnixstraat";"4.87615428";"52.37228546";"30"
"11/16/2020 12:00:00 AM";"09:00 - 09:59";"05080";"Buiten Oranjestraat";"4.88782167";"52.38330923";"27"
"11/16/2020 12:00:00 AM";"09:00 - 09:59";"05081";"Buiten Brouwersstraat";"4.89157253";"52.38150947";"12"
"11/16/2020 12:00:00 AM";"09:00 - 09:59";"05082";"Buiten Brouwersstraat";"4.89129168";"52.38167008";"12"
"11/16/2020 12:00:00 AM";"09:00 - 09:59";"05092";"Barentszplein";"4.89160204";"52.38938281";"10"
"11/16/2020 12:00:00 AM";"09:00 - 09:59";"05097";"Centraal Station";"4.90087651";"52.37954379";"32"
"11/16/2020 12:00:00 AM";"09:00 - 09:59";"05103";"Centraal Station";"4.90127481";"52.37938365";"31"
"11/16/2020 12:00:00 AM";"09:00 - 09:59";"05107";"Centraal Station";"4.90195282";"52.37916174";"10"
"11/16/2020 12:00:00 AM";"09:00 - 09:59";"05154";"Marnixstraat";"4.87536375";"52.37207533";"18"
"11/16/2020 12:00:00 AM";"09:00 - 09:59";"06001";"Surinameplein";"4.85252231";"52.35807034";"26"
"11/16/2020 12:00:00 AM";"09:00 - 09:59";"06002";"Surinameplein";"4.85090753";"52.35807202";"13"
"11/16/2020 12:00:00 AM";"09:00 - 09:59";"06016";"J.P. Heijestraat";"4.86239635";"52.36472951";"11"
"11/16/2020 12:00:00 AM";"09:00 - 09:59";"06017";"J.P. Heijestraat";"4.86292316";"52.36487565";"15"
"11/16/2020 12:00:00 AM";"09:00 - 09:59";"06019";"Ten Katestraat";"4.86737423";"52.36591988";"40"
"11/16/2020 12:00:00 AM";"09:00 - 09:59";"06020";"Ten Katestraat";"4.86773990";"52.36603832";"47"
"11/16/2020 12:00:00 AM";"09:00 - 09:59";"06021";"Bilderdijkstraat";"4.87176488";"52.36712545";"41"
"11/16/2020 12:00:00 AM";"09:00 - 09:59";"06023";"Bilderdijkstraat";"4.87254032";"52.36736251";"27"
"11/16/2020 12:00:00 AM";"09:00 - 09:59";"06024";"Kinkerstraat";"4.87230885";"52.36706491";"20"
"11/16/2020 12:00:00 AM";"09:00 - 09:59";"06025";"Kinkerstraat";"4.87201094";"52.36743211";"10"
"11/16/2020 12:00:00 AM";"09:00 - 09:59";"06027";"Elandsgracht";"4.87855189";"52.36808953";"32"
"11/16/2020 12:00:00 AM";"09:00 - 09:59";"06028";"Elandsgracht";"4.87741694";"52.36974738";"47"
"11/16/2020 12:00:00 AM";"09:00 - 09:59";"06029";"Elandsgracht";"4.87684368";"52.36852258";"77"
"11/16/2020 12:00:00 AM";"09:00 - 09:59";"06030";"Rozengracht";"4.87590932";"52.37187996";"18"
"11/16/2020 12:00:00 AM";"09:00 - 09:59";"06034";"Bilderdijkstraat";"4.87082347";"52.37105798";"14"
"11/16/2020 12:00:00 AM";"09:00 - 09:59";"06037";"Bilderdijkstraat";"4.86985701";"52.37082906";"40"
"11/16/2020 12:00:00 AM";"09:00 - 09:59";"06043";"Overtoom";"4.87510145";"52.36299659";"20"
"11/16/2020 12:00:00 AM";"09:00 - 09:59";"06044";"Overtoom";"4.87483191";"52.36345380";"12"
"11/16/2020 12:00:00 AM";"09:00 - 09:59";"06045";"1e Con. Huygensstraat";"4.87399228";"52.36242556";"20"
"11/16/2020 12:00:00 AM";"09:00 - 09:59";"06046";"1e Con. Huygensstraat";"4.87487082";"52.36262709";"48"
"11/16/2020 12:00:00 AM";"09:00 - 09:59";"06048";"J.P. Heijestraat";"4.86585368";"52.36037674";"24"
"11/16/2020 12:00:00 AM";"09:00 - 09:59";"06049";"J.P. Heijestraat";"4.86671778";"52.36055131";"10"
"11/16/2020 12:00:00 AM";"09:00 - 09:59";"06061";"Leidseplein";"4.88339576";"52.36305015";"39"
"11/16/2020 12:00:00 AM";"09:00 - 09:59";"06063";"Leidseplein";"4.88064547";"52.36476406";"30"
"11/16/2020 12:00:00 AM";"09:00 - 09:59";"06072";"Prinsengracht";"4.88428435";"52.36495933";"32"
"11/16/2020 12:00:00 AM";"09:00 - 09:59";"06074";"Keizersgracht";"4.88624128";"52.36588437";"21"
"11/16/2020 12:00:00 AM";"09:00 - 09:59";"06075";"Koningsplein";"4.88942793";"52.36713812";"16"
"11/16/2020 12:00:00 AM";"09:00 - 09:59";"06076";"Koningsplein";"4.88857910";"52.36689188";"48"
"11/16/2020 12:00:00 AM";"09:00 - 09:59";"06081";"Rhijnvis Feithstraat";"4.86039355";"52.35905833";"23"
"11/16/2020 12:00:00 AM";"09:00 - 09:59";"06082";"Rhijnvis Feithstraat";"4.85967683";"52.35883943";"15"
"11/16/2020 12:00:00 AM";"09:00 - 09:59";"06089";"Leidseplein";"4.88085541";"52.36309324";"51"
"11/16/2020 12:00:00 AM";"09:00 - 09:59";"06114";"Hoofdweg";"4.85444451";"52.36425359";"13"
"11/16/2020 12:00:00 AM";"09:00 - 09:59";"06115";"Postjesweg";"4.85319014";"52.36478720";"11"
"11/16/2020 12:00:00 AM";"09:00 - 09:59";"07002";"Van Baerlestraat";"4.87836936";"52.35839997";"18"
"11/16/2020 12:00:00 AM";"09:00 - 09:59";"07004";"De Boelelaan/VU";"4.86586883";"52.33534587";"16"
"11/16/2020 12:00:00 AM";"09:00 - 09:59";"07005";"De Boelelaan/VU";"4.86720539";"52.33522592";"10"
"11/16/2020 12:00:00 AM";"09:00 - 09:59";"07006";"Museumplein";"4.87980116";"52.35642881";"87"
"11/16/2020 12:00:00 AM";"09:00 - 09:59";"07007";"Museumplein";"4.87950215";"52.35690388";"134"
"11/16/2020 12:00:00 AM";"09:00 - 09:59";"07015";"Roelof Hartplein";"4.88206971";"52.35314900";"19"
"11/16/2020 12:00:00 AM";"09:00 - 09:59";"07016";"Roelof Hartplein";"4.88286688";"52.35274795";"71"
"11/16/2020 12:00:00 AM";"09:00 - 09:59";"07017";"Roelof Hartplein";"4.88206086";"52.35263666";"19"
"11/16/2020 12:00:00 AM";"09:00 - 09:59";"07027";"Corn. Schuytstraat";"4.87051458";"52.35597520";"14"
"11/16/2020 12:00:00 AM";"09:00 - 09:59";"07028";"Corn. Schuytstraat";"4.87088070";"52.35604870";"13"
"11/16/2020 12:00:00 AM";"09:00 - 09:59";"07031";"Valeriusplein";"4.86374943";"52.35333004";"24"
"11/16/2020 12:00:00 AM";"09:00 - 09:59";"07032";"Valeriusplein";"4.86326678";"52.35318410";"17"
"11/16/2020 12:00:00 AM";"09:00 - 09:59";"07048";"Hoofddorpplein";"4.85010578";"52.35154327";"11"
"11/16/2020 12:00:00 AM";"09:00 - 09:59";"07049";"Hoofddorpplein";"4.84958188";"52.35117239";"17"
"11/16/2020 12:00:00 AM";"09:00 - 09:59";"07083";"Gerrit v.d. Veenstraat";"4.87735929";"52.34921014";"34"
"11/16/2020 12:00:00 AM";"09:00 - 09:59";"07084";"Gerrit v.d. Veenstraat";"4.87720177";"52.34886793";"33"
"11/16/2020 12:00:00 AM";"09:00 - 09:59";"07088";"Stadionweg";"4.87687497";"52.34665553";"17"
"11/16/2020 12:00:00 AM";"09:00 - 09:59";"07097";"Olympiaplein";"4.86582821";"52.34630180";"24"
"11/16/2020 12:00:00 AM";"09:00 - 09:59";"07108";"Olympiaweg";"4.85873730";"52.34528169";"11"
"11/16/2020 12:00:00 AM";"09:00 - 09:59";"07120";"Olympiaweg";"4.85834130";"52.34526195";"12"
"11/16/2020 12:00:00 AM";"09:00 - 09:59";"07191";"Station Zuid";"4.87340673";"52.34072657";"19"
"11/16/2020 12:00:00 AM";"09:00 - 09:59";"07193";"Station Zuid";"4.87334616";"52.34088808";"27"
"11/16/2020 12:00:00 AM";"09:00 - 09:59";"07195";"Oranjebaan";"4.87311228";"52.30278774";"21"
"11/16/2020 12:00:00 AM";"09:00 - 09:59";"07198";"Oranjebaan";"4.87333874";"52.30348977";"11"
"11/16/2020 12:00:00 AM";"09:00 - 09:59";"07266";"Station Zuid";"4.87252654";"52.34070477";"15"
"11/16/2020 12:00:00 AM";"09:00 - 09:59";"07268";"Station Zuid";"4.87428608";"52.34082026";"19"
"11/16/2020 12:00:00 AM";"09:00 - 09:59";"07269";"Station Zuid";"4.87374306";"52.34082689";"27"
"11/16/2020 12:00:00 AM";"09:00 - 09:59";"07270";"Parnassusweg";"4.86874218";"52.33806382";"20"
"11/16/2020 12:00:00 AM";"09:00 - 09:59";"07303";"VU medisch centrum";"4.86097062";"52.33515342";"22"
"11/16/2020 12:00:00 AM";"09:00 - 09:59";"07321";"Van Baerlestraat";"4.87895796";"52.35827667";"21"
"11/16/2020 12:00:00 AM";"09:00 - 09:59";"07322";"Van Baerlestraat";"4.87971942";"52.35844171";"42"
"11/16/2020 12:00:00 AM";"09:00 - 09:59";"07323";"Rijksmuseum";"4.88355043";"52.35977029";"26"
"11/16/2020 12:00:00 AM";"09:00 - 09:59";"07324";"Rijksmuseum";"4.88332565";"52.36017378";"17"
"11/16/2020 12:00:00 AM";"09:00 - 09:59";"07391";"Kronenburg";"4.87070592";"52.31556694";"23"
"11/16/2020 12:00:00 AM";"09:00 - 09:59";"07418";"Van Boshuizenstraat";"4.86902148";"52.32544617";"13"
"11/16/2020 12:00:00 AM";"09:00 - 09:59";"07419";"Van Boshuizenstraat";"4.86896941";"52.32487971";"163"
"11/16/2020 12:00:00 AM";"09:00 - 09:59";"07423";"Uilenstede";"4.86910951";"52.32167168";"23"
"11/16/2020 12:00:00 AM";"09:00 - 09:59";"07435";"Onderuit";"4.87243689";"52.30793483";"12"
"11/16/2020 12:00:00 AM";"09:00 - 09:59";"07439";"Oranjebaan";"4.87179001";"52.30302465";"12"
"11/16/2020 12:00:00 AM";"09:00 - 09:59";"07442";"Zonnestein";"4.87236664";"52.31146674";"11"
"11/16/2020 12:00:00 AM";"09:00 - 09:59";"07445";"Amstelveen Stadshart";"4.86751502";"52.30124433";"23"
"11/16/2020 12:00:00 AM";"09:00 - 09:59";"07448";"A.J. Ernststraat";"4.86887597";"52.33288743";"21"
"11/16/2020 12:00:00 AM";"09:00 - 09:59";"07449";"A.J. Ernststraat";"4.86879476";"52.33230287";"22"
"11/16/2020 12:00:00 AM";"09:00 - 09:59";"07505";"Ziekenhuis";"4.87154263";"52.29401774";"19"
"11/16/2020 12:00:00 AM";"09:00 - 09:59";"07509";"Praam";"4.85570317";"52.27999842";"16"
"11/16/2020 12:00:00 AM";"09:00 - 09:59";"07513";"Sacharovlaan";"4.83264484";"52.28179795";"17"
"11/16/2020 12:00:00 AM";"09:00 - 09:59";"07523";"Zagerij";"4.84179654";"52.28120238";"13"
"11/16/2020 12:00:00 AM";"09:00 - 09:59";"08007";"Bob Haarmslaan";"4.96921237";"52.36876786";"15"
"11/16/2020 12:00:00 AM";"09:00 - 09:59";"08027";"Kadijksplein";"4.91357159";"52.37075136";"12"
"11/16/2020 12:00:00 AM";"09:00 - 09:59";"08049";"Alexanderplein";"4.91916567";"52.36383510";"11"
"11/16/2020 12:00:00 AM";"09:00 - 09:59";"08051";"K. 's-Gravesandestr.";"4.91366120";"52.36235720";"15"
"11/16/2020 12:00:00 AM";"09:00 - 09:59";"08052";"K. 's-Gravesandestr.";"4.91550720";"52.36271509";"16"
"11/16/2020 12:00:00 AM";"09:00 - 09:59";"08053";"Weesperplein";"4.90655690";"52.36088154";"18"
"11/16/2020 12:00:00 AM";"09:00 - 09:59";"08054";"Weesperplein";"4.90941338";"52.36145933";"50"
"11/16/2020 12:00:00 AM";"09:00 - 09:59";"08057";"Frederiksplein";"4.90024241";"52.35971430";"40"
"11/16/2020 12:00:00 AM";"09:00 - 09:59";"08058";"Veelaan";"4.93961588";"52.36830916";"14"
"11/16/2020 12:00:00 AM";"09:00 - 09:59";"08059";"Veelaan";"4.93944523";"52.36776026";"11"
"11/16/2020 12:00:00 AM";"09:00 - 09:59";"08066";"Frederiksplein";"4.89751569";"52.35937050";"19"
"11/16/2020 12:00:00 AM";"09:00 - 09:59";"08072";"Vijzelgracht";"4.89159781";"52.35953462";"18"
"11/16/2020 12:00:00 AM";"09:00 - 09:59";"08073";"Vijzelgracht";"4.89227386";"52.35946554";"35"
"11/16/2020 12:00:00 AM";"09:00 - 09:59";"08080";"Spiegelgracht";"4.88691222";"52.36106979";"39"
"11/16/2020 12:00:00 AM";"09:00 - 09:59";"08095";"Alexanderplein";"4.91969863";"52.36341478";"12"
"11/16/2020 12:00:00 AM";"09:00 - 09:59";"08098";"1e v.Swindenstraat";"4.92386708";"52.36210997";"11"
"11/16/2020 12:00:00 AM";"09:00 - 09:59";"08113";"Javaplein";"4.93949828";"52.36395867";"10"
"11/16/2020 12:00:00 AM";"09:00 - 09:59";"08120";"Insulindeweg";"4.94763926";"52.36469021";"22"
"11/16/2020 12:00:00 AM";"09:00 - 09:59";"08124";"Soembawastraat";"4.94346569";"52.36214910";"15"
"11/16/2020 12:00:00 AM";"09:00 - 09:59";"08129";"Molukkenstraat";"4.93861286";"52.36150167";"11"
"11/16/2020 12:00:00 AM";"09:00 - 09:59";"08139";"Zuiderzeeweg";"4.96240105";"52.37166461";"11"
"11/16/2020 12:00:00 AM";"09:00 - 09:59";"08179";"K. 's-Gravesandestr.";"4.91480799";"52.36220000";"13"
"11/16/2020 12:00:00 AM";"09:00 - 09:59";"08190";"Molukkenstraat";"4.93934614";"52.36157635";"10"
"11/16/2020 12:00:00 AM";"09:00 - 09:59";"08233";"C. van Eesterenlaan";"4.93812487";"52.37345346";"12"
"11/16/2020 12:00:00 AM";"09:00 - 09:59";"08237";"Kattenburgerstraat";"4.92126795";"52.37614755";"29"
"11/16/2020 12:00:00 AM";"09:00 - 09:59";"08238";"Rietlandpark";"4.93350159";"52.37322013";"13"
"11/16/2020 12:00:00 AM";"09:00 - 09:59";"08239";"Rietlandpark";"4.93413567";"52.37296191";"30"
"11/16/2020 12:00:00 AM";"09:00 - 09:59";"08241";"Zuiderzeeweg";"4.96185517";"52.37193228";"19"
"11/16/2020 12:00:00 AM";"09:00 - 09:59";"08244";"Steigereiland";"4.98083725";"52.36280456";"17"
"11/16/2020 12:00:00 AM";"09:00 - 09:59";"08245";"Steigereiland";"4.98012952";"52.36313467";"40"
"11/16/2020 12:00:00 AM";"09:00 - 09:59";"08247";"Vennepluimstraat";"4.99057242";"52.35769662";"21"
"11/16/2020 12:00:00 AM";"09:00 - 09:59";"08249";"Diemerparklaan";"4.99499716";"52.35532962";"14"
"11/16/2020 12:00:00 AM";"09:00 - 09:59";"08251";"Lumi?restraat";"4.99942127";"52.35298044";"14"
"11/16/2020 12:00:00 AM";"09:00 - 09:59";"08255";"Hoogte Kadijk";"4.92483038";"52.36687722";"20"
"11/16/2020 12:00:00 AM";"09:00 - 09:59";"08259";"1e Leeghwaterstraat";"4.93004964";"52.37047459";"11"
"11/16/2020 12:00:00 AM";"09:00 - 09:59";"08262";"IJburg";"5.00486802";"52.35112872";"38"
"11/16/2020 12:00:00 AM";"09:00 - 09:59";"08300";"P.Oosterhuisstraat";"5.00693059";"52.35193526";"14"
"11/16/2020 12:00:00 AM";"09:00 - 09:59";"09003";"Dintelstraat";"4.89289498";"52.34192405";"20"
"11/16/2020 12:00:00 AM";"09:00 - 09:59";"09013";"Amstelstation";"4.91790223";"52.34725673";"22"
"11/16/2020 12:00:00 AM";"09:00 - 09:59";"09023";"Camperstraat";"4.91383551";"52.35840330";"10"
"11/16/2020 12:00:00 AM";"09:00 - 09:59";"09049";"Victorieplein";"4.90570139";"52.34637186";"19"
"11/16/2020 12:00:00 AM";"09:00 - 09:59";"09051";"Victorieplein";"4.90653699";"52.34645615";"19"
"11/16/2020 12:00:00 AM";"09:00 - 09:59";"09061";"Waalstraat";"4.90060087";"52.34442762";"10"
"11/16/2020 12:00:00 AM";"09:00 - 09:59";"09074";"Scheldestraat";"4.89116002";"52.34748022";"10"
"11/16/2020 12:00:00 AM";"09:00 - 09:59";"09082";"Waalstraat";"4.89974094";"52.34656317";"36"
