"Datum";"UurgroepOmschrijving (van aankomst)";"AankomstHalteCode";"AankomstHalteNaam";"AankomstLat";"AankomstLon";"AantalReizen"
"3/29/2021 12:00:00 AM";"01:00 - 01:59";"";"Overig";"";"";"7"
"3/29/2021 12:00:00 AM";"02:00 - 02:59";"";"Overig";"";"";"11"
"3/29/2021 12:00:00 AM";"03:00 - 03:59";"";"Overig";"";"";"7"
"3/29/2021 12:00:00 AM";"04:00 - 04:59";"";"Overig";"";"";"29"
"3/29/2021 12:00:00 AM";"04:00 - 04:59";"01316";"Station Noord";"4.93336820";"52.40204304";"11"
"3/29/2021 12:00:00 AM";"05:00 - 05:59";"";"Overig";"";"";"234"
"3/29/2021 12:00:00 AM";"05:00 - 05:59";"[[ Onb";"[[ Onbekend ]]";"0.00000000";"0.00000000";"19"
"3/29/2021 12:00:00 AM";"05:00 - 05:59";"00562";"Station Bijlmer ArenA";"4.94736012";"52.31138289";"10"
"3/29/2021 12:00:00 AM";"05:00 - 05:59";"00566";"Station Bijlmer ArenA";"4.94709342";"52.31166052";"24"
"3/29/2021 12:00:00 AM";"05:00 - 05:59";"02365";"Station Sloterdijk";"4.83873236";"52.38822404";"12"
"3/29/2021 12:00:00 AM";"05:00 - 05:59";"04267";"Schiphol Airport/Plaza";"4.76139455";"52.30887344";"57"
"3/29/2021 12:00:00 AM";"05:00 - 05:59";"04274";"Schiphol Airport/Plaza";"4.76104997";"52.30939292";"17"
"3/29/2021 12:00:00 AM";"05:00 - 05:59";"04300";"Knooppunt Schiphol Nrd";"4.79292928";"52.32250892";"13"
"3/29/2021 12:00:00 AM";"05:00 - 05:59";"04379";"Knooppunt Schiphol Nrd";"4.79320459";"52.32276196";"35"
"3/29/2021 12:00:00 AM";"05:00 - 05:59";"05100";"Centraal Station";"4.90068332";"52.37974972";"14"
"3/29/2021 12:00:00 AM";"05:00 - 05:59";"BMR";"Station Bijlmer ArenA";"4.94713474";"52.31193030";"18"
"3/29/2021 12:00:00 AM";"05:00 - 05:59";"CS";"Centraal Station";"4.90078150";"52.37749421";"36"
"3/29/2021 12:00:00 AM";"05:00 - 05:59";"RKN";"Rokin";"4.89229651";"52.36928023";"12"
"3/29/2021 12:00:00 AM";"05:00 - 05:59";"WTC";"Station Zuid";"4.87509853";"52.33908015";"20"
"3/29/2021 12:00:00 AM";"06:00 - 06:59";"";"Overig";"";"";"1454"
"3/29/2021 12:00:00 AM";"06:00 - 06:59";"[[ Onb";"[[ Onbekend ]]";"0.00000000";"0.00000000";"61"
"3/29/2021 12:00:00 AM";"06:00 - 06:59";"00023";"Beukenplein";"4.91809259";"52.35701816";"16"
"3/29/2021 12:00:00 AM";"06:00 - 06:59";"00434";"Bijlmerplein";"4.95032022";"52.31457553";"52"
"3/29/2021 12:00:00 AM";"06:00 - 06:59";"00453";"Diemen Sniep";"4.96964866";"52.33644962";"37"
"3/29/2021 12:00:00 AM";"06:00 - 06:59";"00491";"Science Park Aer";"4.95218495";"52.35478458";"15"
"3/29/2021 12:00:00 AM";"06:00 - 06:59";"00561";"Station Bijlmer ArenA";"4.94741931";"52.31132918";"34"
"3/29/2021 12:00:00 AM";"06:00 - 06:59";"00902";"Stammerkamp";"4.98344083";"52.33320797";"14"
"3/29/2021 12:00:00 AM";"06:00 - 06:59";"01365";"Atat?rk";"4.89794256";"52.40319625";"15"
"3/29/2021 12:00:00 AM";"06:00 - 06:59";"02018";"Koivistokade";"4.87577082";"52.39789874";"17"
"3/29/2021 12:00:00 AM";"06:00 - 06:59";"02114";"Haarlemmerplein";"4.88341252";"52.38484542";"13"
"3/29/2021 12:00:00 AM";"06:00 - 06:59";"02311";"Seineweg";"4.81857317";"52.38632242";"41"
"3/29/2021 12:00:00 AM";"06:00 - 06:59";"02361";"Station Sloterdijk";"4.83931858";"52.38833460";"38"
"3/29/2021 12:00:00 AM";"06:00 - 06:59";"02365";"Station Sloterdijk";"4.83873236";"52.38822404";"19"
"3/29/2021 12:00:00 AM";"06:00 - 06:59";"02366";"Station Sloterdijk";"4.83873347";"52.38813416";"12"
"3/29/2021 12:00:00 AM";"06:00 - 06:59";"02367";"Station Sloterdijk";"4.83876429";"52.38801747";"12"
"3/29/2021 12:00:00 AM";"06:00 - 06:59";"02368";"Station Sloterdijk";"4.83877999";"52.38793665";"15"
"3/29/2021 12:00:00 AM";"06:00 - 06:59";"02378";"Station Sloterdijk";"4.83809796";"52.38844579";"29"
"3/29/2021 12:00:00 AM";"06:00 - 06:59";"03129";"Plein '40 - '45";"4.82112672";"52.38075328";"12"
"3/29/2021 12:00:00 AM";"06:00 - 06:59";"04112";"Johan Huizingalaan";"4.82742878";"52.34923618";"12"
"3/29/2021 12:00:00 AM";"06:00 - 06:59";"04195";"Station Lelylaan";"4.83460082";"52.35788018";"16"
"3/29/2021 12:00:00 AM";"06:00 - 06:59";"04267";"Schiphol Airport/Plaza";"4.76139455";"52.30887344";"21"
"3/29/2021 12:00:00 AM";"06:00 - 06:59";"04274";"Schiphol Airport/Plaza";"4.76104997";"52.30939292";"10"
"3/29/2021 12:00:00 AM";"06:00 - 06:59";"04379";"Knooppunt Schiphol Nrd";"4.79320459";"52.32276196";"23"
"3/29/2021 12:00:00 AM";"06:00 - 06:59";"05011";"Centraal Station";"4.89921803";"52.37810793";"35"
"3/29/2021 12:00:00 AM";"06:00 - 06:59";"05022";"Centraal Station";"4.90104337";"52.37771998";"38"
"3/29/2021 12:00:00 AM";"06:00 - 06:59";"05065";"Dam";"4.89079364";"52.37367792";"13"
"3/29/2021 12:00:00 AM";"06:00 - 06:59";"05066";"Dam";"4.89027056";"52.37318140";"24"
"3/29/2021 12:00:00 AM";"06:00 - 06:59";"05074";"Westermarkt";"4.88354950";"52.37407874";"12"
"3/29/2021 12:00:00 AM";"06:00 - 06:59";"05097";"Centraal Station";"4.90087651";"52.37954379";"28"
"3/29/2021 12:00:00 AM";"06:00 - 06:59";"05103";"Centraal Station";"4.90127481";"52.37938365";"15"
"3/29/2021 12:00:00 AM";"06:00 - 06:59";"06061";"Leidseplein";"4.88339576";"52.36305015";"16"
"3/29/2021 12:00:00 AM";"06:00 - 06:59";"06063";"Leidseplein";"4.88064547";"52.36476406";"15"
"3/29/2021 12:00:00 AM";"06:00 - 06:59";"06089";"Leidseplein";"4.88085541";"52.36309324";"18"
"3/29/2021 12:00:00 AM";"06:00 - 06:59";"07004";"De Boelelaan/VU";"4.86586883";"52.33534587";"14"
"3/29/2021 12:00:00 AM";"06:00 - 06:59";"07050";"Haarlemmermeerstation";"4.85744749";"52.34883508";"14"
"3/29/2021 12:00:00 AM";"06:00 - 06:59";"07193";"Station Zuid";"4.87334616";"52.34088808";"13"
"3/29/2021 12:00:00 AM";"06:00 - 06:59";"07270";"Parnassusweg";"4.86874218";"52.33806382";"13"
"3/29/2021 12:00:00 AM";"06:00 - 06:59";"07294";"Station Zuid";"4.87327467";"52.34072599";"15"
"3/29/2021 12:00:00 AM";"06:00 - 06:59";"07303";"VU medisch centrum";"4.86097062";"52.33515342";"28"
"3/29/2021 12:00:00 AM";"06:00 - 06:59";"07419";"Van Boshuizenstraat";"4.86896941";"52.32487971";"11"
"3/29/2021 12:00:00 AM";"06:00 - 06:59";"07453";"Ouderkerkerlaan";"4.86721192";"52.29582332";"12"
"3/29/2021 12:00:00 AM";"06:00 - 06:59";"08054";"Weesperplein";"4.90941338";"52.36145933";"14"
"3/29/2021 12:00:00 AM";"06:00 - 06:59";"08235";"Muziekgeb. Bimhuis";"4.91290020";"52.37723779";"16"
"3/29/2021 12:00:00 AM";"06:00 - 06:59";"08259";"1e Leeghwaterstraat";"4.93004964";"52.37047459";"14"
"3/29/2021 12:00:00 AM";"06:00 - 06:59";"ASA";"Amstelstation";"4.91751426";"52.34647326";"116"
"3/29/2021 12:00:00 AM";"06:00 - 06:59";"ASW";"Amstelveenseweg";"4.85798324";"52.33836671";"128"
"3/29/2021 12:00:00 AM";"06:00 - 06:59";"BLW";"Bullewijk";"4.95233581";"52.30642205";"35"
"3/29/2021 12:00:00 AM";"06:00 - 06:59";"BMR";"Station Bijlmer ArenA";"4.94713474";"52.31193030";"167"
"3/29/2021 12:00:00 AM";"06:00 - 06:59";"CLL";"Station Lelylaan";"4.83426589";"52.35766291";"35"
"3/29/2021 12:00:00 AM";"06:00 - 06:59";"CS";"Centraal Station";"4.90078150";"52.37749421";"295"
"3/29/2021 12:00:00 AM";"06:00 - 06:59";"DMZ";"Station Diemen-Zuid";"4.95713273";"52.33042795";"13"
"3/29/2021 12:00:00 AM";"06:00 - 06:59";"DPP";"De Pijp";"4.89101069";"52.35296212";"37"
"3/29/2021 12:00:00 AM";"06:00 - 06:59";"DVD";"Station Duivendrecht";"4.93678429";"52.32325190";"50"
"3/29/2021 12:00:00 AM";"06:00 - 06:59";"EPP";"Europaplein";"4.89138430";"52.34185482";"23"
"3/29/2021 12:00:00 AM";"06:00 - 06:59";"GN";"Gein";"4.98952268";"52.29627089";"15"
"3/29/2021 12:00:00 AM";"06:00 - 06:59";"GZH";"Station Ganzenhoef";"4.97323379";"52.32331315";"20"
"3/29/2021 12:00:00 AM";"06:00 - 06:59";"HDS";"Heemstedestraat";"4.83421208";"52.35255760";"19"
"3/29/2021 12:00:00 AM";"06:00 - 06:59";"HLD";"Station Holendrecht";"4.96021904";"52.29780451";"119"
"3/29/2021 12:00:00 AM";"06:00 - 06:59";"HVW";"Henk Sneevlietweg";"4.83439318";"52.34626699";"61"
"3/29/2021 12:00:00 AM";"06:00 - 06:59";"ITW";"Isolatorweg";"4.85013475";"52.39523277";"17"
"3/29/2021 12:00:00 AM";"06:00 - 06:59";"JLS";"Jan v.Galenstraat";"4.83492461";"52.37196551";"59"
"3/29/2021 12:00:00 AM";"06:00 - 06:59";"MDW";"Van der Madeweg";"4.93048657";"52.32945629";"30"
"3/29/2021 12:00:00 AM";"06:00 - 06:59";"ND";"Noord";"4.93123182";"52.40117202";"53"
"3/29/2021 12:00:00 AM";"06:00 - 06:59";"NDP";"Noorderpark";"4.91789115";"52.38855518";"31"
"3/29/2021 12:00:00 AM";"06:00 - 06:59";"NMT";"Nieuwmarkt";"4.90123885";"52.37194169";"25"
"3/29/2021 12:00:00 AM";"06:00 - 06:59";"OAS";"Overamstel";"4.91815361";"52.33179879";"42"
"3/29/2021 12:00:00 AM";"06:00 - 06:59";"PJW";"Postjesweg";"4.83385543";"52.36468044";"11"
"3/29/2021 12:00:00 AM";"06:00 - 06:59";"RAI";"Station RAI";"4.88982004";"52.33739931";"57"
"3/29/2021 12:00:00 AM";"06:00 - 06:59";"RGB";"Reigersbos";"4.97473728";"52.29566301";"23"
"3/29/2021 12:00:00 AM";"06:00 - 06:59";"RKN";"Rokin";"4.89229651";"52.36928023";"111"
"3/29/2021 12:00:00 AM";"06:00 - 06:59";"SLW";"Spaklerweg";"4.92085640";"52.33986250";"32"
"3/29/2021 12:00:00 AM";"06:00 - 06:59";"STD";"Station Sloterdijk";"4.83878389";"52.38880848";"151"
"3/29/2021 12:00:00 AM";"06:00 - 06:59";"SVT";"Strandvliet";"4.94152820";"52.31825469";"12"
"3/29/2021 12:00:00 AM";"06:00 - 06:59";"VSW";"Verrijn Stuartweg";"4.96693669";"52.32844093";"29"
"3/29/2021 12:00:00 AM";"06:00 - 06:59";"VZG";"Vijzelgracht";"4.89072870";"52.35980061";"30"
"3/29/2021 12:00:00 AM";"06:00 - 06:59";"WBS";"Wibautstraat";"4.91202993";"52.35428867";"50"
"3/29/2021 12:00:00 AM";"06:00 - 06:59";"WLP";"Waterlooplein";"4.90298171";"52.36697862";"87"
"3/29/2021 12:00:00 AM";"06:00 - 06:59";"WPP";"Weesperplein";"4.90787469";"52.36120146";"71"
"3/29/2021 12:00:00 AM";"06:00 - 06:59";"WTC";"Station Zuid";"4.87509853";"52.33908015";"264"
"3/29/2021 12:00:00 AM";"07:00 - 07:59";"";"Overig";"";"";"2332"
"3/29/2021 12:00:00 AM";"07:00 - 07:59";"[[ Onb";"[[ Onbekend ]]";"0.00000000";"0.00000000";"131"
"3/29/2021 12:00:00 AM";"07:00 - 07:59";"00008";"Dapperstraat";"4.92977913";"52.36110836";"14"
"3/29/2021 12:00:00 AM";"07:00 - 07:59";"00018";"Diemerknoop";"5.00286153";"52.33537576";"15"
"3/29/2021 12:00:00 AM";"07:00 - 07:59";"00020";"Beukenweg";"4.91674979";"52.35906203";"29"
"3/29/2021 12:00:00 AM";"07:00 - 07:59";"00021";"Beukenweg";"4.91721293";"52.35829991";"16"
"3/29/2021 12:00:00 AM";"07:00 - 07:59";"00029";"Oostpoort";"4.92719316";"52.35707185";"15"
"3/29/2021 12:00:00 AM";"07:00 - 07:59";"00053";"Kruislaan";"4.93967974";"52.34742196";"13"
"3/29/2021 12:00:00 AM";"07:00 - 07:59";"00205";"Station Holendrecht";"4.95865657";"52.29716971";"14"
"3/29/2021 12:00:00 AM";"07:00 - 07:59";"00432";"Diemerbrug";"4.96142958";"52.33824484";"13"
"3/29/2021 12:00:00 AM";"07:00 - 07:59";"00434";"Bijlmerplein";"4.95032022";"52.31457553";"52"
"3/29/2021 12:00:00 AM";"07:00 - 07:59";"00444";"Linnaeusstraat";"4.92490296";"52.35991203";"14"
"3/29/2021 12:00:00 AM";"07:00 - 07:59";"00453";"Diemen Sniep";"4.96964866";"52.33644962";"49"
"3/29/2021 12:00:00 AM";"07:00 - 07:59";"00515";"Station Duivendrecht";"4.93669692";"52.32318866";"13"
"3/29/2021 12:00:00 AM";"07:00 - 07:59";"00560";"Station Bijlmer ArenA";"4.94747867";"52.31125750";"16"
"3/29/2021 12:00:00 AM";"07:00 - 07:59";"00561";"Station Bijlmer ArenA";"4.94741931";"52.31132918";"52"
"3/29/2021 12:00:00 AM";"07:00 - 07:59";"00651";"Casparuslaan";"5.03531862";"52.30911571";"10"
"3/29/2021 12:00:00 AM";"07:00 - 07:59";"00665";"Station Weesp";"5.04383463";"52.31145059";"13"
"3/29/2021 12:00:00 AM";"07:00 - 07:59";"00999";"Vinkenbrug";"4.97831599";"52.33370267";"14"
"3/29/2021 12:00:00 AM";"07:00 - 07:59";"01305";"Station Noord";"4.93215715";"52.40264056";"11"
"3/29/2021 12:00:00 AM";"07:00 - 07:59";"01352";"Oosterlengte";"4.92206974";"52.40611555";"10"
"3/29/2021 12:00:00 AM";"07:00 - 07:59";"01365";"Atat?rk";"4.89794256";"52.40319625";"19"
"3/29/2021 12:00:00 AM";"07:00 - 07:59";"01414";"Olof Palmeplein";"4.94012168";"52.39679298";"10"
"3/29/2021 12:00:00 AM";"07:00 - 07:59";"01443";"Volendammerweg";"4.95697086";"52.39255928";"12"
"3/29/2021 12:00:00 AM";"07:00 - 07:59";"02018";"Koivistokade";"4.87577082";"52.39789874";"10"
"3/29/2021 12:00:00 AM";"07:00 - 07:59";"02103";"Spaarndammerstraat";"4.87765867";"52.39216375";"18"
"3/29/2021 12:00:00 AM";"07:00 - 07:59";"02106";"Assendelftstraat";"4.87943840";"52.38941217";"10"
"3/29/2021 12:00:00 AM";"07:00 - 07:59";"02114";"Haarlemmerplein";"4.88341252";"52.38484542";"24"
"3/29/2021 12:00:00 AM";"07:00 - 07:59";"02155";"Willem de Zwijgerlaan";"4.86360306";"52.37071170";"14"
"3/29/2021 12:00:00 AM";"07:00 - 07:59";"02201";"Abberdaan";"4.78087947";"52.39180671";"10"
"3/29/2021 12:00:00 AM";"07:00 - 07:59";"02222";"Jan van Galenstraat";"4.85874763";"52.37399761";"10"
"3/29/2021 12:00:00 AM";"07:00 - 07:59";"02260";"Contactweg";"4.85432952";"52.39215995";"15"
"3/29/2021 12:00:00 AM";"07:00 - 07:59";"02311";"Seineweg";"4.81857317";"52.38632242";"21"
"3/29/2021 12:00:00 AM";"07:00 - 07:59";"02361";"Station Sloterdijk";"4.83931858";"52.38833460";"41"
"3/29/2021 12:00:00 AM";"07:00 - 07:59";"02365";"Station Sloterdijk";"4.83873236";"52.38822404";"19"
"3/29/2021 12:00:00 AM";"07:00 - 07:59";"02366";"Station Sloterdijk";"4.83873347";"52.38813416";"19"
"3/29/2021 12:00:00 AM";"07:00 - 07:59";"02367";"Station Sloterdijk";"4.83876429";"52.38801747";"11"
"3/29/2021 12:00:00 AM";"07:00 - 07:59";"02368";"Station Sloterdijk";"4.83877999";"52.38793665";"20"
"3/29/2021 12:00:00 AM";"07:00 - 07:59";"02378";"Station Sloterdijk";"4.83809796";"52.38844579";"31"
"3/29/2021 12:00:00 AM";"07:00 - 07:59";"03010";"Witte de Withstraat";"4.85928290";"52.36480554";"10"
"3/29/2021 12:00:00 AM";"07:00 - 07:59";"03052";"Burg. Eliasstraat";"4.82565009";"52.38077481";"11"
"3/29/2021 12:00:00 AM";"07:00 - 07:59";"03060";"Bos en Lommerplein";"4.84718407";"52.37815169";"11"
"3/29/2021 12:00:00 AM";"07:00 - 07:59";"03061";"Bos en Lommerplein";"4.84523530";"52.37778328";"21"
"3/29/2021 12:00:00 AM";"07:00 - 07:59";"03076";"Jan Tooropstraat";"4.83810313";"52.37142305";"14"
"3/29/2021 12:00:00 AM";"07:00 - 07:59";"03129";"Plein '40 - '45";"4.82112672";"52.38075328";"25"
"3/29/2021 12:00:00 AM";"07:00 - 07:59";"03145";"J. Cabeliaustraat";"4.80409638";"52.38246819";"11"
"3/29/2021 12:00:00 AM";"07:00 - 07:59";"03167";"Bos en Lommerplein";"4.84650668";"52.37709704";"15"
"3/29/2021 12:00:00 AM";"07:00 - 07:59";"04009";"Dijkgraafplein";"4.78689401";"52.35556268";"10"
"3/29/2021 12:00:00 AM";"07:00 - 07:59";"04016";"Hoekenes";"4.79854723";"52.35791310";"10"
"3/29/2021 12:00:00 AM";"07:00 - 07:59";"04024";"Baden Powellweg";"4.78782801";"52.36248802";"10"
"3/29/2021 12:00:00 AM";"07:00 - 07:59";"04050";"Meer en Vaart";"4.80994403";"52.35636940";"11"
"3/29/2021 12:00:00 AM";"07:00 - 07:59";"04064";"Osdorpplein Oost";"4.80806527";"52.35860717";"10"
"3/29/2021 12:00:00 AM";"07:00 - 07:59";"04065";"Osdorpplein Oost";"4.80773259";"52.35935153";"11"
"3/29/2021 12:00:00 AM";"07:00 - 07:59";"04088";"Louwesweg";"4.82436420";"52.34669608";"15"
"3/29/2021 12:00:00 AM";"07:00 - 07:59";"04112";"Johan Huizingalaan";"4.82742878";"52.34923618";"32"
"3/29/2021 12:00:00 AM";"07:00 - 07:59";"04195";"Station Lelylaan";"4.83460082";"52.35788018";"61"
"3/29/2021 12:00:00 AM";"07:00 - 07:59";"04196";"Station Lelylaan";"4.83382251";"52.35790351";"43"
"3/29/2021 12:00:00 AM";"07:00 - 07:59";"04267";"Schiphol Airport/Plaza";"4.76139455";"52.30887344";"11"
"3/29/2021 12:00:00 AM";"07:00 - 07:59";"04274";"Schiphol Airport/Plaza";"4.76104997";"52.30939292";"13"
"3/29/2021 12:00:00 AM";"07:00 - 07:59";"04379";"Knooppunt Schiphol Nrd";"4.79320459";"52.32276196";"41"
"3/29/2021 12:00:00 AM";"07:00 - 07:59";"04402";"Matterhorn";"4.77477998";"52.35372103";"10"
"3/29/2021 12:00:00 AM";"07:00 - 07:59";"04409";"Baden Powellweg";"4.79441281";"52.35092691";"13"
"3/29/2021 12:00:00 AM";"07:00 - 07:59";"04411";"Hoekenes";"4.80183430";"52.35243785";"10"
"3/29/2021 12:00:00 AM";"07:00 - 07:59";"04413";"Louis Davidsstraat";"4.80850916";"52.35383682";"10"
"3/29/2021 12:00:00 AM";"07:00 - 07:59";"05011";"Centraal Station";"4.89921803";"52.37810793";"68"
"3/29/2021 12:00:00 AM";"07:00 - 07:59";"05022";"Centraal Station";"4.90104337";"52.37771998";"92"
"3/29/2021 12:00:00 AM";"07:00 - 07:59";"05035";"Rokin";"4.89210433";"52.36939627";"12"
"3/29/2021 12:00:00 AM";"07:00 - 07:59";"05065";"Dam";"4.89079364";"52.37367792";"16"
"3/29/2021 12:00:00 AM";"07:00 - 07:59";"05066";"Dam";"4.89027056";"52.37318140";"26"
"3/29/2021 12:00:00 AM";"07:00 - 07:59";"05074";"Westermarkt";"4.88354950";"52.37407874";"30"
"3/29/2021 12:00:00 AM";"07:00 - 07:59";"05077";"Marnixstraat";"4.87615428";"52.37228546";"14"
"3/29/2021 12:00:00 AM";"07:00 - 07:59";"05080";"Buiten Oranjestraat";"4.88782167";"52.38330923";"12"
"3/29/2021 12:00:00 AM";"07:00 - 07:59";"05097";"Centraal Station";"4.90087651";"52.37954379";"40"
"3/29/2021 12:00:00 AM";"07:00 - 07:59";"05101";"Centraal Station";"4.90105195";"52.37961641";"17"
"3/29/2021 12:00:00 AM";"07:00 - 07:59";"05103";"Centraal Station";"4.90127481";"52.37938365";"32"
"3/29/2021 12:00:00 AM";"07:00 - 07:59";"05104";"Centraal Station";"4.90164343";"52.37925034";"14"
"3/29/2021 12:00:00 AM";"07:00 - 07:59";"05107";"Centraal Station";"4.90195282";"52.37916174";"19"
"3/29/2021 12:00:00 AM";"07:00 - 07:59";"06001";"Surinameplein";"4.85252231";"52.35807034";"20"
"3/29/2021 12:00:00 AM";"07:00 - 07:59";"06002";"Surinameplein";"4.85090753";"52.35807202";"16"
"3/29/2021 12:00:00 AM";"07:00 - 07:59";"06020";"Ten Katestraat";"4.86773990";"52.36603832";"13"
"3/29/2021 12:00:00 AM";"07:00 - 07:59";"06021";"Bilderdijkstraat";"4.87176488";"52.36712545";"13"
"3/29/2021 12:00:00 AM";"07:00 - 07:59";"06027";"Elandsgracht";"4.87855189";"52.36808953";"16"
"3/29/2021 12:00:00 AM";"07:00 - 07:59";"06028";"Elandsgracht";"4.87741694";"52.36974738";"11"
"3/29/2021 12:00:00 AM";"07:00 - 07:59";"06029";"Elandsgracht";"4.87684368";"52.36852258";"21"
"3/29/2021 12:00:00 AM";"07:00 - 07:59";"06030";"Rozengracht";"4.87590932";"52.37187996";"13"
"3/29/2021 12:00:00 AM";"07:00 - 07:59";"06034";"Bilderdijkstraat";"4.87082347";"52.37105798";"15"
"3/29/2021 12:00:00 AM";"07:00 - 07:59";"06037";"Bilderdijkstraat";"4.86985701";"52.37082906";"19"
"3/29/2021 12:00:00 AM";"07:00 - 07:59";"06046";"1e Con. Huygensstraat";"4.87487082";"52.36262709";"14"
"3/29/2021 12:00:00 AM";"07:00 - 07:59";"06048";"J.P. Heijestraat";"4.86585368";"52.36037674";"17"
"3/29/2021 12:00:00 AM";"07:00 - 07:59";"06049";"J.P. Heijestraat";"4.86671778";"52.36055131";"13"
"3/29/2021 12:00:00 AM";"07:00 - 07:59";"06061";"Leidseplein";"4.88339576";"52.36305015";"21"
"3/29/2021 12:00:00 AM";"07:00 - 07:59";"06063";"Leidseplein";"4.88064547";"52.36476406";"18"
"3/29/2021 12:00:00 AM";"07:00 - 07:59";"06089";"Leidseplein";"4.88085541";"52.36309324";"30"
"3/29/2021 12:00:00 AM";"07:00 - 07:59";"07006";"Museumplein";"4.87980116";"52.35642881";"17"
"3/29/2021 12:00:00 AM";"07:00 - 07:59";"07007";"Museumplein";"4.87950215";"52.35690388";"29"
"3/29/2021 12:00:00 AM";"07:00 - 07:59";"07016";"Roelof Hartplein";"4.88286688";"52.35274795";"11"
"3/29/2021 12:00:00 AM";"07:00 - 07:59";"07031";"Valeriusplein";"4.86374943";"52.35333004";"20"
"3/29/2021 12:00:00 AM";"07:00 - 07:59";"07032";"Valeriusplein";"4.86326678";"52.35318410";"13"
"3/29/2021 12:00:00 AM";"07:00 - 07:59";"07050";"Haarlemmermeerstation";"4.85744749";"52.34883508";"17"
"3/29/2021 12:00:00 AM";"07:00 - 07:59";"07098";"Olympiaplein";"4.86659057";"52.34636807";"11"
"3/29/2021 12:00:00 AM";"07:00 - 07:59";"07190";"Station Zuid";"4.87352214";"52.34089784";"10"
"3/29/2021 12:00:00 AM";"07:00 - 07:59";"07193";"Station Zuid";"4.87334616";"52.34088808";"27"
"3/29/2021 12:00:00 AM";"07:00 - 07:59";"07268";"Station Zuid";"4.87428608";"52.34082026";"12"
"3/29/2021 12:00:00 AM";"07:00 - 07:59";"07269";"Station Zuid";"4.87374306";"52.34082689";"19"
"3/29/2021 12:00:00 AM";"07:00 - 07:59";"07270";"Parnassusweg";"4.86874218";"52.33806382";"14"
"3/29/2021 12:00:00 AM";"07:00 - 07:59";"07294";"Station Zuid";"4.87327467";"52.34072599";"20"
"3/29/2021 12:00:00 AM";"07:00 - 07:59";"07303";"VU medisch centrum";"4.86097062";"52.33515342";"31"
"3/29/2021 12:00:00 AM";"07:00 - 07:59";"07321";"Van Baerlestraat";"4.87895796";"52.35827667";"16"
"3/29/2021 12:00:00 AM";"07:00 - 07:59";"07339";"Nieuw Herlaer";"4.88985946";"52.32602094";"17"
"3/29/2021 12:00:00 AM";"07:00 - 07:59";"07457";"Sportlaan";"4.86336804";"52.28987436";"11"
"3/29/2021 12:00:00 AM";"07:00 - 07:59";"07482";"Sacharovlaan";"4.83228912";"52.28211984";"18"
"3/29/2021 12:00:00 AM";"07:00 - 07:59";"08054";"Weesperplein";"4.90941338";"52.36145933";"22"
"3/29/2021 12:00:00 AM";"07:00 - 07:59";"08057";"Frederiksplein";"4.90024241";"52.35971430";"20"
"3/29/2021 12:00:00 AM";"07:00 - 07:59";"08058";"Veelaan";"4.93961588";"52.36830916";"11"
"3/29/2021 12:00:00 AM";"07:00 - 07:59";"08072";"Vijzelgracht";"4.89159781";"52.35953462";"10"
"3/29/2021 12:00:00 AM";"07:00 - 07:59";"08080";"Spiegelgracht";"4.88691222";"52.36106979";"16"
"3/29/2021 12:00:00 AM";"07:00 - 07:59";"08120";"Insulindeweg";"4.94763926";"52.36469021";"21"
"3/29/2021 12:00:00 AM";"07:00 - 07:59";"08129";"Molukkenstraat";"4.93861286";"52.36150167";"12"
"3/29/2021 12:00:00 AM";"07:00 - 07:59";"08139";"Zuiderzeeweg";"4.96240105";"52.37166461";"10"
"3/29/2021 12:00:00 AM";"07:00 - 07:59";"08195";"Oostenburgergracht";"4.92452709";"52.36780177";"12"
"3/29/2021 12:00:00 AM";"07:00 - 07:59";"08237";"Kattenburgerstraat";"4.92126795";"52.37614755";"10"
"3/29/2021 12:00:00 AM";"07:00 - 07:59";"08239";"Rietlandpark";"4.93413567";"52.37296191";"24"
"3/29/2021 12:00:00 AM";"07:00 - 07:59";"08241";"Zuiderzeeweg";"4.96185517";"52.37193228";"13"
"3/29/2021 12:00:00 AM";"07:00 - 07:59";"08245";"Steigereiland";"4.98012952";"52.36313467";"16"
"3/29/2021 12:00:00 AM";"07:00 - 07:59";"08247";"Vennepluimstraat";"4.99057242";"52.35769662";"13"
"3/29/2021 12:00:00 AM";"07:00 - 07:59";"08249";"Diemerparklaan";"4.99499716";"52.35532962";"13"
"3/29/2021 12:00:00 AM";"07:00 - 07:59";"08262";"IJburg";"5.00486802";"52.35112872";"28"
"3/29/2021 12:00:00 AM";"07:00 - 07:59";"08300";"P.Oosterhuisstraat";"5.00693059";"52.35193526";"10"
"3/29/2021 12:00:00 AM";"07:00 - 07:59";"09013";"Amstelstation";"4.91790223";"52.34725673";"11"
"3/29/2021 12:00:00 AM";"07:00 - 07:59";"09023";"Camperstraat";"4.91383551";"52.35840330";"12"
"3/29/2021 12:00:00 AM";"07:00 - 07:59";"09049";"Victorieplein";"4.90570139";"52.34637186";"14"
"3/29/2021 12:00:00 AM";"07:00 - 07:59";"09051";"Victorieplein";"4.90653699";"52.34645615";"12"
"3/29/2021 12:00:00 AM";"07:00 - 07:59";"09097";"Van Woustraat";"4.90084070";"52.35468363";"12"
"3/29/2021 12:00:00 AM";"07:00 - 07:59";"09120";"Cornelis Troostplein";"4.89161100";"52.35046604";"11"
"3/29/2021 12:00:00 AM";"07:00 - 07:59";"ASA";"Amstelstation";"4.91751426";"52.34647326";"196"
"3/29/2021 12:00:00 AM";"07:00 - 07:59";"ASW";"Amstelveenseweg";"4.85798324";"52.33836671";"266"
"3/29/2021 12:00:00 AM";"07:00 - 07:59";"BLW";"Bullewijk";"4.95233581";"52.30642205";"93"
"3/29/2021 12:00:00 AM";"07:00 - 07:59";"BMR";"Station Bijlmer ArenA";"4.94713474";"52.31193030";"292"
"3/29/2021 12:00:00 AM";"07:00 - 07:59";"CLL";"Station Lelylaan";"4.83426589";"52.35766291";"74"
"3/29/2021 12:00:00 AM";"07:00 - 07:59";"CS";"Centraal Station";"4.90078150";"52.37749421";"416"
"3/29/2021 12:00:00 AM";"07:00 - 07:59";"DMZ";"Station Diemen-Zuid";"4.95713273";"52.33042795";"37"
"3/29/2021 12:00:00 AM";"07:00 - 07:59";"DPP";"De Pijp";"4.89101069";"52.35296212";"102"
"3/29/2021 12:00:00 AM";"07:00 - 07:59";"DVD";"Station Duivendrecht";"4.93678429";"52.32325190";"74"
"3/29/2021 12:00:00 AM";"07:00 - 07:59";"EPP";"Europaplein";"4.89138430";"52.34185482";"103"
"3/29/2021 12:00:00 AM";"07:00 - 07:59";"GN";"Gein";"4.98952268";"52.29627089";"39"
"3/29/2021 12:00:00 AM";"07:00 - 07:59";"GPP";"Gaasperplas";"4.98468551";"52.31080575";"16"
"3/29/2021 12:00:00 AM";"07:00 - 07:59";"GZH";"Station Ganzenhoef";"4.97323379";"52.32331315";"40"
"3/29/2021 12:00:00 AM";"07:00 - 07:59";"HDS";"Heemstedestraat";"4.83421208";"52.35255760";"67"
"3/29/2021 12:00:00 AM";"07:00 - 07:59";"HLD";"Station Holendrecht";"4.96021904";"52.29780451";"357"
"3/29/2021 12:00:00 AM";"07:00 - 07:59";"HVW";"Henk Sneevlietweg";"4.83439318";"52.34626699";"108"
"3/29/2021 12:00:00 AM";"07:00 - 07:59";"ITW";"Isolatorweg";"4.85013475";"52.39523277";"54"
"3/29/2021 12:00:00 AM";"07:00 - 07:59";"JLS";"Jan v.Galenstraat";"4.83492461";"52.37196551";"162"
"3/29/2021 12:00:00 AM";"07:00 - 07:59";"KEN";"Kraaienneststation";"4.97963450";"52.31632492";"27"
"3/29/2021 12:00:00 AM";"07:00 - 07:59";"MDW";"Van der Madeweg";"4.93048657";"52.32945629";"56"
"3/29/2021 12:00:00 AM";"07:00 - 07:59";"ND";"Noord";"4.93123182";"52.40117202";"155"
"3/29/2021 12:00:00 AM";"07:00 - 07:59";"NDP";"Noorderpark";"4.91789115";"52.38855518";"64"
"3/29/2021 12:00:00 AM";"07:00 - 07:59";"NMT";"Nieuwmarkt";"4.90123885";"52.37194169";"45"
"3/29/2021 12:00:00 AM";"07:00 - 07:59";"OAS";"Overamstel";"4.91815361";"52.33179879";"48"
"3/29/2021 12:00:00 AM";"07:00 - 07:59";"PJW";"Postjesweg";"4.83385543";"52.36468044";"35"
"3/29/2021 12:00:00 AM";"07:00 - 07:59";"RAI";"Station RAI";"4.88982004";"52.33739931";"110"
"3/29/2021 12:00:00 AM";"07:00 - 07:59";"RGB";"Reigersbos";"4.97473728";"52.29566301";"52"
"3/29/2021 12:00:00 AM";"07:00 - 07:59";"RKN";"Rokin";"4.89229651";"52.36928023";"144"
"3/29/2021 12:00:00 AM";"07:00 - 07:59";"SLW";"Spaklerweg";"4.92085640";"52.33986250";"86"
"3/29/2021 12:00:00 AM";"07:00 - 07:59";"STD";"Station Sloterdijk";"4.83878389";"52.38880848";"195"
"3/29/2021 12:00:00 AM";"07:00 - 07:59";"SVT";"Strandvliet";"4.94152820";"52.31825469";"43"
"3/29/2021 12:00:00 AM";"07:00 - 07:59";"VLN";"Burg.de Vlugtlaan";"4.83809109";"52.37951196";"28"
"3/29/2021 12:00:00 AM";"07:00 - 07:59";"VPD";"Venserpolder";"4.94665009";"52.32679428";"21"
"3/29/2021 12:00:00 AM";"07:00 - 07:59";"VSW";"Verrijn Stuartweg";"4.96693669";"52.32844093";"44"
"3/29/2021 12:00:00 AM";"07:00 - 07:59";"VZG";"Vijzelgracht";"4.89072870";"52.35980061";"72"
"3/29/2021 12:00:00 AM";"07:00 - 07:59";"WBS";"Wibautstraat";"4.91202993";"52.35428867";"150"
"3/29/2021 12:00:00 AM";"07:00 - 07:59";"WLP";"Waterlooplein";"4.90298171";"52.36697862";"101"
"3/29/2021 12:00:00 AM";"07:00 - 07:59";"WPP";"Weesperplein";"4.90787469";"52.36120146";"125"
"3/29/2021 12:00:00 AM";"07:00 - 07:59";"WTC";"Station Zuid";"4.87509853";"52.33908015";"475"
"3/29/2021 12:00:00 AM";"08:00 - 08:59";"";"Overig";"";"";"2440"
"3/29/2021 12:00:00 AM";"08:00 - 08:59";"[[ Onb";"[[ Onbekend ]]";"0.00000000";"0.00000000";"236"
"3/29/2021 12:00:00 AM";"08:00 - 08:59";"00001";"Muiderpoortstation";"4.93287450";"52.36132700";"13"
"3/29/2021 12:00:00 AM";"08:00 - 08:59";"00005";"Muiderpoortstation";"4.93280219";"52.36121887";"37"
"3/29/2021 12:00:00 AM";"08:00 - 08:59";"00006";"Muiderpoortstation";"4.93368466";"52.36106048";"17"
"3/29/2021 12:00:00 AM";"08:00 - 08:59";"00007";"Muiderpoortstation";"4.93356602";"52.36117686";"19"
"3/29/2021 12:00:00 AM";"08:00 - 08:59";"00008";"Dapperstraat";"4.92977913";"52.36110836";"31"
"3/29/2021 12:00:00 AM";"08:00 - 08:59";"00010";"Dapperstraat";"4.92891486";"52.36092527";"15"
"3/29/2021 12:00:00 AM";"08:00 - 08:59";"00017";"Linnaeusstraat";"4.92573745";"52.36013099";"18"
"3/29/2021 12:00:00 AM";"08:00 - 08:59";"00020";"Beukenweg";"4.91674979";"52.35906203";"23"
"3/29/2021 12:00:00 AM";"08:00 - 08:59";"00021";"Beukenweg";"4.91721293";"52.35829991";"40"
"3/29/2021 12:00:00 AM";"08:00 - 08:59";"00023";"Beukenplein";"4.91809259";"52.35701816";"17"
"3/29/2021 12:00:00 AM";"08:00 - 08:59";"00029";"Oostpoort";"4.92719316";"52.35707185";"85"
"3/29/2021 12:00:00 AM";"08:00 - 08:59";"00030";"Oostpoort";"4.92694026";"52.35739442";"68"
"3/29/2021 12:00:00 AM";"08:00 - 08:59";"00039";"Hogeweg";"4.93084015";"52.35358075";"15"
"3/29/2021 12:00:00 AM";"08:00 - 08:59";"00053";"Kruislaan";"4.93967974";"52.34742196";"12"
"3/29/2021 12:00:00 AM";"08:00 - 08:59";"00059";"Radioweg";"4.93945830";"52.35337100";"16"
"3/29/2021 12:00:00 AM";"08:00 - 08:59";"00060";"Radioweg";"4.93979325";"52.35363291";"19"
"3/29/2021 12:00:00 AM";"08:00 - 08:59";"00065";"Hugo de Vrieslaan";"4.93487340";"52.35101676";"14"
"3/29/2021 12:00:00 AM";"08:00 - 08:59";"00114";"Dennenrode";"4.95213839";"52.32209601";"17"
"3/29/2021 12:00:00 AM";"08:00 - 08:59";"00116";"Station Ganzenhoef";"4.97272915";"52.32237665";"11"
"3/29/2021 12:00:00 AM";"08:00 - 08:59";"00134";"Koornhorst";"4.98400929";"52.31907218";"33"
"3/29/2021 12:00:00 AM";"08:00 - 08:59";"00141";"Kraaienneststation";"4.97868390";"52.31603403";"18"
"3/29/2021 12:00:00 AM";"08:00 - 08:59";"00144";"Kikkenstein";"4.97237050";"52.31680298";"13"
"3/29/2021 12:00:00 AM";"08:00 - 08:59";"00150";"Tulastraat";"4.96535973";"52.31994189";"79"
"3/29/2021 12:00:00 AM";"08:00 - 08:59";"00151";"Tulastraat";"4.96584458";"52.31985374";"51"
"3/29/2021 12:00:00 AM";"08:00 - 08:59";"00152";"Florijn";"4.95859163";"52.31758973";"18"
"3/29/2021 12:00:00 AM";"08:00 - 08:59";"00157";"Dolingadreef";"4.94847023";"52.31925132";"11"
"3/29/2021 12:00:00 AM";"08:00 - 08:59";"00158";"Dolingadreef";"4.94901581";"52.31895674";"29"
"3/29/2021 12:00:00 AM";"08:00 - 08:59";"00172";"Holendrechtplein";"4.96402882";"52.29952588";"17"
"3/29/2021 12:00:00 AM";"08:00 - 08:59";"00179";"Kelbergen";"4.97179997";"52.31351146";"21"
"3/29/2021 12:00:00 AM";"08:00 - 08:59";"00180";"Kelbergen";"4.97143303";"52.31354612";"11"
"3/29/2021 12:00:00 AM";"08:00 - 08:59";"00205";"Station Holendrecht";"4.95865657";"52.29716971";"17"
"3/29/2021 12:00:00 AM";"08:00 - 08:59";"00238";"Anton de Komplein";"4.95413359";"52.31603659";"34"
"3/29/2021 12:00:00 AM";"08:00 - 08:59";"00239";"Anton de Komplein";"4.95597669";"52.31652866";"18"
"3/29/2021 12:00:00 AM";"08:00 - 08:59";"00330";"Middenweg";"4.93455629";"52.35044932";"10"
"3/29/2021 12:00:00 AM";"08:00 - 08:59";"00341";"Woudrichemstraat";"4.98882309";"52.29418337";"14"
"3/29/2021 12:00:00 AM";"08:00 - 08:59";"00351";"Dostojevskisingel";"4.94525272";"52.32275356";"28"
"3/29/2021 12:00:00 AM";"08:00 - 08:59";"00432";"Diemerbrug";"4.96142958";"52.33824484";"14"
"3/29/2021 12:00:00 AM";"08:00 - 08:59";"00434";"Bijlmerplein";"4.95032022";"52.31457553";"51"
"3/29/2021 12:00:00 AM";"08:00 - 08:59";"00441";"Muiderpoortstation";"4.93254137";"52.36088532";"11"
"3/29/2021 12:00:00 AM";"08:00 - 08:59";"00444";"Linnaeusstraat";"4.92490296";"52.35991203";"51"
"3/29/2021 12:00:00 AM";"08:00 - 08:59";"00453";"Diemen Sniep";"4.96964866";"52.33644962";"15"
"3/29/2021 12:00:00 AM";"08:00 - 08:59";"00491";"Science Park Aer";"4.95218495";"52.35478458";"15"
"3/29/2021 12:00:00 AM";"08:00 - 08:59";"00505";"Arent Krijtsstraat";"4.95469645";"52.33956859";"11"
"3/29/2021 12:00:00 AM";"08:00 - 08:59";"00538";"Station Science Park";"4.94808393";"52.35239669";"25"
"3/29/2021 12:00:00 AM";"08:00 - 08:59";"00560";"Station Bijlmer ArenA";"4.94747867";"52.31125750";"27"
"3/29/2021 12:00:00 AM";"08:00 - 08:59";"00561";"Station Bijlmer ArenA";"4.94741931";"52.31132918";"41"
"3/29/2021 12:00:00 AM";"08:00 - 08:59";"00568";"Station Bijlmer ArenA";"4.94762664";"52.31112323";"13"
"3/29/2021 12:00:00 AM";"08:00 - 08:59";"00603";"V. Houten Ind.park";"5.03580865";"52.30648376";"13"
"3/29/2021 12:00:00 AM";"08:00 - 08:59";"00651";"Casparuslaan";"5.03531862";"52.30911571";"10"
"3/29/2021 12:00:00 AM";"08:00 - 08:59";"00665";"Station Weesp";"5.04383463";"52.31145059";"12"
"3/29/2021 12:00:00 AM";"08:00 - 08:59";"00985";"Winkelcentrum";"4.96422695";"52.34186794";"12"
"3/29/2021 12:00:00 AM";"08:00 - 08:59";"01076";"Waterlandplein";"4.95247364";"52.39274059";"16"
"3/29/2021 12:00:00 AM";"08:00 - 08:59";"01078";"Dijkmanshuizenstraat";"4.95475323";"52.39549915";"11"
"3/29/2021 12:00:00 AM";"08:00 - 08:59";"01110";"Rode Kruisstraat";"4.92847908";"52.39455548";"26"
"3/29/2021 12:00:00 AM";"08:00 - 08:59";"01111";"Rode Kruisstraat";"4.92881363";"52.39488033";"74"
"3/29/2021 12:00:00 AM";"08:00 - 08:59";"01116";"Merelstraat";"4.92492850";"52.38986809";"10"
"3/29/2021 12:00:00 AM";"08:00 - 08:59";"01117";"Merelstraat";"4.92505977";"52.38995848";"18"
"3/29/2021 12:00:00 AM";"08:00 - 08:59";"01168";"Tjalkstraat";"4.91116991";"52.40572174";"13"
"3/29/2021 12:00:00 AM";"08:00 - 08:59";"01188";"Barkpad";"4.91148172";"52.40268517";"10"
"3/29/2021 12:00:00 AM";"08:00 - 08:59";"01191";"Pinksterbloemstraat";"4.91203754";"52.39881372";"15"
"3/29/2021 12:00:00 AM";"08:00 - 08:59";"01212";"Oostzanerdijk";"4.88149588";"52.42023965";"48"
"3/29/2021 12:00:00 AM";"08:00 - 08:59";"01213";"Oostzanerdijk";"4.88083286";"52.42037163";"11"
"3/29/2021 12:00:00 AM";"08:00 - 08:59";"01237";"Beemsterstraat";"4.95210741";"52.39712521";"18"
"3/29/2021 12:00:00 AM";"08:00 - 08:59";"01278";"Statenjachtstraat";"4.91380643";"52.40790731";"13"
"3/29/2021 12:00:00 AM";"08:00 - 08:59";"01305";"Station Noord";"4.93215715";"52.40264056";"41"
"3/29/2021 12:00:00 AM";"08:00 - 08:59";"01316";"Station Noord";"4.93336820";"52.40204304";"35"
"3/29/2021 12:00:00 AM";"08:00 - 08:59";"01352";"Oosterlengte";"4.92206974";"52.40611555";"11"
"3/29/2021 12:00:00 AM";"08:00 - 08:59";"01364";"Buikslotermeerplein";"4.93887054";"52.39992493";"10"
"3/29/2021 12:00:00 AM";"08:00 - 08:59";"01369";"Pomonastraat";"4.89546974";"52.40886620";"11"
"3/29/2021 12:00:00 AM";"08:00 - 08:59";"01402";"Floraweg";"4.90614362";"52.39899665";"25"
"3/29/2021 12:00:00 AM";"08:00 - 08:59";"01414";"Olof Palmeplein";"4.94012168";"52.39679298";"13"
"3/29/2021 12:00:00 AM";"08:00 - 08:59";"01422";"Noorderpark";"4.91956087";"52.38902016";"45"
"3/29/2021 12:00:00 AM";"08:00 - 08:59";"01443";"Volendammerweg";"4.95697086";"52.39255928";"15"
"3/29/2021 12:00:00 AM";"08:00 - 08:59";"02018";"Koivistokade";"4.87577082";"52.39789874";"47"
"3/29/2021 12:00:00 AM";"08:00 - 08:59";"02019";"Koivistokade";"4.87537403";"52.39790601";"25"
"3/29/2021 12:00:00 AM";"08:00 - 08:59";"02064";"Kabelweg";"4.84827817";"52.39205168";"12"
"3/29/2021 12:00:00 AM";"08:00 - 08:59";"02099";"Zaanstraat";"4.86990824";"52.39287613";"17"
"3/29/2021 12:00:00 AM";"08:00 - 08:59";"02103";"Spaarndammerstraat";"4.87765867";"52.39216375";"35"
"3/29/2021 12:00:00 AM";"08:00 - 08:59";"02113";"Haarlemmerplein";"4.88371739";"52.38516129";"17"
"3/29/2021 12:00:00 AM";"08:00 - 08:59";"02114";"Haarlemmerplein";"4.88341252";"52.38484542";"55"
"3/29/2021 12:00:00 AM";"08:00 - 08:59";"02128";"G. v.Ledenberchstraat";"4.87062828";"52.37520945";"11"
"3/29/2021 12:00:00 AM";"08:00 - 08:59";"02130";"Hugo de Grootplein";"4.87259092";"52.37439113";"11"
"3/29/2021 12:00:00 AM";"08:00 - 08:59";"02132";"Fred. Hendrikplants.";"4.87543499";"52.37862768";"22"
"3/29/2021 12:00:00 AM";"08:00 - 08:59";"02140";"Van Beuningenplein";"4.87111633";"52.38122436";"13"
"3/29/2021 12:00:00 AM";"08:00 - 08:59";"02149";"Van L.Stirumstraat";"4.87489798";"52.38443141";"11"
"3/29/2021 12:00:00 AM";"08:00 - 08:59";"02151";"De Wittenkade";"4.87695310";"52.38326290";"13"
"3/29/2021 12:00:00 AM";"08:00 - 08:59";"02155";"Willem de Zwijgerlaan";"4.86360306";"52.37071170";"18"
"3/29/2021 12:00:00 AM";"08:00 - 08:59";"02156";"Willem de Zwijgerlaan";"4.86425293";"52.37039101";"15"
"3/29/2021 12:00:00 AM";"08:00 - 08:59";"02157";"Adm. de Ruijterweg";"4.86009910";"52.37148707";"19"
"3/29/2021 12:00:00 AM";"08:00 - 08:59";"02158";"Adm. de Ruijterweg";"4.86096776";"52.37129320";"22"
"3/29/2021 12:00:00 AM";"08:00 - 08:59";"02160";"Haparandaweg";"4.87389760";"52.39471799";"42"
"3/29/2021 12:00:00 AM";"08:00 - 08:59";"02170";"Spaarndammerstraat";"4.87723089";"52.39231470";"17"
"3/29/2021 12:00:00 AM";"08:00 - 08:59";"02177";"Bos en Lommerweg";"4.85521256";"52.38101018";"13"
"3/29/2021 12:00:00 AM";"08:00 - 08:59";"02182";"Markthallen";"4.86695146";"52.37567869";"32"
"3/29/2021 12:00:00 AM";"08:00 - 08:59";"02183";"Markthallen";"4.86667150";"52.37575835";"19"
"3/29/2021 12:00:00 AM";"08:00 - 08:59";"02184";"Jan v.Galenstraat";"4.86033817";"52.37484954";"14"
"3/29/2021 12:00:00 AM";"08:00 - 08:59";"02222";"Jan van Galenstraat";"4.85874763";"52.37399761";"24"
"3/29/2021 12:00:00 AM";"08:00 - 08:59";"02259";"Contactweg";"4.85657970";"52.39195435";"48"
"3/29/2021 12:00:00 AM";"08:00 - 08:59";"02260";"Contactweg";"4.85432952";"52.39215995";"27"
"3/29/2021 12:00:00 AM";"08:00 - 08:59";"02301";"Fred. Hendrikplants.";"4.87521585";"52.37852787";"24"
"3/29/2021 12:00:00 AM";"08:00 - 08:59";"02302";"Fred. Hendrikplants.";"4.87549415";"52.37859198";"16"
"3/29/2021 12:00:00 AM";"08:00 - 08:59";"02309";"Plesostraat";"4.82645527";"52.38795084";"27"
"3/29/2021 12:00:00 AM";"08:00 - 08:59";"02310";"Plesostraat";"4.82849791";"52.38788859";"15"
"3/29/2021 12:00:00 AM";"08:00 - 08:59";"02319";"Solebaystraat";"4.85540788";"52.38431853";"12"
"3/29/2021 12:00:00 AM";"08:00 - 08:59";"02320";"Van Hallstraat";"4.86782303";"52.38527240";"17"
"3/29/2021 12:00:00 AM";"08:00 - 08:59";"02321";"Van Hallstraat";"4.86864429";"52.38538386";"17"
"3/29/2021 12:00:00 AM";"08:00 - 08:59";"02360";"Station Sloterdijk";"4.83827278";"52.38856344";"10"
"3/29/2021 12:00:00 AM";"08:00 - 08:59";"02361";"Station Sloterdijk";"4.83931858";"52.38833460";"52"
"3/29/2021 12:00:00 AM";"08:00 - 08:59";"02365";"Station Sloterdijk";"4.83873236";"52.38822404";"30"
"3/29/2021 12:00:00 AM";"08:00 - 08:59";"02366";"Station Sloterdijk";"4.83873347";"52.38813416";"26"
"3/29/2021 12:00:00 AM";"08:00 - 08:59";"02367";"Station Sloterdijk";"4.83876429";"52.38801747";"25"
"3/29/2021 12:00:00 AM";"08:00 - 08:59";"02368";"Station Sloterdijk";"4.83877999";"52.38793665";"16"
"3/29/2021 12:00:00 AM";"08:00 - 08:59";"02378";"Station Sloterdijk";"4.83809796";"52.38844579";"49"
"3/29/2021 12:00:00 AM";"08:00 - 08:59";"03009";"Witte de Withstraat";"4.85851970";"52.36478416";"21"
"3/29/2021 12:00:00 AM";"08:00 - 08:59";"03010";"Witte de Withstraat";"4.85928290";"52.36480554";"24"
"3/29/2021 12:00:00 AM";"08:00 - 08:59";"03022";"Mercatorplein";"4.85070310";"52.37012367";"13"
"3/29/2021 12:00:00 AM";"08:00 - 08:59";"03023";"Marco Polostraat";"4.85520189";"52.37088096";"32"
"3/29/2021 12:00:00 AM";"08:00 - 08:59";"03034";"Erasmusgracht";"4.84691117";"52.37644278";"15"
"3/29/2021 12:00:00 AM";"08:00 - 08:59";"03038";"Bos en Lommerweg";"4.85369544";"52.38014952";"10"
"3/29/2021 12:00:00 AM";"08:00 - 08:59";"03052";"Burg. Eliasstraat";"4.82565009";"52.38077481";"19"
"3/29/2021 12:00:00 AM";"08:00 - 08:59";"03055";"Burg. Fockstraat";"4.83108040";"52.37991964";"14"
"3/29/2021 12:00:00 AM";"08:00 - 08:59";"03057";"Anth. Moddermanstraat";"4.81474778";"52.38339197";"12"
"3/29/2021 12:00:00 AM";"08:00 - 08:59";"03060";"Bos en Lommerplein";"4.84718407";"52.37815169";"21"
"3/29/2021 12:00:00 AM";"08:00 - 08:59";"03061";"Bos en Lommerplein";"4.84523530";"52.37778328";"40"
"3/29/2021 12:00:00 AM";"08:00 - 08:59";"03076";"Jan Tooropstraat";"4.83810313";"52.37142305";"21"
"3/29/2021 12:00:00 AM";"08:00 - 08:59";"03077";"Jan Tooropstraat";"4.83817288";"52.37171997";"15"
"3/29/2021 12:00:00 AM";"08:00 - 08:59";"03087";"Plein '40 - '45";"4.82063128";"52.38159575";"14"
"3/29/2021 12:00:00 AM";"08:00 - 08:59";"03090";"Slotermeerlaan";"4.81728149";"52.37596234";"15"
"3/29/2021 12:00:00 AM";"08:00 - 08:59";"03097";"Burg. v. Leeuwenlaan";"4.81182601";"52.37651117";"10"
"3/29/2021 12:00:00 AM";"08:00 - 08:59";"03101";"Lambertus Zijlplein";"4.80300456";"52.37726788";"10"
"3/29/2021 12:00:00 AM";"08:00 - 08:59";"03117";"Sam van Houtenstraat";"4.79790430";"52.37868964";"10"
"3/29/2021 12:00:00 AM";"08:00 - 08:59";"03121";"Aalbersestraat";"4.79774249";"52.38202329";"10"
"3/29/2021 12:00:00 AM";"08:00 - 08:59";"03129";"Plein '40 - '45";"4.82112672";"52.38075328";"43"
"3/29/2021 12:00:00 AM";"08:00 - 08:59";"03130";"Plein '40 - '45";"4.82267774";"52.38121007";"13"
"3/29/2021 12:00:00 AM";"08:00 - 08:59";"03132";"Burg. R?ellstraat";"4.81950345";"52.37676393";"23"
"3/29/2021 12:00:00 AM";"08:00 - 08:59";"03135";"Ookmeerweg";"4.80431836";"52.36558127";"77"
"3/29/2021 12:00:00 AM";"08:00 - 08:59";"03136";"Ookmeerweg";"4.80419536";"52.36600309";"13"
"3/29/2021 12:00:00 AM";"08:00 - 08:59";"03150";"Mercatorplein";"4.85011339";"52.37031872";"26"
"3/29/2021 12:00:00 AM";"08:00 - 08:59";"03157";"Lambertus Zijlplein";"4.80338637";"52.37726977";"23"
"3/29/2021 12:00:00 AM";"08:00 - 08:59";"03163";"Burg.de Vlugtlaan";"4.83793812";"52.37881920";"20"
"3/29/2021 12:00:00 AM";"08:00 - 08:59";"03167";"Bos en Lommerplein";"4.84650668";"52.37709704";"36"
"3/29/2021 12:00:00 AM";"08:00 - 08:59";"03168";"Mercatorplein";"4.85152392";"52.37024423";"15"
"3/29/2021 12:00:00 AM";"08:00 - 08:59";"03171";"Burg. Rendorpstraat";"4.82768433";"52.37436719";"26"
"3/29/2021 12:00:00 AM";"08:00 - 08:59";"03172";"Burg. Rendorpstraat";"4.82691962";"52.37445346";"23"
"3/29/2021 12:00:00 AM";"08:00 - 08:59";"03174";"Burg. R?ellstraat";"4.81863325";"52.37476448";"12"
"3/29/2021 12:00:00 AM";"08:00 - 08:59";"03178";"Mercatorplein";"4.84991664";"52.37080317";"12"
"3/29/2021 12:00:00 AM";"08:00 - 08:59";"03181";"Jan Voermanstraat";"4.83788946";"52.36970540";"16"
"3/29/2021 12:00:00 AM";"08:00 - 08:59";"03182";"Jan Voermanstraat";"4.83852226";"52.36959149";"12"
"3/29/2021 12:00:00 AM";"08:00 - 08:59";"03197";"W. Schoutenstraat";"4.85238084";"52.36737202";"14"
"3/29/2021 12:00:00 AM";"08:00 - 08:59";"03198";"W. Schoutenstraat";"4.85259061";"52.36702245";"13"
"3/29/2021 12:00:00 AM";"08:00 - 08:59";"04008";"Dijkgraafplein";"4.78646982";"52.35545267";"20"
"3/29/2021 12:00:00 AM";"08:00 - 08:59";"04012";"Baden Powellweg";"4.79137362";"52.35646612";"32"
"3/29/2021 12:00:00 AM";"08:00 - 08:59";"04016";"Hoekenes";"4.79854723";"52.35791310";"12"
"3/29/2021 12:00:00 AM";"08:00 - 08:59";"04021";"Osdorpplein West";"4.80322869";"52.35913166";"31"
"3/29/2021 12:00:00 AM";"08:00 - 08:59";"04050";"Meer en Vaart";"4.80994403";"52.35636940";"41"
"3/29/2021 12:00:00 AM";"08:00 - 08:59";"04060";"Derkinderenstraat";"4.83972293";"52.35796689";"21"
"3/29/2021 12:00:00 AM";"08:00 - 08:59";"04061";"Derkinderenstraat";"4.84014895";"52.35794190";"14"
"3/29/2021 12:00:00 AM";"08:00 - 08:59";"04062";"Johan Huizingalaan";"4.82582327";"52.35781191";"12"
"3/29/2021 12:00:00 AM";"08:00 - 08:59";"04063";"Johan Huizingalaan";"4.82626398";"52.35778704";"29"
"3/29/2021 12:00:00 AM";"08:00 - 08:59";"04064";"Osdorpplein Oost";"4.80806527";"52.35860717";"13"
"3/29/2021 12:00:00 AM";"08:00 - 08:59";"04065";"Osdorpplein Oost";"4.80773259";"52.35935153";"20"
"3/29/2021 12:00:00 AM";"08:00 - 08:59";"04088";"Louwesweg";"4.82436420";"52.34669608";"16"
"3/29/2021 12:00:00 AM";"08:00 - 08:59";"04110";"Westlandgracht";"4.84581964";"52.35156868";"14"
"3/29/2021 12:00:00 AM";"08:00 - 08:59";"04112";"Johan Huizingalaan";"4.82742878";"52.34923618";"28"
"3/29/2021 12:00:00 AM";"08:00 - 08:59";"04129";"Derkinderenstraat";"4.83926482";"52.36415734";"14"
"3/29/2021 12:00:00 AM";"08:00 - 08:59";"04132";"Jan Tooropstraat";"4.83537474";"52.36411231";"10"
"3/29/2021 12:00:00 AM";"08:00 - 08:59";"04133";"Robert Fruinlaan";"4.82910660";"52.36403799";"16"
"3/29/2021 12:00:00 AM";"08:00 - 08:59";"04140";"Sierplein";"4.82732630";"52.35503282";"14"
"3/29/2021 12:00:00 AM";"08:00 - 08:59";"04148";"Louis Davidsstraat";"4.80952552";"52.35356316";"48"
"3/29/2021 12:00:00 AM";"08:00 - 08:59";"04195";"Station Lelylaan";"4.83460082";"52.35788018";"85"
"3/29/2021 12:00:00 AM";"08:00 - 08:59";"04196";"Station Lelylaan";"4.83382251";"52.35790351";"69"
"3/29/2021 12:00:00 AM";"08:00 - 08:59";"04274";"Schiphol Airport/Plaza";"4.76104997";"52.30939292";"15"
"3/29/2021 12:00:00 AM";"08:00 - 08:59";"04277";"Laan v.Vlaanderen";"4.81642720";"52.34648730";"16"
"3/29/2021 12:00:00 AM";"08:00 - 08:59";"04279";"Centrum Nieuw Sloten";"4.81104244";"52.34638930";"13"
"3/29/2021 12:00:00 AM";"08:00 - 08:59";"04308";"Antwerpenbaan";"4.81624222";"52.34603701";"10"
"3/29/2021 12:00:00 AM";"08:00 - 08:59";"04379";"Knooppunt Schiphol Nrd";"4.79320459";"52.32276196";"31"
"3/29/2021 12:00:00 AM";"08:00 - 08:59";"04402";"Matterhorn";"4.77477998";"52.35372103";"40"
"3/29/2021 12:00:00 AM";"08:00 - 08:59";"04403";"Pilatus";"4.77696371";"52.35289644";"10"
"3/29/2021 12:00:00 AM";"08:00 - 08:59";"04407";"Ecuplein";"4.78817670";"52.34970912";"12"
"3/29/2021 12:00:00 AM";"08:00 - 08:59";"04409";"Baden Powellweg";"4.79441281";"52.35092691";"37"
"3/29/2021 12:00:00 AM";"08:00 - 08:59";"04411";"Hoekenes";"4.80183430";"52.35243785";"14"
"3/29/2021 12:00:00 AM";"08:00 - 08:59";"04413";"Louis Davidsstraat";"4.80850916";"52.35383682";"75"
"3/29/2021 12:00:00 AM";"08:00 - 08:59";"04414";"Louis Davidsstraat";"4.80910976";"52.35392963";"10"
"3/29/2021 12:00:00 AM";"08:00 - 08:59";"05011";"Centraal Station";"4.89921803";"52.37810793";"142"
"3/29/2021 12:00:00 AM";"08:00 - 08:59";"05022";"Centraal Station";"4.90104337";"52.37771998";"103"
"3/29/2021 12:00:00 AM";"08:00 - 08:59";"05031";"Dam";"4.89348394";"52.37341055";"15"
"3/29/2021 12:00:00 AM";"08:00 - 08:59";"05032";"Dam";"4.89549360";"52.37492885";"17"
"3/29/2021 12:00:00 AM";"08:00 - 08:59";"05035";"Rokin";"4.89210433";"52.36939627";"19"
"3/29/2021 12:00:00 AM";"08:00 - 08:59";"05036";"Rokin";"4.89230478";"52.36985548";"17"
"3/29/2021 12:00:00 AM";"08:00 - 08:59";"05046";"Rembrandtplein";"4.89627976";"52.36625897";"10"
"3/29/2021 12:00:00 AM";"08:00 - 08:59";"05047";"Rembrandtplein";"4.89702882";"52.36623511";"28"
"3/29/2021 12:00:00 AM";"08:00 - 08:59";"05065";"Dam";"4.89079364";"52.37367792";"40"
"3/29/2021 12:00:00 AM";"08:00 - 08:59";"05066";"Dam";"4.89027056";"52.37318140";"59"
"3/29/2021 12:00:00 AM";"08:00 - 08:59";"05069";"Nieuwezijds Kolk";"4.89373093";"52.37628765";"18"
"3/29/2021 12:00:00 AM";"08:00 - 08:59";"05070";"Nieuwezijds Kolk";"4.89284106";"52.37575366";"10"
"3/29/2021 12:00:00 AM";"08:00 - 08:59";"05073";"Westermarkt";"4.88453426";"52.37400204";"42"
"3/29/2021 12:00:00 AM";"08:00 - 08:59";"05074";"Westermarkt";"4.88354950";"52.37407874";"70"
"3/29/2021 12:00:00 AM";"08:00 - 08:59";"05077";"Marnixstraat";"4.87615428";"52.37228546";"20"
"3/29/2021 12:00:00 AM";"08:00 - 08:59";"05079";"Buiten Oranjestraat";"4.88805879";"52.38312149";"11"
"3/29/2021 12:00:00 AM";"08:00 - 08:59";"05080";"Buiten Oranjestraat";"4.88782167";"52.38330923";"17"
"3/29/2021 12:00:00 AM";"08:00 - 08:59";"05081";"Buiten Brouwersstraat";"4.89157253";"52.38150947";"10"
"3/29/2021 12:00:00 AM";"08:00 - 08:59";"05082";"Buiten Brouwersstraat";"4.89129168";"52.38167008";"20"
"3/29/2021 12:00:00 AM";"08:00 - 08:59";"05092";"Barentszplein";"4.89160204";"52.38938281";"14"
"3/29/2021 12:00:00 AM";"08:00 - 08:59";"05097";"Centraal Station";"4.90087651";"52.37954379";"53"
"3/29/2021 12:00:00 AM";"08:00 - 08:59";"05101";"Centraal Station";"4.90105195";"52.37961641";"10"
"3/29/2021 12:00:00 AM";"08:00 - 08:59";"05103";"Centraal Station";"4.90127481";"52.37938365";"32"
"3/29/2021 12:00:00 AM";"08:00 - 08:59";"05104";"Centraal Station";"4.90164343";"52.37925034";"13"
"3/29/2021 12:00:00 AM";"08:00 - 08:59";"05107";"Centraal Station";"4.90195282";"52.37916174";"11"
"3/29/2021 12:00:00 AM";"08:00 - 08:59";"06001";"Surinameplein";"4.85252231";"52.35807034";"31"
"3/29/2021 12:00:00 AM";"08:00 - 08:59";"06002";"Surinameplein";"4.85090753";"52.35807202";"20"
"3/29/2021 12:00:00 AM";"08:00 - 08:59";"06015";"Postjesweg";"4.85316124";"52.36352879";"13"
"3/29/2021 12:00:00 AM";"08:00 - 08:59";"06016";"J.P. Heijestraat";"4.86239635";"52.36472951";"29"
"3/29/2021 12:00:00 AM";"08:00 - 08:59";"06017";"J.P. Heijestraat";"4.86292317";"52.36487565";"16"
"3/29/2021 12:00:00 AM";"08:00 - 08:59";"06019";"Ten Katestraat";"4.86737423";"52.36591988";"28"
"3/29/2021 12:00:00 AM";"08:00 - 08:59";"06020";"Ten Katestraat";"4.86773990";"52.36603832";"40"
"3/29/2021 12:00:00 AM";"08:00 - 08:59";"06021";"Bilderdijkstraat";"4.87176488";"52.36712545";"55"
"3/29/2021 12:00:00 AM";"08:00 - 08:59";"06023";"Bilderdijkstraat";"4.87254032";"52.36736251";"21"
"3/29/2021 12:00:00 AM";"08:00 - 08:59";"06024";"Kinkerstraat";"4.87230885";"52.36706491";"19"
"3/29/2021 12:00:00 AM";"08:00 - 08:59";"06025";"Kinkerstraat";"4.87201094";"52.36743211";"10"
"3/29/2021 12:00:00 AM";"08:00 - 08:59";"06027";"Elandsgracht";"4.87855189";"52.36808953";"37"
"3/29/2021 12:00:00 AM";"08:00 - 08:59";"06028";"Elandsgracht";"4.87741694";"52.36974738";"42"
"3/29/2021 12:00:00 AM";"08:00 - 08:59";"06029";"Elandsgracht";"4.87684368";"52.36852258";"66"
"3/29/2021 12:00:00 AM";"08:00 - 08:59";"06030";"Rozengracht";"4.87590932";"52.37187996";"23"
"3/29/2021 12:00:00 AM";"08:00 - 08:59";"06034";"Bilderdijkstraat";"4.87082347";"52.37105798";"18"
"3/29/2021 12:00:00 AM";"08:00 - 08:59";"06037";"Bilderdijkstraat";"4.86985701";"52.37082906";"37"
"3/29/2021 12:00:00 AM";"08:00 - 08:59";"06038";"De Clercqstraat";"4.87040279";"52.37061574";"10"
"3/29/2021 12:00:00 AM";"08:00 - 08:59";"06043";"Overtoom";"4.87510145";"52.36299659";"11"
"3/29/2021 12:00:00 AM";"08:00 - 08:59";"06044";"Overtoom";"4.87483191";"52.36345380";"10"
"3/29/2021 12:00:00 AM";"08:00 - 08:59";"06045";"1e Con. Huygensstraat";"4.87399228";"52.36242556";"29"
"3/29/2021 12:00:00 AM";"08:00 - 08:59";"06046";"1e Con. Huygensstraat";"4.87487082";"52.36262709";"36"
"3/29/2021 12:00:00 AM";"08:00 - 08:59";"06048";"J.P. Heijestraat";"4.86585368";"52.36037674";"25"
"3/29/2021 12:00:00 AM";"08:00 - 08:59";"06049";"J.P. Heijestraat";"4.86671778";"52.36055131";"10"
"3/29/2021 12:00:00 AM";"08:00 - 08:59";"06059";"Spiegelgracht";"4.88762090";"52.36071327";"14"
"3/29/2021 12:00:00 AM";"08:00 - 08:59";"06061";"Leidseplein";"4.88339576";"52.36305015";"58"
"3/29/2021 12:00:00 AM";"08:00 - 08:59";"06063";"Leidseplein";"4.88064547";"52.36476406";"50"
"3/29/2021 12:00:00 AM";"08:00 - 08:59";"06082";"Rhijnvis Feithstraat";"4.85967683";"52.35883943";"11"
"3/29/2021 12:00:00 AM";"08:00 - 08:59";"06089";"Leidseplein";"4.88085541";"52.36309324";"81"
"3/29/2021 12:00:00 AM";"08:00 - 08:59";"06114";"Hoofdweg";"4.85444451";"52.36425359";"24"
"3/29/2021 12:00:00 AM";"08:00 - 08:59";"07002";"Van Baerlestraat";"4.87836936";"52.35839997";"17"
"3/29/2021 12:00:00 AM";"08:00 - 08:59";"07004";"De Boelelaan/VU";"4.86586883";"52.33534587";"10"
"3/29/2021 12:00:00 AM";"08:00 - 08:59";"07006";"Museumplein";"4.87980116";"52.35642881";"37"
"3/29/2021 12:00:00 AM";"08:00 - 08:59";"07007";"Museumplein";"4.87950215";"52.35690388";"100"
"3/29/2021 12:00:00 AM";"08:00 - 08:59";"07015";"Roelof Hartplein";"4.88206971";"52.35314900";"24"
"3/29/2021 12:00:00 AM";"08:00 - 08:59";"07016";"Roelof Hartplein";"4.88286688";"52.35274795";"57"
"3/29/2021 12:00:00 AM";"08:00 - 08:59";"07027";"Corn. Schuytstraat";"4.87051458";"52.35597520";"21"
"3/29/2021 12:00:00 AM";"08:00 - 08:59";"07028";"Corn. Schuytstraat";"4.87088070";"52.35604870";"18"
"3/29/2021 12:00:00 AM";"08:00 - 08:59";"07031";"Valeriusplein";"4.86374943";"52.35333004";"36"
"3/29/2021 12:00:00 AM";"08:00 - 08:59";"07032";"Valeriusplein";"4.86326678";"52.35318410";"21"
"3/29/2021 12:00:00 AM";"08:00 - 08:59";"07033";"Amstelveenseweg";"4.85695925";"52.35161911";"19"
"3/29/2021 12:00:00 AM";"08:00 - 08:59";"07034";"Amstelveenseweg";"4.85596467";"52.35132704";"12"
"3/29/2021 12:00:00 AM";"08:00 - 08:59";"07035";"Zeilstraat";"4.85672894";"52.35124059";"14"
"3/29/2021 12:00:00 AM";"08:00 - 08:59";"07048";"Hoofddorpplein";"4.85010578";"52.35154327";"14"
"3/29/2021 12:00:00 AM";"08:00 - 08:59";"07049";"Hoofddorpplein";"4.84958188";"52.35117239";"35"
"3/29/2021 12:00:00 AM";"08:00 - 08:59";"07050";"Haarlemmermeerstation";"4.85744749";"52.34883508";"24"
"3/29/2021 12:00:00 AM";"08:00 - 08:59";"07083";"Gerrit v.d. Veenstraat";"4.87735929";"52.34921014";"35"
"3/29/2021 12:00:00 AM";"08:00 - 08:59";"07084";"Gerrit v.d. Veenstraat";"4.87720177";"52.34886793";"38"
"3/29/2021 12:00:00 AM";"08:00 - 08:59";"07087";"Stadionweg";"4.87688397";"52.34714989";"13"
"3/29/2021 12:00:00 AM";"08:00 - 08:59";"07088";"Stadionweg";"4.87687497";"52.34665553";"16"
"3/29/2021 12:00:00 AM";"08:00 - 08:59";"07097";"Olympiaplein";"4.86582821";"52.34630180";"16"
"3/29/2021 12:00:00 AM";"08:00 - 08:59";"07098";"Olympiaplein";"4.86659057";"52.34636807";"12"
"3/29/2021 12:00:00 AM";"08:00 - 08:59";"07116";"Haarl'meerstation";"4.85760410";"52.34924023";"10"
"3/29/2021 12:00:00 AM";"08:00 - 08:59";"07120";"Olympiaweg";"4.85834130";"52.34526195";"12"
"3/29/2021 12:00:00 AM";"08:00 - 08:59";"07130";"Pr. Irenestraat";"4.86819699";"52.34202504";"10"
"3/29/2021 12:00:00 AM";"08:00 - 08:59";"07131";"Pr. Irenestraat";"4.86833196";"52.34303226";"10"
"3/29/2021 12:00:00 AM";"08:00 - 08:59";"07190";"Station Zuid";"4.87352214";"52.34089784";"13"
"3/29/2021 12:00:00 AM";"08:00 - 08:59";"07193";"Station Zuid";"4.87334616";"52.34088808";"20"
"3/29/2021 12:00:00 AM";"08:00 - 08:59";"07207";"IJsbaanpad";"4.85756146";"52.34051291";"10"
"3/29/2021 12:00:00 AM";"08:00 - 08:59";"07268";"Station Zuid";"4.87428608";"52.34082026";"23"
"3/29/2021 12:00:00 AM";"08:00 - 08:59";"07269";"Station Zuid";"4.87374306";"52.34082689";"40"
"3/29/2021 12:00:00 AM";"08:00 - 08:59";"07270";"Parnassusweg";"4.86874218";"52.33806382";"28"
"3/29/2021 12:00:00 AM";"08:00 - 08:59";"07294";"Station Zuid";"4.87327467";"52.34072599";"28"
"3/29/2021 12:00:00 AM";"08:00 - 08:59";"07303";"VU medisch centrum";"4.86097062";"52.33515342";"36"
"3/29/2021 12:00:00 AM";"08:00 - 08:59";"07321";"Van Baerlestraat";"4.87895796";"52.35827667";"25"
"3/29/2021 12:00:00 AM";"08:00 - 08:59";"07322";"Van Baerlestraat";"4.87971942";"52.35844171";"40"
"3/29/2021 12:00:00 AM";"08:00 - 08:59";"07323";"Rijksmuseum";"4.88355043";"52.35977029";"23"
"3/29/2021 12:00:00 AM";"08:00 - 08:59";"07324";"Rijksmuseum";"4.88332565";"52.36017378";"11"
"3/29/2021 12:00:00 AM";"08:00 - 08:59";"07391";"Kronenburg";"4.87070592";"52.31556694";"28"
"3/29/2021 12:00:00 AM";"08:00 - 08:59";"07418";"Van Boshuizenstraat";"4.86902148";"52.32544617";"16"
"3/29/2021 12:00:00 AM";"08:00 - 08:59";"07419";"Van Boshuizenstraat";"4.86896941";"52.32487971";"117"
"3/29/2021 12:00:00 AM";"08:00 - 08:59";"07423";"Uilenstede";"4.86910951";"52.32167168";"31"
"3/29/2021 12:00:00 AM";"08:00 - 08:59";"07435";"Onderuit";"4.87243689";"52.30793483";"13"
"3/29/2021 12:00:00 AM";"08:00 - 08:59";"07439";"Oranjebaan";"4.87179001";"52.30302465";"42"
"3/29/2021 12:00:00 AM";"08:00 - 08:59";"07442";"Zonnestein";"4.87236664";"52.31146674";"15"
"3/29/2021 12:00:00 AM";"08:00 - 08:59";"07445";"Amstelveen Stadshart";"4.86751502";"52.30124433";"18"
"3/29/2021 12:00:00 AM";"08:00 - 08:59";"07448";"A.J. Ernststraat";"4.86887597";"52.33288743";"18"
"3/29/2021 12:00:00 AM";"08:00 - 08:59";"07449";"A.J. Ernststraat";"4.86879476";"52.33230287";"13"
"3/29/2021 12:00:00 AM";"08:00 - 08:59";"07453";"Ouderkerkerlaan";"4.86721192";"52.29582332";"25"
"3/29/2021 12:00:00 AM";"08:00 - 08:59";"07457";"Sportlaan";"4.86336804";"52.28987436";"42"
"3/29/2021 12:00:00 AM";"08:00 - 08:59";"07473";"Meent";"4.85693861";"52.28084883";"17"
"3/29/2021 12:00:00 AM";"08:00 - 08:59";"07482";"Sacharovlaan";"4.83228912";"52.28211984";"16"
"3/29/2021 12:00:00 AM";"08:00 - 08:59";"08007";"Bob Haarmslaan";"4.96921237";"52.36876786";"44"
"3/29/2021 12:00:00 AM";"08:00 - 08:59";"08009";"Bob Haarmslaan";"4.96859205";"52.36915214";"24"
"3/29/2021 12:00:00 AM";"08:00 - 08:59";"08027";"Kadijksplein";"4.91357159";"52.37075136";"10"
"3/29/2021 12:00:00 AM";"08:00 - 08:59";"08051";"K. 's-Gravesandestr.";"4.91366120";"52.36235720";"18"
"3/29/2021 12:00:00 AM";"08:00 - 08:59";"08052";"K. 's-Gravesandestr.";"4.91550720";"52.36271509";"13"
"3/29/2021 12:00:00 AM";"08:00 - 08:59";"08053";"Weesperplein";"4.90655690";"52.36088154";"15"
"3/29/2021 12:00:00 AM";"08:00 - 08:59";"08054";"Weesperplein";"4.90941338";"52.36145933";"53"
"3/29/2021 12:00:00 AM";"08:00 - 08:59";"08057";"Frederiksplein";"4.90024241";"52.35971430";"31"
"3/29/2021 12:00:00 AM";"08:00 - 08:59";"08058";"Veelaan";"4.93961588";"52.36830916";"17"
"3/29/2021 12:00:00 AM";"08:00 - 08:59";"08059";"Veelaan";"4.93944523";"52.36776026";"14"
"3/29/2021 12:00:00 AM";"08:00 - 08:59";"08066";"Frederiksplein";"4.89751569";"52.35937050";"19"
"3/29/2021 12:00:00 AM";"08:00 - 08:59";"08072";"Vijzelgracht";"4.89159781";"52.35953462";"20"
"3/29/2021 12:00:00 AM";"08:00 - 08:59";"08073";"Vijzelgracht";"4.89227386";"52.35946554";"28"
"3/29/2021 12:00:00 AM";"08:00 - 08:59";"08080";"Spiegelgracht";"4.88691222";"52.36106979";"55"
"3/29/2021 12:00:00 AM";"08:00 - 08:59";"08095";"Alexanderplein";"4.91969863";"52.36341478";"10"
"3/29/2021 12:00:00 AM";"08:00 - 08:59";"08113";"Javaplein";"4.93949828";"52.36395867";"11"
"3/29/2021 12:00:00 AM";"08:00 - 08:59";"08114";"Javaplein";"4.93955537";"52.36412066";"10"
"3/29/2021 12:00:00 AM";"08:00 - 08:59";"08120";"Insulindeweg";"4.94763926";"52.36469021";"11"
"3/29/2021 12:00:00 AM";"08:00 - 08:59";"08121";"Soembawastraat";"4.94391980";"52.36224967";"13"
"3/29/2021 12:00:00 AM";"08:00 - 08:59";"08124";"Soembawastraat";"4.94346569";"52.36214910";"27"
"3/29/2021 12:00:00 AM";"08:00 - 08:59";"08129";"Molukkenstraat";"4.93861286";"52.36150167";"33"
"3/29/2021 12:00:00 AM";"08:00 - 08:59";"08132";"Valentijnkade";"4.94079607";"52.35900236";"12"
"3/29/2021 12:00:00 AM";"08:00 - 08:59";"08138";"Zuiderzeeweg";"4.96218432";"52.37129534";"18"
"3/29/2021 12:00:00 AM";"08:00 - 08:59";"08139";"Zuiderzeeweg";"4.96240105";"52.37166461";"10"
"3/29/2021 12:00:00 AM";"08:00 - 08:59";"08179";"K. 's-Gravesandestr.";"4.91480799";"52.36220000";"14"
"3/29/2021 12:00:00 AM";"08:00 - 08:59";"08190";"Molukkenstraat";"4.93934614";"52.36157635";"16"
"3/29/2021 12:00:00 AM";"08:00 - 08:59";"08195";"Oostenburgergracht";"4.92452709";"52.36780177";"23"
"3/29/2021 12:00:00 AM";"08:00 - 08:59";"08219";"Borneolaan";"4.93862058";"52.37090283";"12"
"3/29/2021 12:00:00 AM";"08:00 - 08:59";"08233";"C. van Eesterenlaan";"4.93812487";"52.37345346";"10"
"3/29/2021 12:00:00 AM";"08:00 - 08:59";"08235";"Muziekgeb. Bimhuis";"4.91290020";"52.37723779";"33"
"3/29/2021 12:00:00 AM";"08:00 - 08:59";"08237";"Kattenburgerstraat";"4.92126795";"52.37614755";"20"
"3/29/2021 12:00:00 AM";"08:00 - 08:59";"08238";"Rietlandpark";"4.93350159";"52.37322013";"27"
"3/29/2021 12:00:00 AM";"08:00 - 08:59";"08239";"Rietlandpark";"4.93413567";"52.37296191";"44"
"3/29/2021 12:00:00 AM";"08:00 - 08:59";"08241";"Zuiderzeeweg";"4.96185517";"52.37193228";"22"
"3/29/2021 12:00:00 AM";"08:00 - 08:59";"08245";"Steigereiland";"4.98012952";"52.36313467";"50"
"3/29/2021 12:00:00 AM";"08:00 - 08:59";"08247";"Vennepluimstraat";"4.99057242";"52.35769662";"47"
"3/29/2021 12:00:00 AM";"08:00 - 08:59";"08249";"Diemerparklaan";"4.99499716";"52.35532962";"31"
"3/29/2021 12:00:00 AM";"08:00 - 08:59";"08251";"Lumi?restraat";"4.99942127";"52.35298044";"18"
"3/29/2021 12:00:00 AM";"08:00 - 08:59";"08255";"Hoogte Kadijk";"4.92483038";"52.36687722";"20"
"3/29/2021 12:00:00 AM";"08:00 - 08:59";"08257";"1e Coehoornstraat";"4.92618328";"52.36808685";"16"
"3/29/2021 12:00:00 AM";"08:00 - 08:59";"08259";"1e Leeghwaterstraat";"4.93004964";"52.37047459";"15"
"3/29/2021 12:00:00 AM";"08:00 - 08:59";"08261";"Rietlandpark";"4.93481067";"52.37300943";"15"
"3/29/2021 12:00:00 AM";"08:00 - 08:59";"08262";"IJburg";"5.00486802";"52.35112872";"139"
"3/29/2021 12:00:00 AM";"08:00 - 08:59";"08270";"Diemerparklaan";"4.99472994";"52.35567027";"20"
"3/29/2021 12:00:00 AM";"08:00 - 08:59";"08281";"Vennepluimstraat";"4.99139941";"52.35714215";"11"
"3/29/2021 12:00:00 AM";"08:00 - 08:59";"08300";"P.Oosterhuisstraat";"5.00693059";"52.35193526";"43"
"3/29/2021 12:00:00 AM";"08:00 - 08:59";"09013";"Amstelstation";"4.91790223";"52.34725673";"17"
"3/29/2021 12:00:00 AM";"08:00 - 08:59";"09016";"Amstelstation";"4.91953925";"52.34649925";"10"
"3/29/2021 12:00:00 AM";"08:00 - 08:59";"09049";"Victorieplein";"4.90570139";"52.34637186";"24"
"3/29/2021 12:00:00 AM";"08:00 - 08:59";"09051";"Victorieplein";"4.90653699";"52.34645615";"22"
"3/29/2021 12:00:00 AM";"08:00 - 08:59";"09061";"Waalstraat";"4.90060087";"52.34442762";"14"
"3/29/2021 12:00:00 AM";"08:00 - 08:59";"09064";"Pres. Kennedylaan";"4.90174037";"52.34087315";"10"
"3/29/2021 12:00:00 AM";"08:00 - 08:59";"09082";"Waalstraat";"4.89974094";"52.34656317";"39"
"3/29/2021 12:00:00 AM";"08:00 - 08:59";"09083";"Waalstraat";"4.90032528";"52.34680824";"25"
"3/29/2021 12:00:00 AM";"08:00 - 08:59";"09086";"Amstelkade";"4.90432498";"52.34878396";"14"
"3/29/2021 12:00:00 AM";"08:00 - 08:59";"09090";"Lutmastraat";"4.90331220";"52.35148513";"10"
"3/29/2021 12:00:00 AM";"08:00 - 08:59";"09096";"Van Woustraat";"4.90163035";"52.35495650";"18"
"3/29/2021 12:00:00 AM";"08:00 - 08:59";"09097";"Van Woustraat";"4.90084070";"52.35468363";"24"
"3/29/2021 12:00:00 AM";"08:00 - 08:59";"09108";"2e v.d.Helststraat";"4.89423729";"52.35319131";"13"
"3/29/2021 12:00:00 AM";"08:00 - 08:59";"09109";"2e v.d.Helststraat";"4.89488170";"52.35331982";"17"
"3/29/2021 12:00:00 AM";"08:00 - 08:59";"09111";"De Pijp";"4.89073444";"52.35272728";"27"
"3/29/2021 12:00:00 AM";"08:00 - 08:59";"09114";"De Pijp";"4.88948829";"52.35259622";"20"
"3/29/2021 12:00:00 AM";"08:00 - 08:59";"09120";"Cornelis Troostplein";"4.89161100";"52.35046604";"25"
"3/29/2021 12:00:00 AM";"08:00 - 08:59";"09176";"James Wattstraat";"4.92329155";"52.35116068";"24"
"3/29/2021 12:00:00 AM";"08:00 - 08:59";"ASA";"Amstelstation";"4.91751426";"52.34647326";"347"
"3/29/2021 12:00:00 AM";"08:00 - 08:59";"ASW";"Amstelveenseweg";"4.85798324";"52.33836671";"423"
"3/29/2021 12:00:00 AM";"08:00 - 08:59";"BLW";"Bullewijk";"4.95233581";"52.30642205";"156"
"3/29/2021 12:00:00 AM";"08:00 - 08:59";"BMR";"Station Bijlmer ArenA";"4.94713474";"52.31193030";"460"
"3/29/2021 12:00:00 AM";"08:00 - 08:59";"CLL";"Station Lelylaan";"4.83426589";"52.35766291";"193"
"3/29/2021 12:00:00 AM";"08:00 - 08:59";"CS";"Centraal Station";"4.90078150";"52.37749421";"571"
"3/29/2021 12:00:00 AM";"08:00 - 08:59";"DMZ";"Station Diemen-Zuid";"4.95713273";"52.33042795";"58"
"3/29/2021 12:00:00 AM";"08:00 - 08:59";"DPP";"De Pijp";"4.89101069";"52.35296212";"362"
"3/29/2021 12:00:00 AM";"08:00 - 08:59";"DVD";"Station Duivendrecht";"4.93678429";"52.32325190";"85"
"3/29/2021 12:00:00 AM";"08:00 - 08:59";"EPP";"Europaplein";"4.89138430";"52.34185482";"322"
"3/29/2021 12:00:00 AM";"08:00 - 08:59";"GN";"Gein";"4.98952268";"52.29627089";"87"
"3/29/2021 12:00:00 AM";"08:00 - 08:59";"GPP";"Gaasperplas";"4.98468551";"52.31080575";"20"
"3/29/2021 12:00:00 AM";"08:00 - 08:59";"GZH";"Station Ganzenhoef";"4.97323379";"52.32331315";"71"
"3/29/2021 12:00:00 AM";"08:00 - 08:59";"HDS";"Heemstedestraat";"4.83421208";"52.35255760";"105"
"3/29/2021 12:00:00 AM";"08:00 - 08:59";"HLD";"Station Holendrecht";"4.96021904";"52.29780451";"501"
"3/29/2021 12:00:00 AM";"08:00 - 08:59";"HVW";"Henk Sneevlietweg";"4.83439318";"52.34626699";"420"
"3/29/2021 12:00:00 AM";"08:00 - 08:59";"ITW";"Isolatorweg";"4.85013475";"52.39523277";"209"
"3/29/2021 12:00:00 AM";"08:00 - 08:59";"JLS";"Jan v.Galenstraat";"4.83492461";"52.37196551";"282"
"3/29/2021 12:00:00 AM";"08:00 - 08:59";"KEN";"Kraaienneststation";"4.97963450";"52.31632492";"47"
"3/29/2021 12:00:00 AM";"08:00 - 08:59";"MDW";"Van der Madeweg";"4.93048657";"52.32945629";"114"
"3/29/2021 12:00:00 AM";"08:00 - 08:59";"ND";"Noord";"4.93123182";"52.40117202";"255"
"3/29/2021 12:00:00 AM";"08:00 - 08:59";"NDP";"Noorderpark";"4.91789115";"52.38855518";"199"
"3/29/2021 12:00:00 AM";"08:00 - 08:59";"NMT";"Nieuwmarkt";"4.90123885";"52.37194169";"134"
"3/29/2021 12:00:00 AM";"08:00 - 08:59";"OAS";"Overamstel";"4.91815361";"52.33179879";"168"
"3/29/2021 12:00:00 AM";"08:00 - 08:59";"PJW";"Postjesweg";"4.83385543";"52.36468044";"221"
"3/29/2021 12:00:00 AM";"08:00 - 08:59";"RAI";"Station RAI";"4.88982004";"52.33739931";"258"
"3/29/2021 12:00:00 AM";"08:00 - 08:59";"RGB";"Reigersbos";"4.97473728";"52.29566301";"85"
"3/29/2021 12:00:00 AM";"08:00 - 08:59";"RKN";"Rokin";"4.89229651";"52.36928023";"356"
"3/29/2021 12:00:00 AM";"08:00 - 08:59";"SLW";"Spaklerweg";"4.92085640";"52.33986250";"115"
"3/29/2021 12:00:00 AM";"08:00 - 08:59";"STD";"Station Sloterdijk";"4.83878389";"52.38880848";"298"
"3/29/2021 12:00:00 AM";"08:00 - 08:59";"SVT";"Strandvliet";"4.94152820";"52.31825469";"125"
"3/29/2021 12:00:00 AM";"08:00 - 08:59";"VLN";"Burg.de Vlugtlaan";"4.83809109";"52.37951196";"52"
"3/29/2021 12:00:00 AM";"08:00 - 08:59";"VPD";"Venserpolder";"4.94665009";"52.32679428";"72"
"3/29/2021 12:00:00 AM";"08:00 - 08:59";"VSW";"Verrijn Stuartweg";"4.96693669";"52.32844093";"44"
"3/29/2021 12:00:00 AM";"08:00 - 08:59";"VZG";"Vijzelgracht";"4.89072870";"52.35980061";"232"
"3/29/2021 12:00:00 AM";"08:00 - 08:59";"WBS";"Wibautstraat";"4.91202993";"52.35428867";"221"
"3/29/2021 12:00:00 AM";"08:00 - 08:59";"WLP";"Waterlooplein";"4.90298171";"52.36697862";"259"
"3/29/2021 12:00:00 AM";"08:00 - 08:59";"WPP";"Weesperplein";"4.90787469";"52.36120146";"312"
"3/29/2021 12:00:00 AM";"08:00 - 08:59";"WTC";"Station Zuid";"4.87509853";"52.33908015";"929"
"3/29/2021 12:00:00 AM";"09:00 - 09:59";"";"Overig";"";"";"2416"
"3/29/2021 12:00:00 AM";"09:00 - 09:59";"[[ Onb";"[[ Onbekend ]]";"0.00000000";"0.00000000";"194"
"3/29/2021 12:00:00 AM";"09:00 - 09:59";"00005";"Muiderpoortstation";"4.93280219";"52.36121887";"29"
"3/29/2021 12:00:00 AM";"09:00 - 09:59";"00006";"Muiderpoortstation";"4.93368466";"52.36106048";"18"
"3/29/2021 12:00:00 AM";"09:00 - 09:59";"00008";"Dapperstraat";"4.92977913";"52.36110836";"39"
"3/29/2021 12:00:00 AM";"09:00 - 09:59";"00010";"Dapperstraat";"4.92891486";"52.36092527";"16"
"3/29/2021 12:00:00 AM";"09:00 - 09:59";"00020";"Beukenweg";"4.91674979";"52.35906203";"16"
"3/29/2021 12:00:00 AM";"09:00 - 09:59";"00021";"Beukenweg";"4.91721293";"52.35829991";"36"
"3/29/2021 12:00:00 AM";"09:00 - 09:59";"00023";"Beukenplein";"4.91809259";"52.35701816";"13"
"3/29/2021 12:00:00 AM";"09:00 - 09:59";"00029";"Oostpoort";"4.92719316";"52.35707185";"41"
"3/29/2021 12:00:00 AM";"09:00 - 09:59";"00030";"Oostpoort";"4.92694026";"52.35739442";"23"
"3/29/2021 12:00:00 AM";"09:00 - 09:59";"00040";"Hogeweg";"4.93135765";"52.35321425";"12"
"3/29/2021 12:00:00 AM";"09:00 - 09:59";"00059";"Radioweg";"4.93945830";"52.35337100";"13"
"3/29/2021 12:00:00 AM";"09:00 - 09:59";"00074";"Brinkstraat";"4.94797289";"52.34285131";"12"
"3/29/2021 12:00:00 AM";"09:00 - 09:59";"00141";"Kraaienneststation";"4.97868390";"52.31603403";"12"
"3/29/2021 12:00:00 AM";"09:00 - 09:59";"00150";"Tulastraat";"4.96535973";"52.31994189";"25"
"3/29/2021 12:00:00 AM";"09:00 - 09:59";"00151";"Tulastraat";"4.96584458";"52.31985374";"30"
"3/29/2021 12:00:00 AM";"09:00 - 09:59";"00152";"Florijn";"4.95859163";"52.31758973";"10"
"3/29/2021 12:00:00 AM";"09:00 - 09:59";"00197";"Annie Romeinplein";"4.97162041";"52.32173463";"12"
"3/29/2021 12:00:00 AM";"09:00 - 09:59";"00205";"Station Holendrecht";"4.95865657";"52.29716971";"15"
"3/29/2021 12:00:00 AM";"09:00 - 09:59";"00238";"Anton de Komplein";"4.95413359";"52.31603659";"38"
"3/29/2021 12:00:00 AM";"09:00 - 09:59";"00239";"Anton de Komplein";"4.95597669";"52.31652866";"25"
"3/29/2021 12:00:00 AM";"09:00 - 09:59";"00351";"Dostojevskisingel";"4.94525272";"52.32275356";"17"
"3/29/2021 12:00:00 AM";"09:00 - 09:59";"00432";"Diemerbrug";"4.96142958";"52.33824484";"12"
"3/29/2021 12:00:00 AM";"09:00 - 09:59";"00434";"Bijlmerplein";"4.95032022";"52.31457553";"17"
"3/29/2021 12:00:00 AM";"09:00 - 09:59";"00441";"Muiderpoortstation";"4.93254137";"52.36088532";"12"
"3/29/2021 12:00:00 AM";"09:00 - 09:59";"00444";"Linnaeusstraat";"4.92490296";"52.35991203";"32"
"3/29/2021 12:00:00 AM";"09:00 - 09:59";"00453";"Diemen Sniep";"4.96964866";"52.33644962";"12"
"3/29/2021 12:00:00 AM";"09:00 - 09:59";"00491";"Science Park Aer";"4.95218495";"52.35478458";"19"
"3/29/2021 12:00:00 AM";"09:00 - 09:59";"00518";"Foppingadreef";"4.94967889";"52.31268573";"16"
"3/29/2021 12:00:00 AM";"09:00 - 09:59";"00538";"Station Science Park";"4.94808393";"52.35239669";"13"
"3/29/2021 12:00:00 AM";"09:00 - 09:59";"00553";"Kraaienneststation";"4.98073727";"52.31601414";"11"
"3/29/2021 12:00:00 AM";"09:00 - 09:59";"00560";"Station Bijlmer ArenA";"4.94747867";"52.31125750";"14"
"3/29/2021 12:00:00 AM";"09:00 - 09:59";"00561";"Station Bijlmer ArenA";"4.94741931";"52.31132918";"19"
"3/29/2021 12:00:00 AM";"09:00 - 09:59";"00568";"Station Bijlmer ArenA";"4.94762664";"52.31112323";"12"
"3/29/2021 12:00:00 AM";"09:00 - 09:59";"01110";"Rode Kruisstraat";"4.92847908";"52.39455548";"37"
"3/29/2021 12:00:00 AM";"09:00 - 09:59";"01111";"Rode Kruisstraat";"4.92881363";"52.39488033";"35"
"3/29/2021 12:00:00 AM";"09:00 - 09:59";"01237";"Beemsterstraat";"4.95210741";"52.39712521";"11"
"3/29/2021 12:00:00 AM";"09:00 - 09:59";"01305";"Station Noord";"4.93215715";"52.40264056";"18"
"3/29/2021 12:00:00 AM";"09:00 - 09:59";"01316";"Station Noord";"4.93336820";"52.40204304";"11"
"3/29/2021 12:00:00 AM";"09:00 - 09:59";"01347";"Nageljongenstraat";"4.89978361";"52.40815603";"18"
"3/29/2021 12:00:00 AM";"09:00 - 09:59";"01363";"Buikslotermeerplein";"4.93968364";"52.39943369";"10"
"3/29/2021 12:00:00 AM";"09:00 - 09:59";"01364";"Buikslotermeerplein";"4.93887054";"52.39992493";"11"
"3/29/2021 12:00:00 AM";"09:00 - 09:59";"01365";"Atat?rk";"4.89794256";"52.40319625";"11"
"3/29/2021 12:00:00 AM";"09:00 - 09:59";"01402";"Floraweg";"4.90614362";"52.39899665";"10"
"3/29/2021 12:00:00 AM";"09:00 - 09:59";"01422";"Noorderpark";"4.91956087";"52.38902016";"11"
"3/29/2021 12:00:00 AM";"09:00 - 09:59";"01443";"Volendammerweg";"4.95697086";"52.39255928";"10"
"3/29/2021 12:00:00 AM";"09:00 - 09:59";"02018";"Koivistokade";"4.87577082";"52.39789874";"27"
"3/29/2021 12:00:00 AM";"09:00 - 09:59";"02019";"Koivistokade";"4.87537403";"52.39790601";"20"
"3/29/2021 12:00:00 AM";"09:00 - 09:59";"02103";"Spaarndammerstraat";"4.87765867";"52.39216375";"25"
"3/29/2021 12:00:00 AM";"09:00 - 09:59";"02106";"Assendelftstraat";"4.87943840";"52.38941217";"11"
"3/29/2021 12:00:00 AM";"09:00 - 09:59";"02113";"Haarlemmerplein";"4.88371739";"52.38516129";"14"
"3/29/2021 12:00:00 AM";"09:00 - 09:59";"02114";"Haarlemmerplein";"4.88341252";"52.38484542";"28"
"3/29/2021 12:00:00 AM";"09:00 - 09:59";"02132";"Fred. Hendrikplants.";"4.87543499";"52.37862768";"18"
"3/29/2021 12:00:00 AM";"09:00 - 09:59";"02155";"Willem de Zwijgerlaan";"4.86360306";"52.37071170";"15"
"3/29/2021 12:00:00 AM";"09:00 - 09:59";"02156";"Willem de Zwijgerlaan";"4.86425293";"52.37039101";"12"
"3/29/2021 12:00:00 AM";"09:00 - 09:59";"02157";"Adm. de Ruijterweg";"4.86009910";"52.37148707";"21"
"3/29/2021 12:00:00 AM";"09:00 - 09:59";"02158";"Adm. de Ruijterweg";"4.86096776";"52.37129320";"14"
"3/29/2021 12:00:00 AM";"09:00 - 09:59";"02170";"Spaarndammerstraat";"4.87723089";"52.39231470";"10"
"3/29/2021 12:00:00 AM";"09:00 - 09:59";"02182";"Markthallen";"4.86695146";"52.37567869";"17"
"3/29/2021 12:00:00 AM";"09:00 - 09:59";"02183";"Markthallen";"4.86667150";"52.37575835";"10"
"3/29/2021 12:00:00 AM";"09:00 - 09:59";"02222";"Jan van Galenstraat";"4.85874763";"52.37399761";"17"
"3/29/2021 12:00:00 AM";"09:00 - 09:59";"02259";"Contactweg";"4.85657970";"52.39195435";"37"
"3/29/2021 12:00:00 AM";"09:00 - 09:59";"02260";"Contactweg";"4.85432952";"52.39215995";"18"
"3/29/2021 12:00:00 AM";"09:00 - 09:59";"02301";"Fred. Hendrikplants.";"4.87521585";"52.37852787";"16"
"3/29/2021 12:00:00 AM";"09:00 - 09:59";"02302";"Fred. Hendrikplants.";"4.87549415";"52.37859198";"15"
"3/29/2021 12:00:00 AM";"09:00 - 09:59";"02321";"Van Hallstraat";"4.86864429";"52.38538386";"20"
"3/29/2021 12:00:00 AM";"09:00 - 09:59";"02361";"Station Sloterdijk";"4.83931858";"52.38833460";"40"
"3/29/2021 12:00:00 AM";"09:00 - 09:59";"02365";"Station Sloterdijk";"4.83873236";"52.38822404";"18"
"3/29/2021 12:00:00 AM";"09:00 - 09:59";"02366";"Station Sloterdijk";"4.83873347";"52.38813416";"17"
"3/29/2021 12:00:00 AM";"09:00 - 09:59";"02368";"Station Sloterdijk";"4.83877999";"52.38793665";"16"
"3/29/2021 12:00:00 AM";"09:00 - 09:59";"02378";"Station Sloterdijk";"4.83809796";"52.38844579";"27"
"3/29/2021 12:00:00 AM";"09:00 - 09:59";"03009";"Witte de Withstraat";"4.85851970";"52.36478416";"28"
"3/29/2021 12:00:00 AM";"09:00 - 09:59";"03010";"Witte de Withstraat";"4.85928290";"52.36480554";"25"
"3/29/2021 12:00:00 AM";"09:00 - 09:59";"03022";"Mercatorplein";"4.85070310";"52.37012367";"13"
"3/29/2021 12:00:00 AM";"09:00 - 09:59";"03023";"Marco Polostraat";"4.85520189";"52.37088096";"10"
"3/29/2021 12:00:00 AM";"09:00 - 09:59";"03034";"Erasmusgracht";"4.84691117";"52.37644278";"11"
"3/29/2021 12:00:00 AM";"09:00 - 09:59";"03052";"Burg. Eliasstraat";"4.82565009";"52.38077481";"13"
"3/29/2021 12:00:00 AM";"09:00 - 09:59";"03055";"Burg. Fockstraat";"4.83108040";"52.37991964";"10"
"3/29/2021 12:00:00 AM";"09:00 - 09:59";"03057";"Anth. Moddermanstraat";"4.81474778";"52.38339197";"14"
"3/29/2021 12:00:00 AM";"09:00 - 09:59";"03060";"Bos en Lommerplein";"4.84718407";"52.37815169";"18"
"3/29/2021 12:00:00 AM";"09:00 - 09:59";"03061";"Bos en Lommerplein";"4.84523530";"52.37778328";"31"
"3/29/2021 12:00:00 AM";"09:00 - 09:59";"03076";"Jan Tooropstraat";"4.83810313";"52.37142305";"23"
"3/29/2021 12:00:00 AM";"09:00 - 09:59";"03090";"Slotermeerlaan";"4.81728149";"52.37596234";"16"
"3/29/2021 12:00:00 AM";"09:00 - 09:59";"03097";"Burg. v. Leeuwenlaan";"4.81182601";"52.37651117";"12"
"3/29/2021 12:00:00 AM";"09:00 - 09:59";"03101";"Lambertus Zijlplein";"4.80300456";"52.37726788";"10"
"3/29/2021 12:00:00 AM";"09:00 - 09:59";"03121";"Aalbersestraat";"4.79774249";"52.38202329";"11"
"3/29/2021 12:00:00 AM";"09:00 - 09:59";"03129";"Plein '40 - '45";"4.82112672";"52.38075328";"36"
"3/29/2021 12:00:00 AM";"09:00 - 09:59";"03135";"Ookmeerweg";"4.80431836";"52.36558127";"39"
"3/29/2021 12:00:00 AM";"09:00 - 09:59";"03150";"Mercatorplein";"4.85011339";"52.37031872";"17"
"3/29/2021 12:00:00 AM";"09:00 - 09:59";"03163";"Burg.de Vlugtlaan";"4.83793812";"52.37881920";"11"
"3/29/2021 12:00:00 AM";"09:00 - 09:59";"03167";"Bos en Lommerplein";"4.84650668";"52.37709704";"21"
"3/29/2021 12:00:00 AM";"09:00 - 09:59";"03168";"Mercatorplein";"4.85152392";"52.37024423";"14"
"3/29/2021 12:00:00 AM";"09:00 - 09:59";"03169";"Jan v.Galenstraat";"4.83601291";"52.37301316";"10"
"3/29/2021 12:00:00 AM";"09:00 - 09:59";"03174";"Burg. R?ellstraat";"4.81863325";"52.37476448";"16"
"3/29/2021 12:00:00 AM";"09:00 - 09:59";"03178";"Mercatorplein";"4.84991664";"52.37080317";"13"
"3/29/2021 12:00:00 AM";"09:00 - 09:59";"03181";"Jan Voermanstraat";"4.83788946";"52.36970540";"15"
"3/29/2021 12:00:00 AM";"09:00 - 09:59";"03182";"Jan Voermanstraat";"4.83852226";"52.36959149";"10"
"3/29/2021 12:00:00 AM";"09:00 - 09:59";"04008";"Dijkgraafplein";"4.78646982";"52.35545267";"10"
"3/29/2021 12:00:00 AM";"09:00 - 09:59";"04012";"Baden Powellweg";"4.79137362";"52.35646612";"19"
"3/29/2021 12:00:00 AM";"09:00 - 09:59";"04016";"Hoekenes";"4.79854723";"52.35791310";"17"
"3/29/2021 12:00:00 AM";"09:00 - 09:59";"04021";"Osdorpplein West";"4.80322869";"52.35913166";"29"
"3/29/2021 12:00:00 AM";"09:00 - 09:59";"04050";"Meer en Vaart";"4.80994403";"52.35636940";"27"
"3/29/2021 12:00:00 AM";"09:00 - 09:59";"04060";"Derkinderenstraat";"4.83972293";"52.35796689";"15"
"3/29/2021 12:00:00 AM";"09:00 - 09:59";"04064";"Osdorpplein Oost";"4.80806527";"52.35860717";"16"
"3/29/2021 12:00:00 AM";"09:00 - 09:59";"04065";"Osdorpplein Oost";"4.80773259";"52.35935153";"31"
"3/29/2021 12:00:00 AM";"09:00 - 09:59";"04088";"Louwesweg";"4.82436420";"52.34669608";"12"
"3/29/2021 12:00:00 AM";"09:00 - 09:59";"04111";"Delflandlaan";"4.84191575";"52.35154177";"10"
"3/29/2021 12:00:00 AM";"09:00 - 09:59";"04112";"Johan Huizingalaan";"4.82742878";"52.34923618";"25"
"3/29/2021 12:00:00 AM";"09:00 - 09:59";"04133";"Robert Fruinlaan";"4.82910660";"52.36403799";"15"
"3/29/2021 12:00:00 AM";"09:00 - 09:59";"04148";"Louis Davidsstraat";"4.80952552";"52.35356316";"14"
"3/29/2021 12:00:00 AM";"09:00 - 09:59";"04195";"Station Lelylaan";"4.83460082";"52.35788018";"45"
"3/29/2021 12:00:00 AM";"09:00 - 09:59";"04196";"Station Lelylaan";"4.83382251";"52.35790351";"44"
"3/29/2021 12:00:00 AM";"09:00 - 09:59";"04267";"Schiphol Airport/Plaza";"4.76139455";"52.30887344";"11"
"3/29/2021 12:00:00 AM";"09:00 - 09:59";"04379";"Knooppunt Schiphol Nrd";"4.79320459";"52.32276196";"17"
"3/29/2021 12:00:00 AM";"09:00 - 09:59";"04407";"Ecuplein";"4.78817670";"52.34970912";"12"
"3/29/2021 12:00:00 AM";"09:00 - 09:59";"04409";"Baden Powellweg";"4.79441281";"52.35092691";"24"
"3/29/2021 12:00:00 AM";"09:00 - 09:59";"04411";"Hoekenes";"4.80183430";"52.35243785";"17"
"3/29/2021 12:00:00 AM";"09:00 - 09:59";"04413";"Louis Davidsstraat";"4.80850916";"52.35383682";"38"
"3/29/2021 12:00:00 AM";"09:00 - 09:59";"05011";"Centraal Station";"4.89921803";"52.37810793";"93"
"3/29/2021 12:00:00 AM";"09:00 - 09:59";"05022";"Centraal Station";"4.90104337";"52.37771998";"84"
"3/29/2021 12:00:00 AM";"09:00 - 09:59";"05031";"Dam";"4.89348394";"52.37341055";"30"
"3/29/2021 12:00:00 AM";"09:00 - 09:59";"05032";"Dam";"4.89549360";"52.37492885";"13"
"3/29/2021 12:00:00 AM";"09:00 - 09:59";"05035";"Rokin";"4.89210433";"52.36939627";"26"
"3/29/2021 12:00:00 AM";"09:00 - 09:59";"05036";"Rokin";"4.89230478";"52.36985548";"24"
"3/29/2021 12:00:00 AM";"09:00 - 09:59";"05046";"Rembrandtplein";"4.89627976";"52.36625897";"15"
"3/29/2021 12:00:00 AM";"09:00 - 09:59";"05047";"Rembrandtplein";"4.89702882";"52.36623511";"30"
"3/29/2021 12:00:00 AM";"09:00 - 09:59";"05065";"Dam";"4.89079364";"52.37367792";"35"
"3/29/2021 12:00:00 AM";"09:00 - 09:59";"05066";"Dam";"4.89027056";"52.37318140";"74"
"3/29/2021 12:00:00 AM";"09:00 - 09:59";"05069";"Nieuwezijds Kolk";"4.89373093";"52.37628765";"24"
"3/29/2021 12:00:00 AM";"09:00 - 09:59";"05070";"Nieuwezijds Kolk";"4.89284106";"52.37575366";"10"
"3/29/2021 12:00:00 AM";"09:00 - 09:59";"05073";"Westermarkt";"4.88453426";"52.37400204";"39"
"3/29/2021 12:00:00 AM";"09:00 - 09:59";"05074";"Westermarkt";"4.88354950";"52.37407874";"88"
"3/29/2021 12:00:00 AM";"09:00 - 09:59";"05077";"Marnixstraat";"4.87615428";"52.37228546";"31"
"3/29/2021 12:00:00 AM";"09:00 - 09:59";"05080";"Buiten Oranjestraat";"4.88782167";"52.38330923";"23"
"3/29/2021 12:00:00 AM";"09:00 - 09:59";"05090";"Westerdoksdijk";"4.89331977";"52.38551629";"11"
"3/29/2021 12:00:00 AM";"09:00 - 09:59";"05097";"Centraal Station";"4.90087651";"52.37954379";"33"
"3/29/2021 12:00:00 AM";"09:00 - 09:59";"05101";"Centraal Station";"4.90105195";"52.37961641";"11"
"3/29/2021 12:00:00 AM";"09:00 - 09:59";"05103";"Centraal Station";"4.90127481";"52.37938365";"30"
"3/29/2021 12:00:00 AM";"09:00 - 09:59";"05154";"Marnixstraat";"4.87536375";"52.37207533";"15"
"3/29/2021 12:00:00 AM";"09:00 - 09:59";"06001";"Surinameplein";"4.85252231";"52.35807034";"26"
"3/29/2021 12:00:00 AM";"09:00 - 09:59";"06002";"Surinameplein";"4.85090753";"52.35807202";"11"
"3/29/2021 12:00:00 AM";"09:00 - 09:59";"06015";"Postjesweg";"4.85316124";"52.36352879";"13"
"3/29/2021 12:00:00 AM";"09:00 - 09:59";"06016";"J.P. Heijestraat";"4.86239635";"52.36472951";"10"
"3/29/2021 12:00:00 AM";"09:00 - 09:59";"06017";"J.P. Heijestraat";"4.86292317";"52.36487565";"20"
"3/29/2021 12:00:00 AM";"09:00 - 09:59";"06019";"Ten Katestraat";"4.86737423";"52.36591988";"21"
"3/29/2021 12:00:00 AM";"09:00 - 09:59";"06020";"Ten Katestraat";"4.86773990";"52.36603832";"61"
"3/29/2021 12:00:00 AM";"09:00 - 09:59";"06021";"Bilderdijkstraat";"4.87176488";"52.36712545";"36"
"3/29/2021 12:00:00 AM";"09:00 - 09:59";"06023";"Bilderdijkstraat";"4.87254032";"52.36736251";"20"
"3/29/2021 12:00:00 AM";"09:00 - 09:59";"06027";"Elandsgracht";"4.87855189";"52.36808953";"32"
"3/29/2021 12:00:00 AM";"09:00 - 09:59";"06028";"Elandsgracht";"4.87741694";"52.36974738";"28"
"3/29/2021 12:00:00 AM";"09:00 - 09:59";"06029";"Elandsgracht";"4.87684368";"52.36852258";"55"
"3/29/2021 12:00:00 AM";"09:00 - 09:59";"06030";"Rozengracht";"4.87590932";"52.37187996";"24"
"3/29/2021 12:00:00 AM";"09:00 - 09:59";"06034";"Bilderdijkstraat";"4.87082347";"52.37105798";"25"
"3/29/2021 12:00:00 AM";"09:00 - 09:59";"06037";"Bilderdijkstraat";"4.86985701";"52.37082906";"26"
"3/29/2021 12:00:00 AM";"09:00 - 09:59";"06043";"Overtoom";"4.87510145";"52.36299659";"13"
"3/29/2021 12:00:00 AM";"09:00 - 09:59";"06044";"Overtoom";"4.87483191";"52.36345380";"17"
"3/29/2021 12:00:00 AM";"09:00 - 09:59";"06045";"1e Con. Huygensstraat";"4.87399228";"52.36242556";"11"
"3/29/2021 12:00:00 AM";"09:00 - 09:59";"06046";"1e Con. Huygensstraat";"4.87487082";"52.36262709";"38"
"3/29/2021 12:00:00 AM";"09:00 - 09:59";"06048";"J.P. Heijestraat";"4.86585368";"52.36037674";"22"
"3/29/2021 12:00:00 AM";"09:00 - 09:59";"06049";"J.P. Heijestraat";"4.86671778";"52.36055131";"18"
"3/29/2021 12:00:00 AM";"09:00 - 09:59";"06059";"Spiegelgracht";"4.88762090";"52.36071327";"11"
"3/29/2021 12:00:00 AM";"09:00 - 09:59";"06061";"Leidseplein";"4.88339576";"52.36305015";"55"
"3/29/2021 12:00:00 AM";"09:00 - 09:59";"06063";"Leidseplein";"4.88064547";"52.36476406";"55"
"3/29/2021 12:00:00 AM";"09:00 - 09:59";"06081";"Rhijnvis Feithstraat";"4.86039355";"52.35905833";"22"
"3/29/2021 12:00:00 AM";"09:00 - 09:59";"06082";"Rhijnvis Feithstraat";"4.85967683";"52.35883943";"15"
"3/29/2021 12:00:00 AM";"09:00 - 09:59";"06089";"Leidseplein";"4.88085541";"52.36309324";"52"
"3/29/2021 12:00:00 AM";"09:00 - 09:59";"06114";"Hoofdweg";"4.85444451";"52.36425359";"14"
"3/29/2021 12:00:00 AM";"09:00 - 09:59";"06115";"Postjesweg";"4.85319014";"52.36478720";"10"
"3/29/2021 12:00:00 AM";"09:00 - 09:59";"07006";"Museumplein";"4.87980116";"52.35642881";"30"
"3/29/2021 12:00:00 AM";"09:00 - 09:59";"07007";"Museumplein";"4.87950215";"52.35690388";"64"
"3/29/2021 12:00:00 AM";"09:00 - 09:59";"07014";"Kastelenstraat";"4.87944660";"52.32583291";"12"
"3/29/2021 12:00:00 AM";"09:00 - 09:59";"07015";"Roelof Hartplein";"4.88206971";"52.35314900";"15"
"3/29/2021 12:00:00 AM";"09:00 - 09:59";"07016";"Roelof Hartplein";"4.88286688";"52.35274795";"33"
"3/29/2021 12:00:00 AM";"09:00 - 09:59";"07027";"Corn. Schuytstraat";"4.87051458";"52.35597520";"18"
"3/29/2021 12:00:00 AM";"09:00 - 09:59";"07028";"Corn. Schuytstraat";"4.87088070";"52.35604870";"11"
"3/29/2021 12:00:00 AM";"09:00 - 09:59";"07031";"Valeriusplein";"4.86374943";"52.35333004";"20"
"3/29/2021 12:00:00 AM";"09:00 - 09:59";"07032";"Valeriusplein";"4.86326678";"52.35318410";"16"
"3/29/2021 12:00:00 AM";"09:00 - 09:59";"07033";"Amstelveenseweg";"4.85695925";"52.35161911";"15"
"3/29/2021 12:00:00 AM";"09:00 - 09:59";"07034";"Amstelveenseweg";"4.85596467";"52.35132704";"12"
"3/29/2021 12:00:00 AM";"09:00 - 09:59";"07035";"Zeilstraat";"4.85672894";"52.35124059";"10"
"3/29/2021 12:00:00 AM";"09:00 - 09:59";"07048";"Hoofddorpplein";"4.85010578";"52.35154327";"12"
"3/29/2021 12:00:00 AM";"09:00 - 09:59";"07049";"Hoofddorpplein";"4.84958188";"52.35117239";"19"
"3/29/2021 12:00:00 AM";"09:00 - 09:59";"07050";"Haarlemmermeerstation";"4.85744749";"52.34883508";"16"
"3/29/2021 12:00:00 AM";"09:00 - 09:59";"07083";"Gerrit v.d. Veenstraat";"4.87735929";"52.34921014";"25"
"3/29/2021 12:00:00 AM";"09:00 - 09:59";"07088";"Stadionweg";"4.87687497";"52.34665553";"14"
"3/29/2021 12:00:00 AM";"09:00 - 09:59";"07097";"Olympiaplein";"4.86582821";"52.34630180";"12"
"3/29/2021 12:00:00 AM";"09:00 - 09:59";"07098";"Olympiaplein";"4.86659057";"52.34636807";"20"
"3/29/2021 12:00:00 AM";"09:00 - 09:59";"07116";"Haarl'meerstation";"4.85760410";"52.34924023";"10"
"3/29/2021 12:00:00 AM";"09:00 - 09:59";"07133";"De Boelelaan";"4.86754589";"52.33496677";"15"
"3/29/2021 12:00:00 AM";"09:00 - 09:59";"07193";"Station Zuid";"4.87334616";"52.34088808";"21"
"3/29/2021 12:00:00 AM";"09:00 - 09:59";"07268";"Station Zuid";"4.87428608";"52.34082026";"31"
"3/29/2021 12:00:00 AM";"09:00 - 09:59";"07269";"Station Zuid";"4.87374306";"52.34082689";"15"
"3/29/2021 12:00:00 AM";"09:00 - 09:59";"07294";"Station Zuid";"4.87327467";"52.34072599";"15"
"3/29/2021 12:00:00 AM";"09:00 - 09:59";"07303";"VU medisch centrum";"4.86097062";"52.33515342";"24"
"3/29/2021 12:00:00 AM";"09:00 - 09:59";"07321";"Van Baerlestraat";"4.87895796";"52.35827667";"15"
"3/29/2021 12:00:00 AM";"09:00 - 09:59";"07322";"Van Baerlestraat";"4.87971942";"52.35844171";"25"
"3/29/2021 12:00:00 AM";"09:00 - 09:59";"07323";"Rijksmuseum";"4.88355043";"52.35977029";"19"
"3/29/2021 12:00:00 AM";"09:00 - 09:59";"07391";"Kronenburg";"4.87070592";"52.31556694";"14"
"3/29/2021 12:00:00 AM";"09:00 - 09:59";"07418";"Van Boshuizenstraat";"4.86902148";"52.32544617";"16"
"3/29/2021 12:00:00 AM";"09:00 - 09:59";"07419";"Van Boshuizenstraat";"4.86896941";"52.32487971";"53"
"3/29/2021 12:00:00 AM";"09:00 - 09:59";"07423";"Uilenstede";"4.86910951";"52.32167168";"17"
"3/29/2021 12:00:00 AM";"09:00 - 09:59";"07435";"Onderuit";"4.87243689";"52.30793483";"12"
"3/29/2021 12:00:00 AM";"09:00 - 09:59";"07439";"Oranjebaan";"4.87179001";"52.30302465";"20"
"3/29/2021 12:00:00 AM";"09:00 - 09:59";"07442";"Zonnestein";"4.87236664";"52.31146674";"14"
"3/29/2021 12:00:00 AM";"09:00 - 09:59";"07445";"Amstelveen Stadshart";"4.86751502";"52.30124433";"22"
"3/29/2021 12:00:00 AM";"09:00 - 09:59";"07448";"A.J. Ernststraat";"4.86887597";"52.33288743";"10"
"3/29/2021 12:00:00 AM";"09:00 - 09:59";"07449";"A.J. Ernststraat";"4.86879476";"52.33230287";"16"
"3/29/2021 12:00:00 AM";"09:00 - 09:59";"07457";"Sportlaan";"4.86336804";"52.28987436";"17"
"3/29/2021 12:00:00 AM";"09:00 - 09:59";"07473";"Meent";"4.85693861";"52.28084883";"16"
"3/29/2021 12:00:00 AM";"09:00 - 09:59";"07482";"Sacharovlaan";"4.83228912";"52.28211984";"14"
"3/29/2021 12:00:00 AM";"09:00 - 09:59";"08007";"Bob Haarmslaan";"4.96921237";"52.36876786";"20"
"3/29/2021 12:00:00 AM";"09:00 - 09:59";"08009";"Bob Haarmslaan";"4.96859205";"52.36915214";"23"
"3/29/2021 12:00:00 AM";"09:00 - 09:59";"08016";"Wittenburgergracht";"4.91969400";"52.36942754";"16"
"3/29/2021 12:00:00 AM";"09:00 - 09:59";"08053";"Weesperplein";"4.90655690";"52.36088154";"15"
"3/29/2021 12:00:00 AM";"09:00 - 09:59";"08054";"Weesperplein";"4.90941338";"52.36145933";"31"
"3/29/2021 12:00:00 AM";"09:00 - 09:59";"08057";"Frederiksplein";"4.90024241";"52.35971430";"32"
"3/29/2021 12:00:00 AM";"09:00 - 09:59";"08058";"Veelaan";"4.93961588";"52.36830916";"22"
"3/29/2021 12:00:00 AM";"09:00 - 09:59";"08059";"Veelaan";"4.93944523";"52.36776026";"10"
"3/29/2021 12:00:00 AM";"09:00 - 09:59";"08060";"Keizersgracht";"4.89833435";"52.36367901";"11"
"3/29/2021 12:00:00 AM";"09:00 - 09:59";"08066";"Frederiksplein";"4.89751569";"52.35937050";"21"
"3/29/2021 12:00:00 AM";"09:00 - 09:59";"08072";"Vijzelgracht";"4.89159781";"52.35953462";"16"
"3/29/2021 12:00:00 AM";"09:00 - 09:59";"08073";"Vijzelgracht";"4.89227386";"52.35946554";"23"
"3/29/2021 12:00:00 AM";"09:00 - 09:59";"08080";"Spiegelgracht";"4.88691222";"52.36106979";"30"
"3/29/2021 12:00:00 AM";"09:00 - 09:59";"08098";"1e v.Swindenstraat";"4.92386708";"52.36210997";"10"
"3/29/2021 12:00:00 AM";"09:00 - 09:59";"08120";"Insulindeweg";"4.94763926";"52.36469021";"20"
"3/29/2021 12:00:00 AM";"09:00 - 09:59";"08129";"Molukkenstraat";"4.93861286";"52.36150167";"18"
"3/29/2021 12:00:00 AM";"09:00 - 09:59";"08138";"Zuiderzeeweg";"4.96218432";"52.37129534";"11"
"3/29/2021 12:00:00 AM";"09:00 - 09:59";"08139";"Zuiderzeeweg";"4.96240105";"52.37166461";"15"
"3/29/2021 12:00:00 AM";"09:00 - 09:59";"08195";"Oostenburgergracht";"4.92452709";"52.36780177";"14"
"3/29/2021 12:00:00 AM";"09:00 - 09:59";"08219";"Borneolaan";"4.93862058";"52.37090283";"12"
"3/29/2021 12:00:00 AM";"09:00 - 09:59";"08233";"C. van Eesterenlaan";"4.93812487";"52.37345346";"16"
"3/29/2021 12:00:00 AM";"09:00 - 09:59";"08235";"Muziekgeb. Bimhuis";"4.91290020";"52.37723779";"16"
"3/29/2021 12:00:00 AM";"09:00 - 09:59";"08237";"Kattenburgerstraat";"4.92126795";"52.37614755";"24"
"3/29/2021 12:00:00 AM";"09:00 - 09:59";"08239";"Rietlandpark";"4.93413567";"52.37296191";"30"
"3/29/2021 12:00:00 AM";"09:00 - 09:59";"08241";"Zuiderzeeweg";"4.96185517";"52.37193228";"29"
"3/29/2021 12:00:00 AM";"09:00 - 09:59";"08244";"Steigereiland";"4.98083725";"52.36280456";"10"
"3/29/2021 12:00:00 AM";"09:00 - 09:59";"08245";"Steigereiland";"4.98012952";"52.36313467";"29"
"3/29/2021 12:00:00 AM";"09:00 - 09:59";"08247";"Vennepluimstraat";"4.99057242";"52.35769662";"36"
"3/29/2021 12:00:00 AM";"09:00 - 09:59";"08249";"Diemerparklaan";"4.99499716";"52.35532962";"21"
"3/29/2021 12:00:00 AM";"09:00 - 09:59";"08251";"Lumi?restraat";"4.99942127";"52.35298044";"13"
"3/29/2021 12:00:00 AM";"09:00 - 09:59";"08255";"Hoogte Kadijk";"4.92483038";"52.36687722";"16"
"3/29/2021 12:00:00 AM";"09:00 - 09:59";"08257";"1e Coehoornstraat";"4.92618328";"52.36808685";"13"
"3/29/2021 12:00:00 AM";"09:00 - 09:59";"08259";"1e Leeghwaterstraat";"4.93004964";"52.37047459";"12"
"3/29/2021 12:00:00 AM";"09:00 - 09:59";"08262";"IJburg";"5.00486802";"52.35112872";"66"
"3/29/2021 12:00:00 AM";"09:00 - 09:59";"08300";"P.Oosterhuisstraat";"5.00693059";"52.35193526";"24"
"3/29/2021 12:00:00 AM";"09:00 - 09:59";"09003";"Dintelstraat";"4.89289498";"52.34192405";"11"
"3/29/2021 12:00:00 AM";"09:00 - 09:59";"09024";"Camperstraat";"4.91339591";"52.35832964";"12"
"3/29/2021 12:00:00 AM";"09:00 - 09:59";"09049";"Victorieplein";"4.90570139";"52.34637186";"18"
"3/29/2021 12:00:00 AM";"09:00 - 09:59";"09051";"Victorieplein";"4.90653699";"52.34645615";"15"
"3/29/2021 12:00:00 AM";"09:00 - 09:59";"09082";"Waalstraat";"4.89974094";"52.34656317";"11"
"3/29/2021 12:00:00 AM";"09:00 - 09:59";"09083";"Waalstraat";"4.90032528";"52.34680824";"27"
"3/29/2021 12:00:00 AM";"09:00 - 09:59";"09096";"Van Woustraat";"4.90163035";"52.35495650";"19"
"3/29/2021 12:00:00 AM";"09:00 - 09:59";"09097";"Van Woustraat";"4.90084070";"52.35468363";"17"
"3/29/2021 12:00:00 AM";"09:00 - 09:59";"09108";"2e v.d.Helststraat";"4.89423729";"52.35319131";"10"
"3/29/2021 12:00:00 AM";"09:00 - 09:59";"09111";"De Pijp";"4.89073444";"52.35272728";"26"
"3/29/2021 12:00:00 AM";"09:00 - 09:59";"09114";"De Pijp";"4.88948829";"52.35259622";"19"
"3/29/2021 12:00:00 AM";"09:00 - 09:59";"09176";"James Wattstraat";"4.92329155";"52.35116068";"13"
"3/29/2021 12:00:00 AM";"09:00 - 09:59";"ASA";"Amstelstation";"4.91751426";"52.34647326";"269"
"3/29/2021 12:00:00 AM";"09:00 - 09:59";"ASW";"Amstelveenseweg";"4.85798324";"52.33836671";"227"
"3/29/2021 12:00:00 AM";"09:00 - 09:59";"BLW";"Bullewijk";"4.95233581";"52.30642205";"95"
"3/29/2021 12:00:00 AM";"09:00 - 09:59";"BMR";"Station Bijlmer ArenA";"4.94713474";"52.31193030";"315"
"3/29/2021 12:00:00 AM";"09:00 - 09:59";"CLL";"Station Lelylaan";"4.83426589";"52.35766291";"114"
"3/29/2021 12:00:00 AM";"09:00 - 09:59";"CS";"Centraal Station";"4.90078150";"52.37749421";"451"
"3/29/2021 12:00:00 AM";"09:00 - 09:59";"DMZ";"Station Diemen-Zuid";"4.95713273";"52.33042795";"47"
"3/29/2021 12:00:00 AM";"09:00 - 09:59";"DPP";"De Pijp";"4.89101069";"52.35296212";"263"
"3/29/2021 12:00:00 AM";"09:00 - 09:59";"DVD";"Station Duivendrecht";"4.93678429";"52.32325190";"60"
"3/29/2021 12:00:00 AM";"09:00 - 09:59";"EPP";"Europaplein";"4.89138430";"52.34185482";"182"
"3/29/2021 12:00:00 AM";"09:00 - 09:59";"GN";"Gein";"4.98952268";"52.29627089";"59"
"3/29/2021 12:00:00 AM";"09:00 - 09:59";"GPP";"Gaasperplas";"4.98468551";"52.31080575";"13"
"3/29/2021 12:00:00 AM";"09:00 - 09:59";"GZH";"Station Ganzenhoef";"4.97323379";"52.32331315";"51"
"3/29/2021 12:00:00 AM";"09:00 - 09:59";"HDS";"Heemstedestraat";"4.83421208";"52.35255760";"58"
"3/29/2021 12:00:00 AM";"09:00 - 09:59";"HLD";"Station Holendrecht";"4.96021904";"52.29780451";"290"
"3/29/2021 12:00:00 AM";"09:00 - 09:59";"HVW";"Henk Sneevlietweg";"4.83439318";"52.34626699";"190"
"3/29/2021 12:00:00 AM";"09:00 - 09:59";"ITW";"Isolatorweg";"4.85013475";"52.39523277";"145"
"3/29/2021 12:00:00 AM";"09:00 - 09:59";"JLS";"Jan v.Galenstraat";"4.83492461";"52.37196551";"188"
"3/29/2021 12:00:00 AM";"09:00 - 09:59";"KEN";"Kraaienneststation";"4.97963450";"52.31632492";"57"
"3/29/2021 12:00:00 AM";"09:00 - 09:59";"MDW";"Van der Madeweg";"4.93048657";"52.32945629";"98"
"3/29/2021 12:00:00 AM";"09:00 - 09:59";"ND";"Noord";"4.93123182";"52.40117202";"209"
"3/29/2021 12:00:00 AM";"09:00 - 09:59";"NDP";"Noorderpark";"4.91789115";"52.38855518";"142"
"3/29/2021 12:00:00 AM";"09:00 - 09:59";"NMT";"Nieuwmarkt";"4.90123885";"52.37194169";"124"
"3/29/2021 12:00:00 AM";"09:00 - 09:59";"OAS";"Overamstel";"4.91815361";"52.33179879";"118"
"3/29/2021 12:00:00 AM";"09:00 - 09:59";"PJW";"Postjesweg";"4.83385543";"52.36468044";"114"
"3/29/2021 12:00:00 AM";"09:00 - 09:59";"RAI";"Station RAI";"4.88982004";"52.33739931";"147"
"3/29/2021 12:00:00 AM";"09:00 - 09:59";"RGB";"Reigersbos";"4.97473728";"52.29566301";"82"
"3/29/2021 12:00:00 AM";"09:00 - 09:59";"RKN";"Rokin";"4.89229651";"52.36928023";"320"
"3/29/2021 12:00:00 AM";"09:00 - 09:59";"SLW";"Spaklerweg";"4.92085640";"52.33986250";"67"
"3/29/2021 12:00:00 AM";"09:00 - 09:59";"STD";"Station Sloterdijk";"4.83878389";"52.38880848";"188"
"3/29/2021 12:00:00 AM";"09:00 - 09:59";"SVT";"Strandvliet";"4.94152820";"52.31825469";"80"
"3/29/2021 12:00:00 AM";"09:00 - 09:59";"VLN";"Burg.de Vlugtlaan";"4.83809109";"52.37951196";"39"
"3/29/2021 12:00:00 AM";"09:00 - 09:59";"VPD";"Venserpolder";"4.94665009";"52.32679428";"55"
"3/29/2021 12:00:00 AM";"09:00 - 09:59";"VSW";"Verrijn Stuartweg";"4.96693669";"52.32844093";"45"
"3/29/2021 12:00:00 AM";"09:00 - 09:59";"VZG";"Vijzelgracht";"4.89072870";"52.35980061";"185"
"3/29/2021 12:00:00 AM";"09:00 - 09:59";"WBS";"Wibautstraat";"4.91202993";"52.35428867";"147"
"3/29/2021 12:00:00 AM";"09:00 - 09:59";"WLP";"Waterlooplein";"4.90298171";"52.36697862";"274"
"3/29/2021 12:00:00 AM";"09:00 - 09:59";"WPP";"Weesperplein";"4.90787469";"52.36120146";"217"
"3/29/2021 12:00:00 AM";"09:00 - 09:59";"WTC";"Station Zuid";"4.87509853";"52.33908015";"511"
"3/29/2021 12:00:00 AM";"10:00 - 10:59";"";"Overig";"";"";"2498"
"3/29/2021 12:00:00 AM";"10:00 - 10:59";"[[ Onb";"[[ Onbekend ]]";"0.00000000";"0.00000000";"221"
"3/29/2021 12:00:00 AM";"10:00 - 10:59";"00005";"Muiderpoortstation";"4.93280219";"52.36121887";"15"
"3/29/2021 12:00:00 AM";"10:00 - 10:59";"00008";"Dapperstraat";"4.92977913";"52.36110836";"38"
"3/29/2021 12:00:00 AM";"10:00 - 10:59";"00010";"Dapperstraat";"4.92891486";"52.36092527";"10"
"3/29/2021 12:00:00 AM";"10:00 - 10:59";"00017";"Linnaeusstraat";"4.92573745";"52.36013099";"11"
"3/29/2021 12:00:00 AM";"10:00 - 10:59";"00021";"Beukenweg";"4.91721293";"52.35829991";"36"
"3/29/2021 12:00:00 AM";"10:00 - 10:59";"00029";"Oostpoort";"4.92719316";"52.35707185";"28"
"3/29/2021 12:00:00 AM";"10:00 - 10:59";"00030";"Oostpoort";"4.92694026";"52.35739442";"17"
"3/29/2021 12:00:00 AM";"10:00 - 10:59";"00039";"Hogeweg";"4.93084015";"52.35358075";"10"
"3/29/2021 12:00:00 AM";"10:00 - 10:59";"00053";"Kruislaan";"4.93967974";"52.34742196";"18"
"3/29/2021 12:00:00 AM";"10:00 - 10:59";"00059";"Radioweg";"4.93945830";"52.35337100";"11"
"3/29/2021 12:00:00 AM";"10:00 - 10:59";"00070";"Kruislaan";"4.93993910";"52.34789929";"25"
"3/29/2021 12:00:00 AM";"10:00 - 10:59";"00074";"Brinkstraat";"4.94797289";"52.34285131";"13"
"3/29/2021 12:00:00 AM";"10:00 - 10:59";"00116";"Station Ganzenhoef";"4.97272915";"52.32237665";"14"
"3/29/2021 12:00:00 AM";"10:00 - 10:59";"00141";"Kraaienneststation";"4.97868390";"52.31603403";"21"
"3/29/2021 12:00:00 AM";"10:00 - 10:59";"00145";"Kikkenstein";"4.97271326";"52.31621998";"10"
"3/29/2021 12:00:00 AM";"10:00 - 10:59";"00150";"Tulastraat";"4.96535973";"52.31994189";"24"
"3/29/2021 12:00:00 AM";"10:00 - 10:59";"00151";"Tulastraat";"4.96584458";"52.31985374";"14"
"3/29/2021 12:00:00 AM";"10:00 - 10:59";"00152";"Florijn";"4.95859163";"52.31758973";"15"
"3/29/2021 12:00:00 AM";"10:00 - 10:59";"00197";"Annie Romeinplein";"4.97162041";"52.32173463";"14"
"3/29/2021 12:00:00 AM";"10:00 - 10:59";"00205";"Station Holendrecht";"4.95865657";"52.29716971";"18"
"3/29/2021 12:00:00 AM";"10:00 - 10:59";"00238";"Anton de Komplein";"4.95413359";"52.31603659";"33"
"3/29/2021 12:00:00 AM";"10:00 - 10:59";"00239";"Anton de Komplein";"4.95597669";"52.31652866";"14"
"3/29/2021 12:00:00 AM";"10:00 - 10:59";"00351";"Dostojevskisingel";"4.94525272";"52.32275356";"17"
"3/29/2021 12:00:00 AM";"10:00 - 10:59";"00441";"Muiderpoortstation";"4.93254137";"52.36088532";"10"
"3/29/2021 12:00:00 AM";"10:00 - 10:59";"00444";"Linnaeusstraat";"4.92490296";"52.35991203";"23"
"3/29/2021 12:00:00 AM";"10:00 - 10:59";"00491";"Science Park Aer";"4.95218495";"52.35478458";"11"
"3/29/2021 12:00:00 AM";"10:00 - 10:59";"00553";"Kraaienneststation";"4.98073727";"52.31601414";"14"
"3/29/2021 12:00:00 AM";"10:00 - 10:59";"00560";"Station Bijlmer ArenA";"4.94747867";"52.31125750";"10"
"3/29/2021 12:00:00 AM";"10:00 - 10:59";"00561";"Station Bijlmer ArenA";"4.94741931";"52.31132918";"14"
"3/29/2021 12:00:00 AM";"10:00 - 10:59";"01005";"Volendammerweg";"4.95680438";"52.39306199";"10"
"3/29/2021 12:00:00 AM";"10:00 - 10:59";"01076";"Waterlandplein";"4.95247364";"52.39274059";"16"
"3/29/2021 12:00:00 AM";"10:00 - 10:59";"01110";"Rode Kruisstraat";"4.92847908";"52.39455548";"12"
"3/29/2021 12:00:00 AM";"10:00 - 10:59";"01111";"Rode Kruisstraat";"4.92881363";"52.39488033";"26"
"3/29/2021 12:00:00 AM";"10:00 - 10:59";"01168";"Tjalkstraat";"4.91116991";"52.40572174";"13"
"3/29/2021 12:00:00 AM";"10:00 - 10:59";"01212";"Oostzanerdijk";"4.88149588";"52.42023965";"11"
"3/29/2021 12:00:00 AM";"10:00 - 10:59";"01237";"Beemsterstraat";"4.95210741";"52.39712521";"16"
"3/29/2021 12:00:00 AM";"10:00 - 10:59";"01305";"Station Noord";"4.93215715";"52.40264056";"13"
"3/29/2021 12:00:00 AM";"10:00 - 10:59";"01363";"Buikslotermeerplein";"4.93968364";"52.39943369";"16"
"3/29/2021 12:00:00 AM";"10:00 - 10:59";"01402";"Floraweg";"4.90614362";"52.39899665";"13"
"3/29/2021 12:00:00 AM";"10:00 - 10:59";"01422";"Noorderpark";"4.91956087";"52.38902016";"11"
"3/29/2021 12:00:00 AM";"10:00 - 10:59";"02103";"Spaarndammerstraat";"4.87765867";"52.39216375";"10"
"3/29/2021 12:00:00 AM";"10:00 - 10:59";"02106";"Assendelftstraat";"4.87943840";"52.38941217";"11"
"3/29/2021 12:00:00 AM";"10:00 - 10:59";"02112";"Nassauplein";"4.88149625";"52.38543943";"10"
"3/29/2021 12:00:00 AM";"10:00 - 10:59";"02113";"Haarlemmerplein";"4.88371739";"52.38516129";"14"
"3/29/2021 12:00:00 AM";"10:00 - 10:59";"02114";"Haarlemmerplein";"4.88341252";"52.38484542";"28"
"3/29/2021 12:00:00 AM";"10:00 - 10:59";"02130";"Hugo de Grootplein";"4.87259092";"52.37439113";"15"
"3/29/2021 12:00:00 AM";"10:00 - 10:59";"02132";"Fred. Hendrikplants.";"4.87543499";"52.37862768";"14"
"3/29/2021 12:00:00 AM";"10:00 - 10:59";"02149";"Van L.Stirumstraat";"4.87489798";"52.38443141";"11"
"3/29/2021 12:00:00 AM";"10:00 - 10:59";"02155";"Willem de Zwijgerlaan";"4.86360306";"52.37071170";"12"
"3/29/2021 12:00:00 AM";"10:00 - 10:59";"02156";"Willem de Zwijgerlaan";"4.86425293";"52.37039101";"11"
"3/29/2021 12:00:00 AM";"10:00 - 10:59";"02157";"Adm. de Ruijterweg";"4.86009910";"52.37148707";"17"
"3/29/2021 12:00:00 AM";"10:00 - 10:59";"02177";"Bos en Lommerweg";"4.85521256";"52.38101018";"11"
"3/29/2021 12:00:00 AM";"10:00 - 10:59";"02182";"Markthallen";"4.86695146";"52.37567869";"21"
"3/29/2021 12:00:00 AM";"10:00 - 10:59";"02222";"Jan van Galenstraat";"4.85874763";"52.37399761";"18"
"3/29/2021 12:00:00 AM";"10:00 - 10:59";"02259";"Contactweg";"4.85657970";"52.39195435";"24"
"3/29/2021 12:00:00 AM";"10:00 - 10:59";"02260";"Contactweg";"4.85432952";"52.39215995";"18"
"3/29/2021 12:00:00 AM";"10:00 - 10:59";"02301";"Fred. Hendrikplants.";"4.87521585";"52.37852787";"12"
"3/29/2021 12:00:00 AM";"10:00 - 10:59";"02321";"Van Hallstraat";"4.86864429";"52.38538386";"16"
"3/29/2021 12:00:00 AM";"10:00 - 10:59";"02361";"Station Sloterdijk";"4.83931858";"52.38833460";"49"
"3/29/2021 12:00:00 AM";"10:00 - 10:59";"02365";"Station Sloterdijk";"4.83873236";"52.38822404";"21"
"3/29/2021 12:00:00 AM";"10:00 - 10:59";"02366";"Station Sloterdijk";"4.83873347";"52.38813416";"14"
"3/29/2021 12:00:00 AM";"10:00 - 10:59";"02367";"Station Sloterdijk";"4.83876429";"52.38801747";"16"
"3/29/2021 12:00:00 AM";"10:00 - 10:59";"02368";"Station Sloterdijk";"4.83877999";"52.38793665";"10"
"3/29/2021 12:00:00 AM";"10:00 - 10:59";"02378";"Station Sloterdijk";"4.83809796";"52.38844579";"24"
"3/29/2021 12:00:00 AM";"10:00 - 10:59";"03009";"Witte de Withstraat";"4.85851970";"52.36478416";"16"
"3/29/2021 12:00:00 AM";"10:00 - 10:59";"03010";"Witte de Withstraat";"4.85928290";"52.36480554";"17"
"3/29/2021 12:00:00 AM";"10:00 - 10:59";"03024";"Marco Polostraat";"4.85546532";"52.37095405";"13"
"3/29/2021 12:00:00 AM";"10:00 - 10:59";"03025";"Jan v.Galenstraat";"4.84854861";"52.37342137";"10"
