"Datum";"AankomstHalteCode";"AankomstHalteNaam";"AankomstLat";"AankomstLon";"AantalReizen"
"8/18/2020 12:00:00 AM";"";"Overig";"";"";"1"
"10/12/2020 12:00:00 AM";"";"Overig";"";"";"5035"
"10/12/2020 12:00:00 AM";"[[ Onb";"[[ Onbekend ]]";"0.00000000";"0.00000000";"4784"
"10/12/2020 12:00:00 AM";"00001";"Muiderpoortstation";"4.93287450";"52.36132700";"80"
"10/12/2020 12:00:00 AM";"00005";"Muiderpoortstation";"4.93280219";"52.36121887";"247"
"10/12/2020 12:00:00 AM";"00006";"Muiderpoortstation";"4.93368466";"52.36106048";"104"
"10/12/2020 12:00:00 AM";"00007";"Muiderpoortstation";"4.93356602";"52.36117686";"436"
"10/12/2020 12:00:00 AM";"00008";"Dapperstraat";"4.92977913";"52.36110836";"786"
"10/12/2020 12:00:00 AM";"00010";"Dapperstraat";"4.92891486";"52.36092527";"265"
"10/12/2020 12:00:00 AM";"00014";"Wijttenbachstraat";"4.92507537";"52.36027221";"148"
"10/12/2020 12:00:00 AM";"00017";"Linnaeusstraat";"4.92573745";"52.36013099";"143"
"10/12/2020 12:00:00 AM";"00018";"Diemerknoop";"5.00286153";"52.33537576";"53"
"10/12/2020 12:00:00 AM";"00019";"Diemerknoop";"5.00296377";"52.33543002";"44"
"10/12/2020 12:00:00 AM";"00020";"Beukenweg";"4.91674979";"52.35906203";"203"
"10/12/2020 12:00:00 AM";"00021";"Beukenweg";"4.91721293";"52.35829991";"432"
"10/12/2020 12:00:00 AM";"00023";"Beukenplein";"4.91809259";"52.35701816";"198"
"10/12/2020 12:00:00 AM";"00024";"Beukenplein";"4.91807544";"52.35725177";"51"
"10/12/2020 12:00:00 AM";"00029";"Oostpoort";"4.92719316";"52.35707185";"237"
"10/12/2020 12:00:00 AM";"00030";"Oostpoort";"4.92694026";"52.35739442";"273"
"10/12/2020 12:00:00 AM";"00039";"Hogeweg";"4.93084015";"52.35358075";"107"
"10/12/2020 12:00:00 AM";"00040";"Hogeweg";"4.93135765";"52.35321425";"162"
"10/12/2020 12:00:00 AM";"00041";"Maxwellstraat";"4.93019273";"52.34803283";"28"
"10/12/2020 12:00:00 AM";"00044";"Fizeaustraat";"4.92432897";"52.34597881";"66"
"10/12/2020 12:00:00 AM";"00046";"Fizeaustraat";"4.92463808";"52.34589015";"55"
"10/12/2020 12:00:00 AM";"00048";"Lorentzlaan";"4.93197648";"52.34582872";"13"
"10/12/2020 12:00:00 AM";"00051";"Pekelharingstraat";"4.93652909";"52.34551360";"41"
"10/12/2020 12:00:00 AM";"00052";"Pekelharingstraat";"4.93677583";"52.34578417";"17"
"10/12/2020 12:00:00 AM";"00053";"Kruislaan";"4.93967974";"52.34742196";"71"
"10/12/2020 12:00:00 AM";"00059";"Radioweg";"4.93945830";"52.35337100";"70"
"10/12/2020 12:00:00 AM";"00060";"Radioweg";"4.93979325";"52.35363291";"15"
"10/12/2020 12:00:00 AM";"00061";"Archimedesweg";"4.93965454";"52.35574450";"44"
"10/12/2020 12:00:00 AM";"00062";"Archimedesweg";"4.93987652";"52.35556558";"13"
"10/12/2020 12:00:00 AM";"00065";"Hugo de Vrieslaan";"4.93487340";"52.35101676";"114"
"10/12/2020 12:00:00 AM";"00066";"Hugo de Vrieslaan";"4.93540468";"52.35073118";"42"
"10/12/2020 12:00:00 AM";"00070";"Kruislaan";"4.93993910";"52.34789929";"188"
"10/12/2020 12:00:00 AM";"00071";"Kruislaan";"4.94045564";"52.34761364";"28"
"10/12/2020 12:00:00 AM";"00074";"Brinkstraat";"4.94797289";"52.34285131";"224"
"10/12/2020 12:00:00 AM";"00076";"Brinkstraat";"4.94742604";"52.34324474";"30"
"10/12/2020 12:00:00 AM";"00079";"Zaaiersweg";"4.93840610";"52.33984947";"36"
"10/12/2020 12:00:00 AM";"00080";"Zaaiersweg";"4.93948574";"52.33900871";"30"
"10/12/2020 12:00:00 AM";"00113";"Dennenrode";"4.95124546";"52.32191297";"31"
"10/12/2020 12:00:00 AM";"00114";"Dennenrode";"4.95213839";"52.32209601";"132"
"10/12/2020 12:00:00 AM";"00116";"Station Ganzenhoef";"4.97272915";"52.32237665";"209"
"10/12/2020 12:00:00 AM";"00118";"Echtenstein";"4.95952116";"52.32463051";"62"
"10/12/2020 12:00:00 AM";"00119";"Echtenstein";"4.95972461";"52.32482898";"19"
"10/12/2020 12:00:00 AM";"00124";"Geldershoofd";"4.97091549";"52.32495876";"20"
"10/12/2020 12:00:00 AM";"00125";"Geldershoofd";"4.97088414";"52.32517435";"28"
"10/12/2020 12:00:00 AM";"00126";"Grubbehoeve";"4.97626815";"52.32352145";"35"
"10/12/2020 12:00:00 AM";"00127";"Grubbehoeve";"4.97765851";"52.32385882";"46"
"10/12/2020 12:00:00 AM";"00128";"Geerdinkhof";"4.98077720";"52.32287193";"41"
"10/12/2020 12:00:00 AM";"00129";"Geerdinkhof";"4.98025676";"52.32364309";"21"
"10/12/2020 12:00:00 AM";"00134";"Koornhorst";"4.98400929";"52.31907218";"123"
"10/12/2020 12:00:00 AM";"00135";"Koornhorst";"4.98396309";"52.31931470";"24"
"10/12/2020 12:00:00 AM";"00141";"Kraaienneststation";"4.97868390";"52.31603403";"318"
"10/12/2020 12:00:00 AM";"00144";"Kikkenstein";"4.97237050";"52.31680298";"38"
"10/12/2020 12:00:00 AM";"00145";"Kikkenstein";"4.97271326";"52.31621998";"136"
"10/12/2020 12:00:00 AM";"00146";"Gooioord";"4.96906535";"52.32048532";"76"
"10/12/2020 12:00:00 AM";"00147";"Gooioord";"4.96936376";"52.31994711";"99"
"10/12/2020 12:00:00 AM";"00150";"Tulastraat";"4.96535973";"52.31994189";"96"
"10/12/2020 12:00:00 AM";"00151";"Tulastraat";"4.96584458";"52.31985374";"268"
"10/12/2020 12:00:00 AM";"00152";"Florijn";"4.95859163";"52.31758973";"167"
"10/12/2020 12:00:00 AM";"00153";"Florijn";"4.95971907";"52.31778255";"177"
"10/12/2020 12:00:00 AM";"00157";"Dolingadreef";"4.94847023";"52.31925132";"60"
"10/12/2020 12:00:00 AM";"00158";"Dolingadreef";"4.94901581";"52.31895674";"68"
"10/12/2020 12:00:00 AM";"00167";"Hogevecht";"4.95956435";"52.30947729";"70"
"10/12/2020 12:00:00 AM";"00168";"Hogevecht";"4.95997517";"52.30945181";"22"
"10/12/2020 12:00:00 AM";"00169";"Huigenbos";"4.96076438";"52.30666844";"92"
"10/12/2020 12:00:00 AM";"00170";"Huigenbos";"4.96083553";"52.30689339";"20"
"10/12/2020 12:00:00 AM";"00171";"Maasdrielhof";"4.96483898";"52.30220714";"80"
"10/12/2020 12:00:00 AM";"00172";"Holendrechtplein";"4.96402882";"52.29952588";"137"
"10/12/2020 12:00:00 AM";"00178";"Nelson Mandelapark";"4.96403676";"52.31101231";"24"
"10/12/2020 12:00:00 AM";"00179";"Kelbergen";"4.97179997";"52.31351146";"76"
"10/12/2020 12:00:00 AM";"00180";"Kelbergen";"4.97143303";"52.31354612";"86"
"10/12/2020 12:00:00 AM";"00187";"Geinbrug";"5.01277616";"52.30448073";"17"
"10/12/2020 12:00:00 AM";"00197";"Annie Romeinplein";"4.97162041";"52.32173463";"408"
"10/12/2020 12:00:00 AM";"00198";"Annie Romeinplein";"4.96998049";"52.32143226";"40"
"10/12/2020 12:00:00 AM";"00199";"Station Ganzenhoef";"4.97329456";"52.32308866";"118"
"10/12/2020 12:00:00 AM";"00200";"Station Ganzenhoef";"4.97508507";"52.32297807";"65"
"10/12/2020 12:00:00 AM";"00205";"Station Holendrecht";"4.95865657";"52.29716971";"128"
"10/12/2020 12:00:00 AM";"00207";"Rhenenhof";"4.97082721";"52.29838160";"17"
"10/12/2020 12:00:00 AM";"00210";"Hakfort";"4.95541377";"52.30805113";"12"
"10/12/2020 12:00:00 AM";"00211";"Station Holendrecht";"4.95889207";"52.29707170";"29"
"10/12/2020 12:00:00 AM";"00238";"Anton de Komplein";"4.95413359";"52.31603659";"534"
"10/12/2020 12:00:00 AM";"00239";"Anton de Komplein";"4.95597669";"52.31652866";"359"
"10/12/2020 12:00:00 AM";"00250";"Station Diemen Zuid";"4.95668889";"52.33081280";"34"
"10/12/2020 12:00:00 AM";"00251";"Station Diemen Zuid";"4.95681979";"52.33093012";"65"
"10/12/2020 12:00:00 AM";"00252";"Tarwekamp";"4.95487876";"52.33290035";"11"
"10/12/2020 12:00:00 AM";"00253";"Tarwekamp";"4.95472987";"52.33312450";"28"
"10/12/2020 12:00:00 AM";"00256";"Kruidenommegang";"4.93928931";"52.32793505";"11"
"10/12/2020 12:00:00 AM";"00258";"Burg. van Damstraat";"4.94155946";"52.33414518";"22"
"10/12/2020 12:00:00 AM";"00259";"Burg. van Damstraat";"4.94174830";"52.33433463";"16"
"10/12/2020 12:00:00 AM";"00295";"Dalsteindreef";"4.94234237";"52.32482782";"18"
"10/12/2020 12:00:00 AM";"00296";"Dalsteindreef";"4.94241589";"52.32481012";"16"
"10/12/2020 12:00:00 AM";"00305";"Leusdenhof";"4.97849180";"52.30981383";"13"
"10/12/2020 12:00:00 AM";"00306";"Leusdenhof";"4.97837367";"52.30990330";"34"
"10/12/2020 12:00:00 AM";"00314";"Leerdamhof";"4.97526283";"52.30538963";"23"
"10/12/2020 12:00:00 AM";"00321";"Gaasperplas (uitstap)";"4.98513910";"52.31091514";"83"
"10/12/2020 12:00:00 AM";"00330";"Middenweg";"4.93455629";"52.35044932";"71"
"10/12/2020 12:00:00 AM";"00331";"Station Reigersbos";"4.97350466";"52.29737537";"22"
"10/12/2020 12:00:00 AM";"00333";"Schoonhovendreef";"4.97463519";"52.29402687";"35"
"10/12/2020 12:00:00 AM";"00335";"Scherpenzeelstraat";"4.97724033";"52.29287650";"22"
"10/12/2020 12:00:00 AM";"00336";"Schaarsbergenstraat";"4.98158109";"52.29265779";"10"
"10/12/2020 12:00:00 AM";"00337";"Schaarsbergenstraat";"4.98130170";"52.29275570";"29"
"10/12/2020 12:00:00 AM";"00338";"Staverdenplein";"4.98602093";"52.29282573";"10"
"10/12/2020 12:00:00 AM";"00339";"Staverdenplein";"4.98584439";"52.29289703";"30"
"10/12/2020 12:00:00 AM";"00341";"Woudrichemstraat";"4.98882309";"52.29418337";"12"
"10/12/2020 12:00:00 AM";"00343";"W. Gertenbachstraat";"4.98914971";"52.29863342";"21"
"10/12/2020 12:00:00 AM";"00345";"Station Gein";"4.98911240";"52.29625153";"74"
"10/12/2020 12:00:00 AM";"00346";"Station Gein";"4.98935990";"52.29644111";"14"
"10/12/2020 12:00:00 AM";"00351";"Dostojevskisingel";"4.94525272";"52.32275356";"131"
"10/12/2020 12:00:00 AM";"00352";"Dostojevskisingel";"4.94457408";"52.32314649";"59"
"10/12/2020 12:00:00 AM";"00364";"Boven Rijkersloot";"4.95497934";"52.33462636";"15"
"10/12/2020 12:00:00 AM";"00365";"Boven Rijkersloot";"4.95544506";"52.33501454";"25"
"10/12/2020 12:00:00 AM";"00371";"Plataanstraat";"4.94103424";"52.33239059";"31"
"10/12/2020 12:00:00 AM";"00419";"Wamelstraat";"4.98591342";"52.30148959";"25"
"10/12/2020 12:00:00 AM";"00420";"Wamelstraat";"4.98556075";"52.30157827";"10"
"10/12/2020 12:00:00 AM";"00421";"Veenendaalplein";"4.98085559";"52.30147232";"43"
"10/12/2020 12:00:00 AM";"00432";"Diemerbrug";"4.96142958";"52.33824484";"286"
"10/12/2020 12:00:00 AM";"00434";"Bijlmerplein";"4.95032022";"52.31457553";"212"
"10/12/2020 12:00:00 AM";"00436";"Industrieweg";"4.94609590";"52.33533058";"16"
"10/12/2020 12:00:00 AM";"00437";"Industrieweg";"4.94540223";"52.33574143";"12"
"10/12/2020 12:00:00 AM";"00441";"Muiderpoortstation";"4.93254137";"52.36088532";"256"
"10/12/2020 12:00:00 AM";"00442";"Beukenhorst";"4.96005659";"52.33759278";"22"
"10/12/2020 12:00:00 AM";"00443";"Beukenhorst";"4.96005866";"52.33737708";"62"
"10/12/2020 12:00:00 AM";"00444";"Linnaeusstraat";"4.92490296";"52.35991203";"355"
"10/12/2020 12:00:00 AM";"00453";"Diemen Sniep";"4.96964866";"52.33644962";"201"
"10/12/2020 12:00:00 AM";"00464";"Hogeschool InHolland";"4.95958754";"52.32687769";"78"
"10/12/2020 12:00:00 AM";"00465";"Hogeschool InHolland";"4.95988065";"52.32690571";"35"
"10/12/2020 12:00:00 AM";"00491";"Science Park Aer";"4.95218495";"52.35478458";"145"
"10/12/2020 12:00:00 AM";"00494";"Science Park Aqua";"4.95416922";"52.35601419";"29"
"10/12/2020 12:00:00 AM";"00505";"Arent Krijtsstraat";"4.95469645";"52.33956859";"173"
"10/12/2020 12:00:00 AM";"00506";"Science Park Terra";"4.95831008";"52.35434856";"39"
"10/12/2020 12:00:00 AM";"00507";"Science Park Terra";"4.95772497";"52.35413972";"40"
"10/12/2020 12:00:00 AM";"00511";"Station Duivendrecht";"4.93682938";"52.32314422";"52"
"10/12/2020 12:00:00 AM";"00512";"Middenweg";"4.93389832";"52.35020413";"33"
"10/12/2020 12:00:00 AM";"00515";"Station Duivendrecht";"4.93669692";"52.32318866";"73"
"10/12/2020 12:00:00 AM";"00518";"Foppingadreef";"4.94967889";"52.31268573";"183"
"10/12/2020 12:00:00 AM";"00526";"Provincialeweg";"4.97270608";"52.32799392";"10"
"10/12/2020 12:00:00 AM";"00529";"Station Science Park";"4.94782063";"52.35230583";"12"
"10/12/2020 12:00:00 AM";"00537";"Linnaeusparkweg";"4.94275809";"52.34924908";"38"
"10/12/2020 12:00:00 AM";"00538";"Station Science Park";"4.94808393";"52.35239669";"88"
"10/12/2020 12:00:00 AM";"00552";"Kraaienneststation";"4.98156548";"52.31686183";"85"
"10/12/2020 12:00:00 AM";"00553";"Kraaienneststation";"4.98073727";"52.31601414";"252"
"10/12/2020 12:00:00 AM";"00554";"Science Park";"4.95088162";"52.35447420";"52"
"10/12/2020 12:00:00 AM";"00556";"C. Mac Gillavrylaan";"4.94469989";"52.35763291";"12"
"10/12/2020 12:00:00 AM";"00557";"C. Mac Gillavrylaan";"4.94421459";"52.35772097";"10"
"10/12/2020 12:00:00 AM";"00560";"Station Bijlmer ArenA";"4.94747867";"52.31125750";"229"
"10/12/2020 12:00:00 AM";"00561";"Station Bijlmer ArenA";"4.94741931";"52.31132918";"386"
"10/12/2020 12:00:00 AM";"00562";"Station Bijlmer ArenA";"4.94736012";"52.31138289";"77"
"10/12/2020 12:00:00 AM";"00568";"Station Bijlmer ArenA";"4.94762664";"52.31112323";"104"
"10/12/2020 12:00:00 AM";"00571";"Stationsweg";"4.93111222";"52.32424579";"13"
"10/12/2020 12:00:00 AM";"00601";"Van Houtenlaan";"5.03711994";"52.30381828";"20"
"10/12/2020 12:00:00 AM";"00651";"Casparuslaan";"5.03531862";"52.30911571";"47"
"10/12/2020 12:00:00 AM";"00665";"Station Weesp";"5.04383463";"52.31145059";"54"
"10/12/2020 12:00:00 AM";"00675";"J.H.Leopoldhof";"5.03906300";"52.31219161";"13"
"10/12/2020 12:00:00 AM";"00901";"Stammerkamp";"4.98292612";"52.33334103";"22"
"10/12/2020 12:00:00 AM";"00902";"Stammerkamp";"4.98344083";"52.33320797";"33"
"10/12/2020 12:00:00 AM";"00966";"Tureluurweg";"4.97931906";"52.35068393";"39"
"10/12/2020 12:00:00 AM";"00971";"Rietzangerweg";"4.97382833";"52.35084464";"21"
"10/12/2020 12:00:00 AM";"00973";"Vogelweg";"4.97356522";"52.34915403";"37"
"10/12/2020 12:00:00 AM";"00975";"Station Diemen";"4.96742618";"52.34494414";"42"
"10/12/2020 12:00:00 AM";"00976";"Klipperweg";"4.98288824";"52.34878179";"30"
"10/12/2020 12:00:00 AM";"00979";"Meerkoet";"4.97635516";"52.35217463";"46"
"10/12/2020 12:00:00 AM";"00985";"Winkelcentrum";"4.96422695";"52.34186794";"99"
"10/12/2020 12:00:00 AM";"00986";"Prins Bernhardlaan";"4.96813694";"52.33805308";"24"
"10/12/2020 12:00:00 AM";"00989";"Martin L.Kinglaan";"4.96563784";"52.34318518";"29"
"10/12/2020 12:00:00 AM";"00990";"Martin L.Kinglaan";"4.96527201";"52.34307603";"13"
"10/12/2020 12:00:00 AM";"00991";"Station Diemen";"4.96784657";"52.34549388";"20"
"10/12/2020 12:00:00 AM";"00992";"Pr. Beatrixlaan";"4.96770879";"52.33988506";"41"
"10/12/2020 12:00:00 AM";"00994";"Burg. Bickerstraat";"4.96278104";"52.34115273";"15"
"10/12/2020 12:00:00 AM";"00998";"Vinkenbrug";"4.97878537";"52.33371328";"33"
"10/12/2020 12:00:00 AM";"00999";"Vinkenbrug";"4.97831599";"52.33370267";"59"
"10/12/2020 12:00:00 AM";"01001";"Hilversumstraat";"4.95884418";"52.39025625";"132"
"10/12/2020 12:00:00 AM";"01002";"Hilversumstraat";"4.95898142";"52.38973546";"103"
"10/12/2020 12:00:00 AM";"01005";"Volendammerweg";"4.95680438";"52.39306199";"194"
"10/12/2020 12:00:00 AM";"01006";"Purmerweg";"4.94847513";"52.39002955";"27"
"10/12/2020 12:00:00 AM";"01007";"Purmerweg";"4.94871052";"52.38999448";"86"
"10/12/2020 12:00:00 AM";"01058";"Purmerplein";"4.94586747";"52.39078382";"13"
"10/12/2020 12:00:00 AM";"01059";"Purmerplein";"4.94569441";"52.39045962";"76"
"10/12/2020 12:00:00 AM";"01060";"Wervershoofstraat";"4.94038537";"52.39249788";"26"
"10/12/2020 12:00:00 AM";"01061";"Wervershoofstraat";"4.93954583";"52.39271041";"59"
"10/12/2020 12:00:00 AM";"01062";"Nieuwe Purmerweg";"4.93413606";"52.39448737";"11"
"10/12/2020 12:00:00 AM";"01063";"Nieuwe Purmerweg";"4.93450646";"52.39418321";"52"
"10/12/2020 12:00:00 AM";"01064";"Het Breed";"4.93243679";"52.39830061";"12"
"10/12/2020 12:00:00 AM";"01068";"Ilperveldstraat";"4.94516476";"52.39496045";"24"
"10/12/2020 12:00:00 AM";"01069";"De Egmondenstraat";"4.94948278";"52.39361036";"34"
"10/12/2020 12:00:00 AM";"01070";"De Egmondenstraat";"4.94809704";"52.39409057";"77"
"10/12/2020 12:00:00 AM";"01071";"Waterlandplein";"4.95393688";"52.39183820";"108"
"10/12/2020 12:00:00 AM";"01076";"Waterlandplein";"4.95247364";"52.39274059";"262"
"10/12/2020 12:00:00 AM";"01077";"Dijkmanshuizenstraat";"4.95440778";"52.39627083";"37"
"10/12/2020 12:00:00 AM";"01078";"Dijkmanshuizenstraat";"4.95475323";"52.39549915";"177"
"10/12/2020 12:00:00 AM";"01091";"Beemsterstraat";"4.95105959";"52.39759770";"65"
"10/12/2020 12:00:00 AM";"01100";"Bakkerswaal";"4.93759657";"52.40239170";"10"
"10/12/2020 12:00:00 AM";"01101";"Bakkerswaal";"4.93728965";"52.40222876";"17"
"10/12/2020 12:00:00 AM";"01103";"Amerbos";"4.94140690";"52.40340373";"24"
"10/12/2020 12:00:00 AM";"01104";"Amerbos";"4.94255700";"52.40301260";"22"
"10/12/2020 12:00:00 AM";"01106";"Spelderholt";"4.94423483";"52.40127528";"29"
"10/12/2020 12:00:00 AM";"01107";"Spelderholt";"4.94419255";"52.40109537";"45"
"10/12/2020 12:00:00 AM";"01108";"J. Drijverweg";"4.94437079";"52.39943333";"62"
"10/12/2020 12:00:00 AM";"01109";"J. Drijverweg";"4.94420701";"52.39964842";"96"
"10/12/2020 12:00:00 AM";"01110";"Rode Kruisstraat";"4.92847908";"52.39455548";"25"
"10/12/2020 12:00:00 AM";"01111";"Rode Kruisstraat";"4.92881363";"52.39488033";"68"
"10/12/2020 12:00:00 AM";"01112";"Waddenweg";"4.92695639";"52.39263520";"13"
"10/12/2020 12:00:00 AM";"01116";"Merelstraat";"4.92492850";"52.38986809";"30"
"10/12/2020 12:00:00 AM";"01117";"Merelstraat";"4.92505977";"52.38995848";"33"
"10/12/2020 12:00:00 AM";"01121";"Hamerstraat";"4.92100278";"52.38600598";"17"
"10/12/2020 12:00:00 AM";"01122";"Havikslaan";"4.91829259";"52.38532121";"11"
"10/12/2020 12:00:00 AM";"01123";"Havikslaan";"4.91760530";"52.38503088";"34"
"10/12/2020 12:00:00 AM";"01124";"Valkenweg";"4.91327814";"52.38309927";"18"
"10/12/2020 12:00:00 AM";"01136";"Bundlaan";"4.90249488";"52.38869090";"12"
"10/12/2020 12:00:00 AM";"01151";"Mosplein";"4.91407704";"52.39357310";"146"
"10/12/2020 12:00:00 AM";"01155";"Mosplein";"4.91358361";"52.39300490";"95"
"10/12/2020 12:00:00 AM";"01156";"Sneeuwbalstraat";"4.91395944";"52.39633184";"45"
"10/12/2020 12:00:00 AM";"01158";"Sneeuwbalstraat";"4.91413517";"52.39638647";"100"
"10/12/2020 12:00:00 AM";"01166";"Barkpad";"4.91174689";"52.40262332";"97"
"10/12/2020 12:00:00 AM";"01167";"Tjalkstraat";"4.91007632";"52.40492643";"104"
"10/12/2020 12:00:00 AM";"01168";"Tjalkstraat";"4.91116991";"52.40572174";"247"
"10/12/2020 12:00:00 AM";"01171";"Voordek";"4.91677702";"52.41048960";"67"
"10/12/2020 12:00:00 AM";"01172";"Voordek";"4.91743292";"52.41100450";"109"
"10/12/2020 12:00:00 AM";"01173";"Tussendek";"4.91923925";"52.41253056";"100"
"10/12/2020 12:00:00 AM";"01174";"Tussendek";"4.91996775";"52.41313560";"54"
"10/12/2020 12:00:00 AM";"01175";"Staghof";"4.92253391";"52.41370293";"53"
"10/12/2020 12:00:00 AM";"01176";"Staghof";"4.92294855";"52.41340796";"17"
"10/12/2020 12:00:00 AM";"01177";"Masthof";"4.92557694";"52.41224085";"97"
"10/12/2020 12:00:00 AM";"01178";"Masthof";"4.92600624";"52.41194593";"26"
"10/12/2020 12:00:00 AM";"01179";"Grootzeil";"4.92427558";"52.40878453";"128"
"10/12/2020 12:00:00 AM";"01180";"Grootzeil";"4.92316491";"52.40818700";"27"
"10/12/2020 12:00:00 AM";"01188";"Barkpad";"4.91148172";"52.40268517";"21"
"10/12/2020 12:00:00 AM";"01189";"Pinksterbloemstraat";"4.91221693";"52.39852684";"31"
"10/12/2020 12:00:00 AM";"01191";"Pinksterbloemstraat";"4.91203754";"52.39881372";"100"
"10/12/2020 12:00:00 AM";"01194";"Slijperweg";"4.90768400";"52.39921860";"57"
"10/12/2020 12:00:00 AM";"01199";"Klaprozenweg";"4.89670788";"52.40322709";"218"
"10/12/2020 12:00:00 AM";"01200";"Klaprozenweg";"4.89588253";"52.40344836";"30"
"10/12/2020 12:00:00 AM";"01203";"Meteorensingel";"4.89157478";"52.41021609";"90"
"10/12/2020 12:00:00 AM";"01204";"Meteorensingel";"4.89107380";"52.41033083";"17"
"10/12/2020 12:00:00 AM";"01205";"Maanstraat";"4.88734967";"52.41214866";"99"
"10/12/2020 12:00:00 AM";"01206";"Maanstraat";"4.88683437";"52.41222737";"20"
"10/12/2020 12:00:00 AM";"01208";"Meteorenweg";"4.88139638";"52.41479272";"60"
"10/12/2020 12:00:00 AM";"01209";"Meteorenweg";"4.88130901";"52.41472045";"13"
"10/12/2020 12:00:00 AM";"01211";"Kometensingel";"4.88284527";"52.41663238";"60"
"10/12/2020 12:00:00 AM";"01212";"Oostzanerdijk";"4.88149588";"52.42023965";"75"
"10/12/2020 12:00:00 AM";"01214";"Bovenkruier";"4.88405513";"52.42011573";"128"
"10/12/2020 12:00:00 AM";"01215";"Bovenkruier";"4.88414138";"52.42028686";"24"
"10/12/2020 12:00:00 AM";"01216";"Petmolen";"4.88552082";"52.41790200";"84"
"10/12/2020 12:00:00 AM";"01219";"Petmolen";"4.88623439";"52.41719500";"18"
"10/12/2020 12:00:00 AM";"01223";"Standerdmolen";"4.89327050";"52.41630780";"51"
"10/12/2020 12:00:00 AM";"01225";"Appelweg";"4.89540742";"52.41580439";"10"
"10/12/2020 12:00:00 AM";"01226";"Druivenstraat";"4.89870428";"52.41274426";"11"
"10/12/2020 12:00:00 AM";"01227";"Druivenstraat";"4.89810627";"52.41232837";"21"
"10/12/2020 12:00:00 AM";"01228";"Ananasplein";"4.89555645";"52.41032256";"26"
"10/12/2020 12:00:00 AM";"01229";"Ananasplein";"4.89611082";"52.41069335";"22"
"10/12/2020 12:00:00 AM";"01237";"Beemsterstraat";"4.95210741";"52.39712521";"211"
"10/12/2020 12:00:00 AM";"01277";"Statenjachtstraat";"4.91364478";"52.40790666";"104"
"10/12/2020 12:00:00 AM";"01278";"Statenjachtstraat";"4.91380643";"52.40790731";"217"
"10/12/2020 12:00:00 AM";"01305";"Station Noord";"4.93215715";"52.40264056";"84"
"10/12/2020 12:00:00 AM";"01314";"Station Noord";"4.93342661";"52.40207921";"19"
"10/12/2020 12:00:00 AM";"01315";"Station Noord";"4.93339740";"52.40206112";"245"
"10/12/2020 12:00:00 AM";"01316";"Station Noord";"4.93336820";"52.40204304";"115"
"10/12/2020 12:00:00 AM";"01328";"Winkelcentrum";"4.93733535";"52.39772613";"54"
"10/12/2020 12:00:00 AM";"01329";"Stenendokweg";"4.89310573";"52.40867661";"163"
"10/12/2020 12:00:00 AM";"01330";"Stenendokweg";"4.89295540";"52.40766038";"33"
"10/12/2020 12:00:00 AM";"01339";"G.J. Scheurleerweg";"4.92911695";"52.40391408";"20"
"10/12/2020 12:00:00 AM";"01340";"G.J. Scheurleerweg";"4.92914820";"52.40373445";"27"
"10/12/2020 12:00:00 AM";"01351";"Oosterlengte";"4.92232257";"52.40582894";"35"
"10/12/2020 12:00:00 AM";"01352";"Oosterlengte";"4.92206974";"52.40611555";"133"
"10/12/2020 12:00:00 AM";"01353";"BovenIJ ziekenhuis";"4.92002004";"52.40538848";"42"
"10/12/2020 12:00:00 AM";"01354";"BovenIJ ziekenhuis";"4.92010489";"52.40570338";"78"
"10/12/2020 12:00:00 AM";"01359";"Molenwijk";"4.89361832";"52.41807082";"179"
"10/12/2020 12:00:00 AM";"01360";"Buiksloterwegveer";"4.90574018";"52.38338343";"12"
"10/12/2020 12:00:00 AM";"01361";"Molenwijk";"4.89363353";"52.41802595";"53"
"10/12/2020 12:00:00 AM";"01362";"Molenwijk";"4.89364883";"52.41797209";"62"
"10/12/2020 12:00:00 AM";"01363";"Buikslotermeerplein";"4.93968364";"52.39943369";"270"
"10/12/2020 12:00:00 AM";"01364";"Buikslotermeerplein";"4.93887054";"52.39992493";"210"
"10/12/2020 12:00:00 AM";"01388";"Liergouw";"4.97048749";"52.38308071";"18"
"10/12/2020 12:00:00 AM";"01389";"Liergouw";"4.97076402";"52.38335131";"35"
"10/12/2020 12:00:00 AM";"01402";"Floraweg";"4.90614362";"52.39899665";"107"
"10/12/2020 12:00:00 AM";"01403";"Distelweg";"4.90268094";"52.39451567";"49"
"10/12/2020 12:00:00 AM";"01412";"Meidoornplein";"4.91107328";"52.38735957";"15"
"10/12/2020 12:00:00 AM";"01414";"Olof Palmeplein";"4.94012168";"52.39679298";"345"
"10/12/2020 12:00:00 AM";"01415";"Olof Palmeplein";"4.94016685";"52.39668530";"16"
"10/12/2020 12:00:00 AM";"01417";"Johan v.Hasseltweg";"4.92309870";"52.38784770";"69"
"10/12/2020 12:00:00 AM";"01422";"Noorderpark";"4.91956087";"52.38902016";"151"
"10/12/2020 12:00:00 AM";"01423";"Noorderpark";"4.91921998";"52.38930641";"61"
"10/12/2020 12:00:00 AM";"01443";"Volendammerweg";"4.95697086";"52.39255928";"305"
"10/12/2020 12:00:00 AM";"01446";"Johan v.Hasseltweg";"4.92323015";"52.38792012";"53"
"10/12/2020 12:00:00 AM";"02018";"Koivistokade";"4.87577082";"52.39789874";"53"
"10/12/2020 12:00:00 AM";"02019";"Koivistokade";"4.87537403";"52.39790601";"60"
"10/12/2020 12:00:00 AM";"02043";"Nieuwe Hemweg";"4.85097494";"52.40107858";"28"
"10/12/2020 12:00:00 AM";"02055";"Nieuwe Hemweg";"4.84910150";"52.40168124";"18"
"10/12/2020 12:00:00 AM";"02060";"Spaarndammerdijk";"4.86040623";"52.39260956";"27"
"10/12/2020 12:00:00 AM";"02061";"Spaarndammerdijk";"4.86203940";"52.39240111";"26"
"10/12/2020 12:00:00 AM";"02064";"Kabelweg";"4.84827817";"52.39205168";"51"
"10/12/2020 12:00:00 AM";"02066";"La Guardiaweg";"4.84008244";"52.39190625";"48"
"10/12/2020 12:00:00 AM";"02081";"Haparandaweg";"4.87212228";"52.39451255";"15"
"10/12/2020 12:00:00 AM";"02086";"Solebaystraat";"4.85594303";"52.38501299";"26"
"10/12/2020 12:00:00 AM";"02088";"Vredenhof";"4.86378450";"52.38520070";"45"
"10/12/2020 12:00:00 AM";"02089";"Vredenhof";"4.86238820";"52.38527541";"48"
"10/12/2020 12:00:00 AM";"02094";"Zaanstraat";"4.87012818";"52.39291304";"48"
"10/12/2020 12:00:00 AM";"02099";"Zaanstraat";"4.86990824";"52.39287613";"35"
"10/12/2020 12:00:00 AM";"02103";"Spaarndammerstraat";"4.87765867";"52.39216375";"338"
"10/12/2020 12:00:00 AM";"02106";"Assendelftstraat";"4.87943840";"52.38941217";"207"
"10/12/2020 12:00:00 AM";"02107";"Assendelftstraat";"4.87984170";"52.38882970";"51"
"10/12/2020 12:00:00 AM";"02111";"Nassauplein";"4.88146892";"52.38525956";"27"
"10/12/2020 12:00:00 AM";"02112";"Nassauplein";"4.88149625";"52.38543943";"72"
"10/12/2020 12:00:00 AM";"02113";"Haarlemmerplein";"4.88371739";"52.38516129";"235"
"10/12/2020 12:00:00 AM";"02114";"Haarlemmerplein";"4.88341252";"52.38484542";"392"
"10/12/2020 12:00:00 AM";"02115";"Nw. Willemsstraat";"4.88086944";"52.38115861";"94"
"10/12/2020 12:00:00 AM";"02118";"Nw.Willemsstraat";"4.88088280";"52.38127551";"97"
"10/12/2020 12:00:00 AM";"02125";"Bloemgracht";"4.87632342";"52.37417361";"14"
"10/12/2020 12:00:00 AM";"02126";"Bloemgracht";"4.87658402";"52.37449829";"113"
"10/12/2020 12:00:00 AM";"02127";"Rozengracht";"4.87584312";"52.37252679";"22"
"10/12/2020 12:00:00 AM";"02128";"G. v.Ledenberchstraat";"4.87062828";"52.37520945";"76"
"10/12/2020 12:00:00 AM";"02129";"G. v.Ledenberchstraat";"4.87080586";"52.37509339";"39"
"10/12/2020 12:00:00 AM";"02130";"Hugo de Grootplein";"4.87259092";"52.37439113";"219"
"10/12/2020 12:00:00 AM";"02131";"Hugo de Grootplein";"4.87292199";"52.37496778";"26"
"10/12/2020 12:00:00 AM";"02132";"Fred. Hendrikplants.";"4.87543499";"52.37862768";"210"
"10/12/2020 12:00:00 AM";"02133";"Fred. Hendrikplants.";"4.87521709";"52.37842002";"29"
"10/12/2020 12:00:00 AM";"02137";"Kostverlorenstraat";"4.87173645";"52.37968118";"35"
"10/12/2020 12:00:00 AM";"02138";"Kostverlorenstraat";"4.87170885";"52.37952826";"42"
"10/12/2020 12:00:00 AM";"02139";"Van Beuningenplein";"4.87112924";"52.38137721";"30"
"10/12/2020 12:00:00 AM";"02140";"Van Beuningenplein";"4.87111633";"52.38122436";"66"
"10/12/2020 12:00:00 AM";"02141";"V.d. Hoopstraat";"4.87037134";"52.38339614";"21"
"10/12/2020 12:00:00 AM";"02142";"V.d. Hoopstraat";"4.87031312";"52.38335094";"84"
"10/12/2020 12:00:00 AM";"02145";"Van Hallstraat";"4.86990682";"52.38418503";"131"
"10/12/2020 12:00:00 AM";"02149";"Van L.Stirumstraat";"4.87489798";"52.38443141";"125"
"10/12/2020 12:00:00 AM";"02151";"De Wittenkade";"4.87695310";"52.38326290";"149"
"10/12/2020 12:00:00 AM";"02152";"Nassaukade";"4.87906660";"52.38083632";"17"
"10/12/2020 12:00:00 AM";"02153";"Nassaukade";"4.87920791";"52.38132226";"165"
"10/12/2020 12:00:00 AM";"02154";"De Clercqstraat";"4.87052824";"52.37119150";"57"
"10/12/2020 12:00:00 AM";"02155";"Willem de Zwijgerlaan";"4.86360306";"52.37071170";"307"
"10/12/2020 12:00:00 AM";"02156";"Willem de Zwijgerlaan";"4.86425293";"52.37039101";"194"
"10/12/2020 12:00:00 AM";"02157";"Adm. de Ruijterweg";"4.86009910";"52.37148707";"313"
"10/12/2020 12:00:00 AM";"02158";"Adm. de Ruijterweg";"4.86096776";"52.37129320";"268"
"10/12/2020 12:00:00 AM";"02159";"Jan Evertsenstraat";"4.85943407";"52.37184362";"33"
"10/12/2020 12:00:00 AM";"02160";"Haparandaweg";"4.87389760";"52.39471799";"27"
"10/12/2020 12:00:00 AM";"02163";"Houtmankade";"4.88441360";"52.39112308";"59"
"10/12/2020 12:00:00 AM";"02164";"De Rijpstraat";"4.85776890";"52.37725578";"69"
"10/12/2020 12:00:00 AM";"02166";"Bos en Lommerweg";"4.85548704";"52.38016657";"164"
"10/12/2020 12:00:00 AM";"02167";"Bos en Lommerweg";"4.85380049";"52.38118358";"441"
"10/12/2020 12:00:00 AM";"02169";"Wiltzanghlaan";"4.85218893";"52.38206609";"166"
"10/12/2020 12:00:00 AM";"02170";"Spaarndammerstraat";"4.87723089";"52.39231470";"125"
"10/12/2020 12:00:00 AM";"02171";"Wiltzanghlaan";"4.85060722";"52.38290378";"223"
"10/12/2020 12:00:00 AM";"02172";"Molenwerf";"4.84552895";"52.38620612";"65"
"10/12/2020 12:00:00 AM";"02174";"Molenwerf";"4.84647140";"52.38601270";"55"
"10/12/2020 12:00:00 AM";"02177";"Bos en Lommerweg";"4.85521256";"52.38101018";"70"
"10/12/2020 12:00:00 AM";"02182";"Markthallen";"4.86695146";"52.37567869";"27"
"10/12/2020 12:00:00 AM";"02183";"Markthallen";"4.86667150";"52.37575835";"40"
"10/12/2020 12:00:00 AM";"02184";"Jan v.Galenstraat";"4.86033817";"52.37484954";"63"
"10/12/2020 12:00:00 AM";"02190";"Karel Doormanstraat";"4.85695623";"52.37889690";"142"
"10/12/2020 12:00:00 AM";"02192";"Marnixplein";"4.87860283";"52.37773357";"34"
"10/12/2020 12:00:00 AM";"02193";"Marnixplein";"4.87844490";"52.37741832";"280"
"10/12/2020 12:00:00 AM";"02199";"Eerste Marnixdwarsstraat";"4.88203787";"52.38302405";"170"
"10/12/2020 12:00:00 AM";"02201";"Abberdaan";"4.78087947";"52.39180671";"18"
"10/12/2020 12:00:00 AM";"02220";"Jan Evertsenstraat";"4.85941704";"52.37204127";"29"
"10/12/2020 12:00:00 AM";"02221";"Jan v.Galenstraat";"4.85842340";"52.37532634";"158"
"10/12/2020 12:00:00 AM";"02222";"Jan van Galenstraat";"4.85874763";"52.37399761";"189"
"10/12/2020 12:00:00 AM";"02258";"Kabelweg";"4.84712512";"52.39263962";"16"
"10/12/2020 12:00:00 AM";"02259";"Contactweg";"4.85657970";"52.39195435";"11"
"10/12/2020 12:00:00 AM";"02260";"Contactweg";"4.85432952";"52.39215995";"50"
"10/12/2020 12:00:00 AM";"02270";"Bolstoen";"4.78857746";"52.39180992";"12"
"10/12/2020 12:00:00 AM";"02284";"Dynamostraat";"4.84797845";"52.39857539";"10"
"10/12/2020 12:00:00 AM";"02301";"Fred. Hendrikplants.";"4.87521585";"52.37852787";"93"
"10/12/2020 12:00:00 AM";"02302";"Fred. Hendrikplants.";"4.87549415";"52.37859198";"71"
"10/12/2020 12:00:00 AM";"02311";"Seineweg";"4.81857317";"52.38632242";"60"
"10/12/2020 12:00:00 AM";"02312";"Seineweg";"4.81892292";"52.38653981";"33"
"10/12/2020 12:00:00 AM";"02316";"Naritaweg";"4.82188824";"52.38783925";"10"
"10/12/2020 12:00:00 AM";"02317";"Naritaweg";"4.82102069";"52.38790700";"52"
"10/12/2020 12:00:00 AM";"02319";"Solebaystraat";"4.85540788";"52.38431853";"157"
"10/12/2020 12:00:00 AM";"02320";"Van Hallstraat";"4.86782303";"52.38527240";"76"
"10/12/2020 12:00:00 AM";"02321";"Van Hallstraat";"4.86864429";"52.38538386";"206"
"10/12/2020 12:00:00 AM";"02332";"Bornhout";"4.79331411";"52.39573444";"13"
"10/12/2020 12:00:00 AM";"02333";"Herwijk";"4.78729047";"52.39572206";"33"
"10/12/2020 12:00:00 AM";"02360";"Station Sloterdijk";"4.83827278";"52.38856344";"53"
"10/12/2020 12:00:00 AM";"02361";"Station Sloterdijk";"4.83931858";"52.38833460";"710"
"10/12/2020 12:00:00 AM";"02365";"Station Sloterdijk";"4.83873236";"52.38822404";"182"
"10/12/2020 12:00:00 AM";"02366";"Station Sloterdijk";"4.83873347";"52.38813416";"142"
"10/12/2020 12:00:00 AM";"02367";"Station Sloterdijk";"4.83876429";"52.38801747";"181"
"10/12/2020 12:00:00 AM";"02368";"Station Sloterdijk";"4.83877999";"52.38793665";"146"
"10/12/2020 12:00:00 AM";"02370";"Station Sloterdijk";"4.83879745";"52.38771204";"448"
"10/12/2020 12:00:00 AM";"02371";"Station Sloterdijk";"4.83882961";"52.38748749";"33"
"10/12/2020 12:00:00 AM";"03009";"Witte de Withstraat";"4.85851970";"52.36478416";"349"
"10/12/2020 12:00:00 AM";"03010";"Witte de Withstraat";"4.85928290";"52.36480554";"234"
"10/12/2020 12:00:00 AM";"03012";"Hoofdweg";"4.85237353";"52.36432514";"111"
"10/12/2020 12:00:00 AM";"03022";"Mercatorplein";"4.85070310";"52.37012367";"243"
"10/12/2020 12:00:00 AM";"03023";"Marco Polostraat";"4.85520189";"52.37088096";"117"
"10/12/2020 12:00:00 AM";"03024";"Marco Polostraat";"4.85546532";"52.37095405";"205"
"10/12/2020 12:00:00 AM";"03025";"Jan v.Galenstraat";"4.84854861";"52.37342137";"178"
"10/12/2020 12:00:00 AM";"03028";"Jan van Galenstraat";"4.84921138";"52.37204926";"138"
"10/12/2020 12:00:00 AM";"03034";"Erasmusgracht";"4.84691117";"52.37644278";"319"
"10/12/2020 12:00:00 AM";"03052";"Burg. Eliasstraat";"4.82565009";"52.38077481";"597"
"10/12/2020 12:00:00 AM";"03055";"Burg. Fockstraat";"4.83108040";"52.37991964";"106"
"10/12/2020 12:00:00 AM";"03057";"Anth. Moddermanstraat";"4.81474778";"52.38339197";"98"
"10/12/2020 12:00:00 AM";"03061";"Bos en Lommerplein";"4.84523530";"52.37778328";"332"
"10/12/2020 12:00:00 AM";"03076";"Jan Tooropstraat";"4.83810313";"52.37142305";"173"
"10/12/2020 12:00:00 AM";"03077";"Jan Tooropstraat";"4.83817288";"52.37171997";"71"
"10/12/2020 12:00:00 AM";"03087";"Plein '40 - '45";"4.82063128";"52.38159575";"313"
"10/12/2020 12:00:00 AM";"03090";"Slotermeerlaan";"4.81728149";"52.37596234";"448"
"10/12/2020 12:00:00 AM";"03091";"Slotermeerlaan";"4.82076888";"52.37542183";"72"
"10/12/2020 12:00:00 AM";"03095";"Burg. v. Leeuwenlaan";"4.81373644";"52.37641258";"18"
"10/12/2020 12:00:00 AM";"03096";"Burg. v. Leeuwenlaan";"4.81325381";"52.37625745";"23"
"10/12/2020 12:00:00 AM";"03097";"Burg. v. Leeuwenlaan";"4.81182601";"52.37651117";"267"
"10/12/2020 12:00:00 AM";"03098";"Burg. v. Leeuwenlaan";"4.81209115";"52.37644954";"49"
"10/12/2020 12:00:00 AM";"03099";"Dr. H. Colijnstraat";"4.80672448";"52.37693566";"228"
"10/12/2020 12:00:00 AM";"03100";"Dr. H. Colijnstraat";"4.80626901";"52.37695140";"90"
"10/12/2020 12:00:00 AM";"03101";"Lambertus Zijlplein";"4.80300456";"52.37726788";"343"
"10/12/2020 12:00:00 AM";"03102";"Confuciusplein";"4.81183779";"52.37447101";"56"
"10/12/2020 12:00:00 AM";"03103";"Confuciusplein";"4.81207122";"52.37458898";"33"
"10/12/2020 12:00:00 AM";"03104";"Dr. H. Colijnstraat";"4.80709128";"52.37471748";"12"
"10/12/2020 12:00:00 AM";"03105";"Dr. H. Colijnstraat";"4.80725398";"52.37462840";"16"
"10/12/2020 12:00:00 AM";"03106";"Troelstralaan";"4.80145216";"52.37471668";"47"
"10/12/2020 12:00:00 AM";"03107";"Willinklaan";"4.80029813";"52.37092711";"30"
"10/12/2020 12:00:00 AM";"03108";"Herman Bonpad";"4.80080718";"52.36796367";"48"
"10/12/2020 12:00:00 AM";"03110";"Willinklaan";"4.80042766";"52.37112549";"16"
"10/12/2020 12:00:00 AM";"03111";"Troelstralaan";"4.80203610";"52.37498021";"131"
"10/12/2020 12:00:00 AM";"03113";"Nolensstraat";"4.80099018";"52.37522669";"33"
"10/12/2020 12:00:00 AM";"03114";"De Sav. Lohmanstraat";"4.80079644";"52.37544144";"72"
"10/12/2020 12:00:00 AM";"03115";"Michel de Klerkhof";"4.79770398";"52.37608219";"15"
"10/12/2020 12:00:00 AM";"03116";"Michel de Klerkhof";"4.79756954";"52.37625229";"76"
"10/12/2020 12:00:00 AM";"03117";"Sam van Houtenstraat";"4.79790430";"52.37868964";"148"
"10/12/2020 12:00:00 AM";"03118";"Sam van Houtenstraat";"4.79800745";"52.37976868";"33"
"10/12/2020 12:00:00 AM";"03120";"Osdorper Ban";"4.80532393";"52.36391449";"65"
"10/12/2020 12:00:00 AM";"03121";"Aalbersestraat";"4.79774249";"52.38202329";"266"
"10/12/2020 12:00:00 AM";"03122";"Aalbersestraat";"4.79897224";"52.38232600";"31"
"10/12/2020 12:00:00 AM";"03123";"Dr. H. Colijnstraat";"4.80565355";"52.38244888";"22"
"10/12/2020 12:00:00 AM";"03124";"Osdorper Ban";"4.80589840";"52.36265004";"127"
"10/12/2020 12:00:00 AM";"03125";"Anth. Moddermanstraat";"4.81338292";"52.38330447";"39"
"10/12/2020 12:00:00 AM";"03129";"Plein '40 - '45";"4.82112671";"52.38075328";"535"
"10/12/2020 12:00:00 AM";"03130";"Plein '40 - '45";"4.82267774";"52.38121007";"36"
"10/12/2020 12:00:00 AM";"03132";"Burg. R?ellstraat";"4.81950345";"52.37676393";"63"
"10/12/2020 12:00:00 AM";"03145";"J. Cabeliaustraat";"4.80409638";"52.38246819";"263"
"10/12/2020 12:00:00 AM";"03150";"Mercatorplein";"4.85011339";"52.37031872";"176"
"10/12/2020 12:00:00 AM";"03157";"Lambertus Zijlplein";"4.80338637";"52.37726977";"277"
"10/12/2020 12:00:00 AM";"03162";"Burg.de Vlugtlaan";"4.83818756";"52.37883833";"137"
"10/12/2020 12:00:00 AM";"03164";"Nachtwachtlaan";"4.84311075";"52.36421103";"30"
"10/12/2020 12:00:00 AM";"03166";"Burg.de Vlugtlaan";"4.83871813";"52.37868800";"187"
"10/12/2020 12:00:00 AM";"03167";"Bos en Lommerplein";"4.84650668";"52.37709704";"494"
"10/12/2020 12:00:00 AM";"03168";"Mercatorplein";"4.85152392";"52.37024423";"247"
"10/12/2020 12:00:00 AM";"03169";"Jan v.Galenstraat";"4.83601291";"52.37301316";"67"
"10/12/2020 12:00:00 AM";"03170";"Jan v.Galenstraat";"4.83495277";"52.37324190";"127"
"10/12/2020 12:00:00 AM";"03171";"Burg. Rendorpstraat";"4.82768433";"52.37436719";"130"
"10/12/2020 12:00:00 AM";"03172";"Burg. Rendorpstraat";"4.82691962";"52.37445346";"28"
"10/12/2020 12:00:00 AM";"03174";"Burg. R?ellstraat";"4.81863325";"52.37476448";"158"
"10/12/2020 12:00:00 AM";"03176";"Sloterpark";"4.81890614";"52.37295026";"113"
"10/12/2020 12:00:00 AM";"03178";"Mercatorplein";"4.84991664";"52.37080317";"259"
"10/12/2020 12:00:00 AM";"03179";"Adm. Helfrichstraat";"4.84386882";"52.36944538";"120"
"10/12/2020 12:00:00 AM";"03180";"Adm. Helfrichstraat";"4.84458860";"52.36942172";"70"
"10/12/2020 12:00:00 AM";"03181";"Jan Voermanstraat";"4.83788946";"52.36970540";"170"
"10/12/2020 12:00:00 AM";"03182";"Jan Voermanstraat";"4.83852226";"52.36959149";"68"
"10/12/2020 12:00:00 AM";"03187";"Jan Zwanenburghof";"4.81890955";"52.38299858";"50"
"10/12/2020 12:00:00 AM";"03188";"Jan Zwanenburghof";"4.81875214";"52.38267426";"30"
"10/12/2020 12:00:00 AM";"03197";"W. Schoutenstraat";"4.85238084";"52.36737202";"119"
"10/12/2020 12:00:00 AM";"03198";"W. Schoutenstraat";"4.85259061";"52.36702245";"163"
"10/12/2020 12:00:00 AM";"04001";"Jan Rebelstraat";"4.78308387";"52.36156512";"41"
"10/12/2020 12:00:00 AM";"04008";"Dijkgraafplein";"4.78646982";"52.35545267";"267"
"10/12/2020 12:00:00 AM";"04009";"Dijkgraafplein";"4.78689401";"52.35556268";"278"
"10/12/2020 12:00:00 AM";"04011";"Baden Powellweg";"4.79172542";"52.35650384";"16"
"10/12/2020 12:00:00 AM";"04012";"Baden Powellweg";"4.79137362";"52.35646612";"582"
"10/12/2020 12:00:00 AM";"04013";"Notweg";"4.80031110";"52.36550755";"14"
"10/12/2020 12:00:00 AM";"04015";"Hoekenes";"4.79927973";"52.35802459";"35"
"10/12/2020 12:00:00 AM";"04016";"Hoekenes";"4.79854723";"52.35791310";"388"
"10/12/2020 12:00:00 AM";"04017";"Reimerswaalstraat";"4.79309229";"52.36405147";"30"
"10/12/2020 12:00:00 AM";"04021";"Osdorpplein";"4.80322868";"52.35913166";"749"
"10/12/2020 12:00:00 AM";"04022";"Osdorpplein";"4.80322217";"52.35962596";"105"
"10/12/2020 12:00:00 AM";"04042";"Ruimzicht";"4.80758369";"52.35951258";"16"
"10/12/2020 12:00:00 AM";"04043";"Ruimzicht";"4.80749209";"52.35978176";"494"
"10/12/2020 12:00:00 AM";"04049";"Meer en Vaart";"4.81058859";"52.35647140";"143"
"10/12/2020 12:00:00 AM";"04050";"Meer en Vaart";"4.80994403";"52.35636940";"617"
"10/12/2020 12:00:00 AM";"04060";"Derkinderenstraat";"4.83972293";"52.35796689";"180"
"10/12/2020 12:00:00 AM";"04061";"Derkinderenstraat";"4.84014895";"52.35794190";"105"
"10/12/2020 12:00:00 AM";"04062";"Johan Huizingalaan";"4.82582327";"52.35781191";"303"
"10/12/2020 12:00:00 AM";"04063";"Johan Huizingalaan";"4.82626398";"52.35778704";"174"
"10/12/2020 12:00:00 AM";"04064";"Ruimzicht";"4.80806527";"52.35860717";"172"
"10/12/2020 12:00:00 AM";"04065";"Ruimzicht";"4.80773259";"52.35935153";"68"
"10/12/2020 12:00:00 AM";"04088";"Louwesweg";"4.82436420";"52.34669608";"176"
"10/12/2020 12:00:00 AM";"04089";"Louwesweg";"4.82514186";"52.34670876";"25"
"10/12/2020 12:00:00 AM";"04091";"Louweshoek";"4.82312162";"52.34631267";"25"
"10/12/2020 12:00:00 AM";"04098";"Maassluisstraat";"4.83833184";"52.34700435";"12"
"10/12/2020 12:00:00 AM";"04099";"Maassluisstraat";"4.83897799";"52.34697139";"16"
"10/12/2020 12:00:00 AM";"04101";"Naaldwijkstraat";"4.84258985";"52.34684426";"17"
"10/12/2020 12:00:00 AM";"04102";"Aalsmeerplein";"4.84680029";"52.34697142";"18"
"10/12/2020 12:00:00 AM";"04103";"Aalsmeerplein";"4.84638971";"52.34694258";"14"
"10/12/2020 12:00:00 AM";"04105";"Hoofddorpplein";"4.84942643";"52.35067736";"20"
"10/12/2020 12:00:00 AM";"04109";"Westlandgracht";"4.84504134";"52.35160107";"64"
"10/12/2020 12:00:00 AM";"04110";"Westlandgracht";"4.84581964";"52.35156868";"51"
"10/12/2020 12:00:00 AM";"04111";"Delflandlaan";"4.84191575";"52.35154177";"48"
"10/12/2020 12:00:00 AM";"04112";"Johan Huizingalaan";"4.82742878";"52.34923618";"216"
"10/12/2020 12:00:00 AM";"04113";"Johan Huizingalaan";"4.82750420";"52.34907476";"25"
"10/12/2020 12:00:00 AM";"04114";"Heemstedestraat";"4.83372606";"52.35151274";"100"
"10/12/2020 12:00:00 AM";"04116";"Heemstedestraat";"4.83416670";"52.35148784";"17"
"10/12/2020 12:00:00 AM";"04120";"Delflandlaan";"4.83969924";"52.35155850";"148"
"10/12/2020 12:00:00 AM";"04123";"Station Lelylaan";"4.83455700";"52.35668460";"41"
"10/12/2020 12:00:00 AM";"04124";"Station Lelylaan";"4.83471835";"52.35669434";"29"
"10/12/2020 12:00:00 AM";"04129";"Derkinderenstraat";"4.83926482";"52.36415734";"66"
"10/12/2020 12:00:00 AM";"04130";"Derkinderenstraat";"4.83963295";"52.36406917";"11"
"10/12/2020 12:00:00 AM";"04131";"Jan Tooropstraat";"4.83575744";"52.36403320";"23"
"10/12/2020 12:00:00 AM";"04132";"Jan Tooropstraat";"4.83537474";"52.36411231";"34"
"10/12/2020 12:00:00 AM";"04133";"Robert Fruinlaan";"4.82910660";"52.36403799";"24"
"10/12/2020 12:00:00 AM";"04134";"Robert Fruinlaan";"4.83010557";"52.36398877";"10"
"10/12/2020 12:00:00 AM";"04135";"Justus Lipsiusstraat";"4.82725922";"52.36151269";"17"
"10/12/2020 12:00:00 AM";"04136";"Justus Lipsiusstraat";"4.82704776";"52.36081963";"23"
"10/12/2020 12:00:00 AM";"04138";"Cornelis Lelylaan";"4.82677966";"52.35763669";"36"
"10/12/2020 12:00:00 AM";"04140";"Sierplein";"4.82732630";"52.35503282";"61"
"10/12/2020 12:00:00 AM";"04141";"Sierplein";"4.82738648";"52.35491626";"42"
"10/12/2020 12:00:00 AM";"04148";"Louis Davidsstraat";"4.80952552";"52.35356316";"35"
"10/12/2020 12:00:00 AM";"04149";"Louis Davidsstraat";"4.80959575";"52.35380618";"32"
"10/12/2020 12:00:00 AM";"04159";"M. Bauerstraat";"4.84043790";"52.36308424";"21"
"10/12/2020 12:00:00 AM";"04160";"M. Bauerstraat";"4.84056537";"52.36346231";"15"
"10/12/2020 12:00:00 AM";"04161";"J. Jongkindstraat";"4.84053365";"52.35888739";"15"
"10/12/2020 12:00:00 AM";"04162";"J. Jongkindstraat";"4.84070858";"52.35898707";"10"
"10/12/2020 12:00:00 AM";"04195";"Station Lelylaan";"4.83460082";"52.35788018";"582"
"10/12/2020 12:00:00 AM";"04196";"Station Lelylaan";"4.83382251";"52.35790351";"750"
"10/12/2020 12:00:00 AM";"04215";"Griendstraat";"4.77991921";"52.35895146";"17"
"10/12/2020 12:00:00 AM";"04235";"Maaseikpad";"4.81592153";"52.34814760";"20"
"10/12/2020 12:00:00 AM";"04267";"Schiphol Airport/Plaza";"4.76139455";"52.30887344";"257"
"10/12/2020 12:00:00 AM";"04268";"Vrachtgebouw";"4.75383146";"52.30452797";"13"
"10/12/2020 12:00:00 AM";"04274";"Schiphol Airport/Plaza";"4.76104997";"52.30939292";"15"
"10/12/2020 12:00:00 AM";"04277";"Laan v.Vlaanderen";"4.81642720";"52.34648730";"209"
"10/12/2020 12:00:00 AM";"04278";"Kasterleepark";"4.81061791";"52.34630634";"24"
"10/12/2020 12:00:00 AM";"04279";"Kasterleepark";"4.81104243";"52.34638930";"308"
"10/12/2020 12:00:00 AM";"04300";"Knooppunt Schiphol Nrd";"4.79292928";"52.32250892";"12"
"10/12/2020 12:00:00 AM";"04302";"Antwerpenbaan";"4.81675341";"52.34622822";"11"
"10/12/2020 12:00:00 AM";"04304";"Cateringweg";"4.80023647";"52.32342621";"10"
"10/12/2020 12:00:00 AM";"04308";"Antwerpenbaan";"4.81624221";"52.34603701";"12"
"10/12/2020 12:00:00 AM";"04313";"Hageland";"4.81136124";"52.34444050";"40"
"10/12/2020 12:00:00 AM";"04314";"Oudenaardeplantsoen";"4.80382615";"52.34495185";"96"
"10/12/2020 12:00:00 AM";"04316";"Hageland";"4.81229398";"52.34493936";"48"
"10/12/2020 12:00:00 AM";"04340";"Oudenaardeplantsoen";"4.80416259";"52.34503440";"102"
"10/12/2020 12:00:00 AM";"04379";"Knooppunt Schiphol Nrd";"4.79320459";"52.32276196";"167"
"10/12/2020 12:00:00 AM";"04380";"Knooppunt Schiphol Nrd";"4.79349793";"52.32276343";"18"
"10/12/2020 12:00:00 AM";"04401";"Matterhorn";"4.77438097";"52.35391670";"88"
"10/12/2020 12:00:00 AM";"04402";"Matterhorn";"4.77477998";"52.35372103";"83"
"10/12/2020 12:00:00 AM";"04403";"Pilatus";"4.77696371";"52.35289644";"170"
"10/12/2020 12:00:00 AM";"04405";"Inaristraat";"4.78342793";"52.35030515";"203"
"10/12/2020 12:00:00 AM";"04406";"Inaristraat";"4.78314823";"52.35036664";"10"
"10/12/2020 12:00:00 AM";"04407";"Ecuplein";"4.78817670";"52.34970912";"347"
"10/12/2020 12:00:00 AM";"04408";"Ecuplein";"4.78886514";"52.34981147";"25"
"10/12/2020 12:00:00 AM";"04409";"Baden Powellweg";"4.79441281";"52.35092691";"472"
"10/12/2020 12:00:00 AM";"04410";"Baden Powellweg";"4.79518898";"52.35105663";"41"
"10/12/2020 12:00:00 AM";"04411";"Hoekenes";"4.80183430";"52.35243785";"352"
"10/12/2020 12:00:00 AM";"04412";"Hoekenes";"4.80261063";"52.35255853";"36"
"10/12/2020 12:00:00 AM";"04413";"Louis Davidsstraat";"4.80850916";"52.35383682";"183"
"10/12/2020 12:00:00 AM";"04414";"Louis Davidsstraat";"4.80910976";"52.35392963";"30"
"10/12/2020 12:00:00 AM";"04416";"Matterhorn";"4.77457964";"52.35441206";"10"
"10/12/2020 12:00:00 AM";"05011";"Centraal Station";"4.89921803";"52.37810793";"3430"
"10/12/2020 12:00:00 AM";"05022";"Centraal Station";"4.90104337";"52.37771998";"2270"
"10/12/2020 12:00:00 AM";"05031";"Dam";"4.89348394";"52.37341055";"333"
"10/12/2020 12:00:00 AM";"05032";"Dam";"4.89549360";"52.37492885";"498"
"10/12/2020 12:00:00 AM";"05035";"Rokin";"4.89210433";"52.36939627";"160"
"10/12/2020 12:00:00 AM";"05036";"Rokin";"4.89230478";"52.36985548";"419"
"10/12/2020 12:00:00 AM";"05046";"Rembrandtplein";"4.89627976";"52.36625897";"300"
"10/12/2020 12:00:00 AM";"05047";"Rembrandtplein";"4.89702882";"52.36623511";"405"
"10/12/2020 12:00:00 AM";"05048";"Mr. Visserplein";"4.90611633";"52.36766548";"55"
"10/12/2020 12:00:00 AM";"05052";"Waterlooplein";"4.90234715";"52.36727262";"81"
"10/12/2020 12:00:00 AM";"05053";"Waterlooplein";"4.90195418";"52.36695644";"71"
"10/12/2020 12:00:00 AM";"05056";"Mr. Visserplein";"4.90539389";"52.36794116";"64"
"10/12/2020 12:00:00 AM";"05061";"Spui";"4.88932991";"52.36933071";"198"
"10/12/2020 12:00:00 AM";"05062";"Spui";"4.88925912";"52.36909673";"164"
"10/12/2020 12:00:00 AM";"05063";"Dam";"4.89064590";"52.37244599";"539"
"10/12/2020 12:00:00 AM";"05065";"Dam";"4.89079364";"52.37367792";"349"
"10/12/2020 12:00:00 AM";"05066";"Dam";"4.89027056";"52.37318140";"1191"
"10/12/2020 12:00:00 AM";"05069";"Nieuwezijds Kolk";"4.89373093";"52.37628765";"711"
"10/12/2020 12:00:00 AM";"05070";"Nieuwezijds Kolk";"4.89284106";"52.37575366";"148"
"10/12/2020 12:00:00 AM";"05073";"Westermarkt";"4.88453426";"52.37400204";"339"
"10/12/2020 12:00:00 AM";"05074";"Westermarkt";"4.88354950";"52.37407874";"527"
"10/12/2020 12:00:00 AM";"05077";"Marnixstraat";"4.87615428";"52.37228546";"314"
"10/12/2020 12:00:00 AM";"05079";"Buiten Oranjestraat";"4.88805879";"52.38312149";"81"
"10/12/2020 12:00:00 AM";"05080";"Buiten Oranjestraat";"4.88782167";"52.38330923";"208"
"10/12/2020 12:00:00 AM";"05081";"Buiten Brouwersstraat";"4.89157253";"52.38150947";"75"
"10/12/2020 12:00:00 AM";"05082";"Buiten Brouwersstraat";"4.89129168";"52.38167008";"114"
"10/12/2020 12:00:00 AM";"05090";"Westerdoksdijk";"4.89331977";"52.38551629";"72"
"10/12/2020 12:00:00 AM";"05092";"Barentszplein";"4.89160204";"52.38938281";"117"
"10/12/2020 12:00:00 AM";"05096";"Centraal Station";"4.90049319";"52.37967703";"15"
"10/12/2020 12:00:00 AM";"05097";"Centraal Station";"4.90087651";"52.37954379";"591"
"10/12/2020 12:00:00 AM";"05103";"Centraal Station";"4.90127481";"52.37938365";"391"
"10/12/2020 12:00:00 AM";"05104";"Centraal Station";"4.90164343";"52.37925034";"287"
"10/12/2020 12:00:00 AM";"05105";"Centraal Station";"4.90187762";"52.37932321";"260"
"10/12/2020 12:00:00 AM";"05106";"Centraal Station";"4.90229030";"52.37919008";"171"
"10/12/2020 12:00:00 AM";"05107";"Centraal Station";"4.90195282";"52.37916174";"160"
"10/12/2020 12:00:00 AM";"05154";"Marnixstraat";"4.87536375";"52.37207533";"142"
"10/12/2020 12:00:00 AM";"06001";"Surinameplein";"4.85252231";"52.35807034";"361"
"10/12/2020 12:00:00 AM";"06002";"Surinameplein";"4.85090753";"52.35807202";"299"
"10/12/2020 12:00:00 AM";"06006";"Hoofdweg";"4.85329067";"52.35887372";"86"
"10/12/2020 12:00:00 AM";"06007";"Hoofdweg";"4.85337269";"52.35937740";"20"
"10/12/2020 12:00:00 AM";"06011";"Surinameplein";"4.85039203";"52.35700014";"33"
"10/12/2020 12:00:00 AM";"06012";"Surinameplein";"4.85021535";"52.35704428";"33"
"10/12/2020 12:00:00 AM";"06015";"Postjesweg";"4.85316124";"52.36352879";"149"
"10/12/2020 12:00:00 AM";"06016";"J.P. Heijestraat";"4.86239635";"52.36472951";"281"
"10/12/2020 12:00:00 AM";"06017";"J.P. Heijestraat";"4.86292316";"52.36487565";"390"
"10/12/2020 12:00:00 AM";"06019";"Ten Katestraat";"4.86737423";"52.36591988";"366"
"10/12/2020 12:00:00 AM";"06020";"Ten Katestraat";"4.86773990";"52.36603832";"550"
"10/12/2020 12:00:00 AM";"06021";"Bilderdijkstraat";"4.87176488";"52.36712545";"215"
"10/12/2020 12:00:00 AM";"06023";"Bilderdijkstraat";"4.87254032";"52.36736251";"310"
"10/12/2020 12:00:00 AM";"06024";"Kinkerstraat";"4.87230885";"52.36706491";"250"
"10/12/2020 12:00:00 AM";"06025";"Kinkerstraat";"4.87201094";"52.36743211";"118"
"10/12/2020 12:00:00 AM";"06027";"Elandsgracht";"4.87855189";"52.36808953";"279"
"10/12/2020 12:00:00 AM";"06028";"Elandsgracht";"4.87741694";"52.36974738";"388"
"10/12/2020 12:00:00 AM";"06029";"Elandsgracht";"4.87684368";"52.36852258";"319"
"10/12/2020 12:00:00 AM";"06030";"Rozengracht";"4.87590932";"52.37187996";"310"
"10/12/2020 12:00:00 AM";"06034";"Bilderdijkstraat";"4.87082347";"52.37105798";"304"
"10/12/2020 12:00:00 AM";"06037";"Bilderdijkstraat";"4.86985701";"52.37082906";"311"
"10/12/2020 12:00:00 AM";"06038";"De Clercqstraat";"4.87040279";"52.37061574";"160"
"10/12/2020 12:00:00 AM";"06043";"Overtoom";"4.87510145";"52.36299659";"115"
"10/12/2020 12:00:00 AM";"06044";"Overtoom";"4.87483191";"52.36345380";"194"
"10/12/2020 12:00:00 AM";"06045";"1e Con. Huygensstraat";"4.87399228";"52.36242556";"206"
"10/12/2020 12:00:00 AM";"06046";"1e Con. Huygensstraat";"4.87487082";"52.36262709";"218"
"10/12/2020 12:00:00 AM";"06048";"J.P. Heijestraat";"4.86585368";"52.36037674";"296"
"10/12/2020 12:00:00 AM";"06049";"J.P. Heijestraat";"4.86671778";"52.36055131";"184"
"10/12/2020 12:00:00 AM";"06059";"Spiegelgracht";"4.88762090";"52.36071327";"166"
"10/12/2020 12:00:00 AM";"06061";"Leidseplein";"4.88339576";"52.36305015";"664"
"10/12/2020 12:00:00 AM";"06063";"Leidseplein";"4.88064547";"52.36476406";"555"
"10/12/2020 12:00:00 AM";"06067";"Leidseplein";"4.88301434";"52.36431580";"225"
"10/12/2020 12:00:00 AM";"06071";"Prinsengracht";"4.88464985";"52.36509570";"62"
"10/12/2020 12:00:00 AM";"06072";"Prinsengracht";"4.88428435";"52.36495933";"261"
"10/12/2020 12:00:00 AM";"06073";"Keizersgracht";"4.88666521";"52.36604795";"79"
"10/12/2020 12:00:00 AM";"06074";"Keizersgracht";"4.88624128";"52.36588437";"167"
"10/12/2020 12:00:00 AM";"06075";"Koningsplein";"4.88942793";"52.36713812";"358"
"10/12/2020 12:00:00 AM";"06076";"Koningsplein";"4.88857910";"52.36689188";"297"
"10/12/2020 12:00:00 AM";"06081";"Rhijnvis Feithstraat";"4.86039355";"52.35905833";"200"
"10/12/2020 12:00:00 AM";"06082";"Rhijnvis Feithstraat";"4.85967683";"52.35883943";"170"
"10/12/2020 12:00:00 AM";"06089";"Leidseplein";"4.88085541";"52.36309324";"823"
"10/12/2020 12:00:00 AM";"06114";"Hoofdweg";"4.85444451";"52.36425359";"288"
"10/12/2020 12:00:00 AM";"06115";"Postjesweg";"4.85319014";"52.36478720";"218"
"10/12/2020 12:00:00 AM";"07002";"Van Baerlestraat";"4.87836936";"52.35839997";"83"
"10/12/2020 12:00:00 AM";"07003";"Van Baerlestraat";"4.87808541";"52.35883915";"72"
"10/12/2020 12:00:00 AM";"07004";"De Boelelaan/VU";"4.86586883";"52.33534587";"37"
"10/12/2020 12:00:00 AM";"07005";"De Boelelaan/VU";"4.86720539";"52.33522592";"59"
"10/12/2020 12:00:00 AM";"07006";"Museumplein";"4.87980116";"52.35642881";"247"
"10/12/2020 12:00:00 AM";"07007";"Museumplein";"4.87950215";"52.35690388";"628"
"10/12/2020 12:00:00 AM";"07012";"Amstelpark";"4.89020661";"52.33170268";"16"
"10/12/2020 12:00:00 AM";"07013";"Amstelpark";"4.88972290";"52.33166470";"35"
"10/12/2020 12:00:00 AM";"07014";"Kastelenstraat";"4.87944660";"52.32583291";"54"
"10/12/2020 12:00:00 AM";"07015";"Roelof Hartplein";"4.88206971";"52.35314900";"179"
"10/12/2020 12:00:00 AM";"07016";"Roelof Hartplein";"4.88286688";"52.35274795";"229"
"10/12/2020 12:00:00 AM";"07017";"Roelof Hartplein";"4.88206086";"52.35263666";"161"
"10/12/2020 12:00:00 AM";"07021";"Kastelenstraat";"4.87955984";"52.32619291";"52"
"10/12/2020 12:00:00 AM";"07027";"Corn. Schuytstraat";"4.87051458";"52.35597520";"187"
"10/12/2020 12:00:00 AM";"07028";"Corn. Schuytstraat";"4.87088070";"52.35604870";"71"
"10/12/2020 12:00:00 AM";"07031";"Valeriusplein";"4.86374943";"52.35333004";"195"
"10/12/2020 12:00:00 AM";"07032";"Valeriusplein";"4.86326678";"52.35318410";"69"
"10/12/2020 12:00:00 AM";"07033";"Amstelveenseweg";"4.85695925";"52.35161911";"246"
"10/12/2020 12:00:00 AM";"07034";"Amstelveenseweg";"4.85596467";"52.35132704";"97"
"10/12/2020 12:00:00 AM";"07035";"Zeilstraat";"4.85672894";"52.35124059";"108"
"10/12/2020 12:00:00 AM";"07044";"Haarlemmermeerstraat";"4.85044107";"52.35537358";"48"
"10/12/2020 12:00:00 AM";"07045";"Haarlemmermeerstraat";"4.85023862";"52.35512100";"52"
"10/12/2020 12:00:00 AM";"07046";"Hoofddorpplein";"4.85048172";"52.35201234";"101"
"10/12/2020 12:00:00 AM";"07048";"Hoofddorpplein";"4.85010578";"52.35154327";"238"
"10/12/2020 12:00:00 AM";"07049";"Hoofddorpplein";"4.84958188";"52.35117239";"212"
"10/12/2020 12:00:00 AM";"07050";"Haarlemmermeerstation";"4.85744749";"52.34883508";"154"
"10/12/2020 12:00:00 AM";"07083";"Gerrit v.d. Veenstraat";"4.87735929";"52.34921014";"142"
"10/12/2020 12:00:00 AM";"07084";"Gerrit v.d. Veenstraat";"4.87720177";"52.34886793";"136"
"10/12/2020 12:00:00 AM";"07087";"Stadionweg";"4.87688397";"52.34714989";"88"
"10/12/2020 12:00:00 AM";"07088";"Stadionweg";"4.87687497";"52.34665553";"80"
"10/12/2020 12:00:00 AM";"07091";"Minervaplein";"4.87299918";"52.34677357";"43"
"10/12/2020 12:00:00 AM";"07094";"Minervaplein";"4.87204613";"52.34669752";"29"
"10/12/2020 12:00:00 AM";"07097";"Olympiaplein";"4.86582821";"52.34630180";"243"
"10/12/2020 12:00:00 AM";"07098";"Olympiaplein";"4.86659057";"52.34636807";"114"
"10/12/2020 12:00:00 AM";"07108";"Olympiaweg";"4.85873730";"52.34528169";"96"
"10/12/2020 12:00:00 AM";"07116";"Haarl'meerstation";"4.85760410";"52.34924023";"104"
"10/12/2020 12:00:00 AM";"07120";"Olympiaweg";"4.85834130";"52.34526195";"189"
"10/12/2020 12:00:00 AM";"07121";"Olympisch stadion";"4.85696449";"52.34380875";"71"
"10/12/2020 12:00:00 AM";"07130";"Pr. Irenestraat";"4.86819699";"52.34202504";"29"
"10/12/2020 12:00:00 AM";"07131";"Pr. Irenestraat";"4.86833196";"52.34303226";"16"
"10/12/2020 12:00:00 AM";"07133";"De Boelelaan";"4.86754589";"52.33496677";"42"
"10/12/2020 12:00:00 AM";"07138";"De Boelelaan/VU";"4.86910356";"52.33475789";"75"
"10/12/2020 12:00:00 AM";"07139";"De Boelelaan/VU";"4.86860789";"52.33448609";"24"
"10/12/2020 12:00:00 AM";"07150";"Europaboulevard";"4.88974083";"52.33399261";"16"
"10/12/2020 12:00:00 AM";"07157";"Van Heenvlietlaan";"4.88302129";"52.32494043";"77"
"10/12/2020 12:00:00 AM";"07158";"Van Heenvlietlaan";"4.88334490";"52.32486092";"25"
"10/12/2020 12:00:00 AM";"07186";"Pr. Irenestraat";"4.87677483";"52.34260161";"35"
"10/12/2020 12:00:00 AM";"07187";"Pr. Irenestraat";"4.87678341";"52.34313193";"33"
"10/12/2020 12:00:00 AM";"07190";"Station Zuid";"4.87352214";"52.34089784";"157"
"10/12/2020 12:00:00 AM";"07191";"Station Zuid";"4.87340673";"52.34072657";"66"
"10/12/2020 12:00:00 AM";"07193";"Station Zuid";"4.87334616";"52.34088808";"243"
"10/12/2020 12:00:00 AM";"07195";"Oranjebaan";"4.87311228";"52.30278774";"101"
"10/12/2020 12:00:00 AM";"07198";"Oranjebaan";"4.87333874";"52.30348977";"79"
"10/12/2020 12:00:00 AM";"07202";"Olympisch stadion";"4.85684420";"52.34405088";"153"
"10/12/2020 12:00:00 AM";"07205";"IJsbaanpad";"4.85773817";"52.34169110";"17"
"10/12/2020 12:00:00 AM";"07207";"IJsbaanpad";"4.85756146";"52.34051291";"43"
"10/12/2020 12:00:00 AM";"07248";"Hogewerf";"4.87893582";"52.33457584";"19"
"10/12/2020 12:00:00 AM";"07258";"Drentepark";"4.88936495";"52.33611215";"93"
"10/12/2020 12:00:00 AM";"07260";"Station RAI";"4.89077724";"52.33708876";"65"
"10/12/2020 12:00:00 AM";"07261";"Station RAI";"4.89069063";"52.33696257";"10"
"10/12/2020 12:00:00 AM";"07266";"Station Zuid";"4.87252654";"52.34070477";"243"
"10/12/2020 12:00:00 AM";"07268";"Station Zuid";"4.87428608";"52.34082026";"143"
"10/12/2020 12:00:00 AM";"07269";"Station Zuid";"4.87374306";"52.34082689";"385"
"10/12/2020 12:00:00 AM";"07270";"Parnassusweg";"4.86874218";"52.33806382";"175"
"10/12/2020 12:00:00 AM";"07271";"Parnassusweg";"4.86866745";"52.33818033";"59"
"10/12/2020 12:00:00 AM";"07299";"Gelderlandplein Oost";"4.87959341";"52.33095658";"67"
"10/12/2020 12:00:00 AM";"07300";"Gelderlandplein Oost";"4.87937562";"52.33075792";"65"
"10/12/2020 12:00:00 AM";"07303";"VU medisch centrum";"4.86097062";"52.33515342";"228"
"10/12/2020 12:00:00 AM";"07307";"Beethovenstraat";"4.87820649";"52.34700280";"44"
"10/12/2020 12:00:00 AM";"07308";"Beethovenstraat";"4.87632951";"52.34686888";"23"
"10/12/2020 12:00:00 AM";"07309";"Apollolaan";"4.88187688";"52.34816896";"29"
"10/12/2020 12:00:00 AM";"07310";"Apollolaan";"4.88211179";"52.34816097";"20"
"10/12/2020 12:00:00 AM";"07321";"Van Baerlestraat";"4.87895796";"52.35827667";"259"
"10/12/2020 12:00:00 AM";"07322";"Van Baerlestraat";"4.87971942";"52.35844171";"333"
"10/12/2020 12:00:00 AM";"07323";"Rijksmuseum";"4.88355043";"52.35977029";"479"
"10/12/2020 12:00:00 AM";"07324";"Rijksmuseum";"4.88332565";"52.36017378";"184"
"10/12/2020 12:00:00 AM";"07339";"Nieuw Herlaer";"4.88985946";"52.32602094";"53"
"10/12/2020 12:00:00 AM";"07340";"Nieuw Herlaer";"4.89031538";"52.32591500";"25"
"10/12/2020 12:00:00 AM";"07350";"VU medisch centrum";"4.86006046";"52.33519431";"38"
"10/12/2020 12:00:00 AM";"07390";"Kronenburg";"4.87055248";"52.31615048";"28"
"10/12/2020 12:00:00 AM";"07391";"Kronenburg";"4.87070592";"52.31556694";"238"
"10/12/2020 12:00:00 AM";"07418";"Van Boshuizenstraat";"4.86902148";"52.32544617";"63"
"10/12/2020 12:00:00 AM";"07419";"Van Boshuizenstraat";"4.86896941";"52.32487971";"357"
"10/12/2020 12:00:00 AM";"07422";"Uilenstede";"4.86917604";"52.32225618";"60"
"10/12/2020 12:00:00 AM";"07423";"Uilenstede";"4.86910951";"52.32167168";"481"
"10/12/2020 12:00:00 AM";"07434";"Onderuit";"4.87257685";"52.30851066";"20"
"10/12/2020 12:00:00 AM";"07435";"Onderuit";"4.87243689";"52.30793483";"170"
"10/12/2020 12:00:00 AM";"07439";"Oranjebaan";"4.87179001";"52.30302465";"151"
"10/12/2020 12:00:00 AM";"07442";"Zonnestein";"4.87236664";"52.31146674";"182"
"10/12/2020 12:00:00 AM";"07443";"Zonnestein";"4.87228656";"52.31205060";"39"
"10/12/2020 12:00:00 AM";"07445";"Amstelveen Stadshart";"4.86751502";"52.30124433";"358"
"10/12/2020 12:00:00 AM";"07448";"A.J. Ernststraat";"4.86887597";"52.33288743";"125"
"10/12/2020 12:00:00 AM";"07449";"A.J. Ernststraat";"4.86879476";"52.33230287";"231"
"10/12/2020 12:00:00 AM";"07493";"Amstelveenseweg";"4.85724983";"52.33834546";"17"
"10/12/2020 12:00:00 AM";"07504";"Langerhuize";"4.87793694";"52.29501614";"50"
"10/12/2020 12:00:00 AM";"07505";"Ziekenhuis";"4.87154263";"52.29401774";"212"
"10/12/2020 12:00:00 AM";"07506";"Groenhof";"4.86811736";"52.28858308";"246"
"10/12/2020 12:00:00 AM";"07507";"Seine";"4.86638145";"52.28412644";"125"
"10/12/2020 12:00:00 AM";"07508";"Logger";"4.85945875";"52.28334975";"76"
"10/12/2020 12:00:00 AM";"07509";"Praam";"4.85570317";"52.27999842";"113"
"10/12/2020 12:00:00 AM";"07511";"Middenhoven / Brink";"4.85124160";"52.28056249";"113"
"10/12/2020 12:00:00 AM";"07512";"De Eindhoeve";"4.84604746";"52.27990069";"29"
"10/12/2020 12:00:00 AM";"07513";"Sacharovlaan";"4.83264484";"52.28179795";"157"
"10/12/2020 12:00:00 AM";"07518";"Seine";"4.86664439";"52.28419950";"17"
"10/12/2020 12:00:00 AM";"07520";"Groenhof";"4.86835403";"52.28965367";"36"
"10/12/2020 12:00:00 AM";"07521";"Ziekenhuis";"4.87192175";"52.29419017";"25"
"10/12/2020 12:00:00 AM";"07522";"Langerhuize";"4.87869772";"52.29514525";"44"
"10/12/2020 12:00:00 AM";"07523";"Zagerij";"4.84179654";"52.28120238";"46"
"10/12/2020 12:00:00 AM";"08007";"Bob Haarmslaan";"4.96921237";"52.36876786";"115"
"10/12/2020 12:00:00 AM";"08008";"Wittenburgergracht";"4.91947244";"52.36955249";"33"
"10/12/2020 12:00:00 AM";"08009";"Bob Haarmslaan";"4.96859205";"52.36915214";"51"
"10/12/2020 12:00:00 AM";"08011";"C. van Eesterenlaan";"4.93855181";"52.37334722";"76"
"10/12/2020 12:00:00 AM";"08012";"C. van Eesterenlaan";"4.93885799";"52.37356409";"72"
"10/12/2020 12:00:00 AM";"08013";"Azartplein";"4.93734445";"52.37656023";"134"
"10/12/2020 12:00:00 AM";"08014";"Azartplein";"4.93735640";"52.37682991";"142"
"10/12/2020 12:00:00 AM";"08015";"Kattenburgerplein";"4.91617195";"52.37062692";"35"
"10/12/2020 12:00:00 AM";"08016";"Wittenburgergracht";"4.91969400";"52.36942754";"97"
"10/12/2020 12:00:00 AM";"08025";"Kattenburgerplein";"4.91596457";"52.37079686";"19"
"10/12/2020 12:00:00 AM";"08027";"Kadijksplein";"4.91357159";"52.37075136";"138"
"10/12/2020 12:00:00 AM";"08028";"Kadijksplein";"4.91327534";"52.37099284";"44"
"10/12/2020 12:00:00 AM";"08031";"Prins Hendrikkade";"4.90455922";"52.37448081";"18"
"10/12/2020 12:00:00 AM";"08034";"P. Hendrikkade (uitstaphalte)";"4.90238928";"52.37685369";"181"
"10/12/2020 12:00:00 AM";"08041";"Kattenburgerstraat";"4.91934651";"52.37313808";"48"
"10/12/2020 12:00:00 AM";"08042";"Artis";"4.91080977";"52.36676771";"59"
"10/12/2020 12:00:00 AM";"08043";"Artis";"4.91141423";"52.36653646";"227"
"10/12/2020 12:00:00 AM";"08044";"Flevopark";"4.95149592";"52.36516284";"22"
"10/12/2020 12:00:00 AM";"08045";"Weesperplein";"4.91074647";"52.36172535";"463"
"10/12/2020 12:00:00 AM";"08046";"Plantage Lepellaan";"4.91528969";"52.36522179";"10"
"10/12/2020 12:00:00 AM";"08047";"Flevopark";"4.95084932";"52.36522337";"32"
"10/12/2020 12:00:00 AM";"08049";"Alexanderplein";"4.91916567";"52.36383510";"37"
"10/12/2020 12:00:00 AM";"08050";"Alexanderplein";"4.91867098";"52.36341072";"64"
"10/12/2020 12:00:00 AM";"08051";"K. 's-Gravesandestr.";"4.91366120";"52.36235720";"145"
"10/12/2020 12:00:00 AM";"08052";"K. 's-Gravesandestr.";"4.91550720";"52.36271509";"91"
"10/12/2020 12:00:00 AM";"08053";"Weesperplein";"4.90655690";"52.36088154";"137"
"10/12/2020 12:00:00 AM";"08055";"Borneolaan";"4.93819040";"52.37133261";"32"
"10/12/2020 12:00:00 AM";"08057";"Frederiksplein";"4.90024241";"52.35971430";"447"
"10/12/2020 12:00:00 AM";"08058";"Veelaan";"4.93961588";"52.36830916";"149"
"10/12/2020 12:00:00 AM";"08059";"Veelaan";"4.93944523";"52.36776026";"140"
"10/12/2020 12:00:00 AM";"08060";"Keizersgracht";"4.89833435";"52.36367901";"51"
"10/12/2020 12:00:00 AM";"08061";"Keizersgracht";"4.89828743";"52.36393946";"19"
"10/12/2020 12:00:00 AM";"08062";"Prinsengracht";"4.89899899";"52.36198307";"51"
"10/12/2020 12:00:00 AM";"08063";"Prinsengracht";"4.89893740";"52.36224346";"19"
"10/12/2020 12:00:00 AM";"08065";"Frederiksplein";"4.89937029";"52.36025896";"10"
"10/12/2020 12:00:00 AM";"08066";"Frederiksplein";"4.89751569";"52.35937050";"282"
"10/12/2020 12:00:00 AM";"08072";"Vijzelgracht";"4.89159781";"52.35953462";"303"
"10/12/2020 12:00:00 AM";"08073";"Vijzelgracht";"4.89227386";"52.35946554";"302"
"10/12/2020 12:00:00 AM";"08074";"Weteringcircuit";"4.89218709";"52.35934834";"59"
"10/12/2020 12:00:00 AM";"08080";"Spiegelgracht";"4.88691222";"52.36106979";"362"
"10/12/2020 12:00:00 AM";"08083";"Jan Schaeferbrug";"4.92193894";"52.37658159";"12"
"10/12/2020 12:00:00 AM";"08084";"Jan Schaeferbrug";"4.92170454";"52.37652675";"12"
"10/12/2020 12:00:00 AM";"08094";"Wijttenbachstraat";"4.92547668";"52.35979743";"95"
"10/12/2020 12:00:00 AM";"08095";"Alexanderplein";"4.91969863";"52.36341478";"185"
"10/12/2020 12:00:00 AM";"08096";"Alexanderplein";"4.91931589";"52.36351213";"66"
"10/12/2020 12:00:00 AM";"08097";"1e v.Swindenstraat";"4.92412105";"52.36168854";"90"
"10/12/2020 12:00:00 AM";"08098";"1e v.Swindenstraat";"4.92386708";"52.36210997";"305"
"10/12/2020 12:00:00 AM";"08113";"Javaplein";"4.93949828";"52.36395867";"306"
"10/12/2020 12:00:00 AM";"08114";"Javaplein";"4.93955537";"52.36412066";"239"
"10/12/2020 12:00:00 AM";"08120";"Insulindeweg";"4.94763926";"52.36469021";"257"
"10/12/2020 12:00:00 AM";"08124";"Soembawastraat";"4.94346569";"52.36214910";"178"
"10/12/2020 12:00:00 AM";"08127";"Zuiderzeeweg";"4.96256021";"52.37344474";"208"
"10/12/2020 12:00:00 AM";"08128";"Zuiderzeeweg";"4.96221150";"52.37305702";"39"
"10/12/2020 12:00:00 AM";"08129";"Molukkenstraat";"4.93861286";"52.36150167";"212"
"10/12/2020 12:00:00 AM";"08131";"Valentijnkade";"4.94073898";"52.35884036";"63"
"10/12/2020 12:00:00 AM";"08132";"Valentijnkade";"4.94079607";"52.35900236";"126"
"10/12/2020 12:00:00 AM";"08179";"K. 's-Gravesandestr.";"4.91480799";"52.36220000";"57"
"10/12/2020 12:00:00 AM";"08183";"Het Funen";"4.93160770";"52.36746073";"55"
"10/12/2020 12:00:00 AM";"08184";"Het Funen";"4.93087332";"52.36748487";"13"
"10/12/2020 12:00:00 AM";"08190";"Molukkenstraat";"4.93934614";"52.36157635";"305"
"10/12/2020 12:00:00 AM";"08194";"Oostenburgergracht";"4.92430564";"52.36791775";"32"
"10/12/2020 12:00:00 AM";"08195";"Oostenburgergracht";"4.92452709";"52.36780177";"134"
"10/12/2020 12:00:00 AM";"08207";"Levantplein";"4.94286111";"52.37707538";"41"
"10/12/2020 12:00:00 AM";"08209";"KNSM-laan";"4.94601854";"52.37707820";"47"
"10/12/2020 12:00:00 AM";"08219";"Borneolaan";"4.93862058";"52.37090283";"80"
"10/12/2020 12:00:00 AM";"08221";"Tosaristraat";"4.92346248";"52.37975123";"11"
"10/12/2020 12:00:00 AM";"08222";"Peter Martensstraat";"5.01391391";"52.34882079";"59"
"10/12/2020 12:00:00 AM";"08223";"Peter Martensstraat";"5.01420969";"52.34855209";"12"
"10/12/2020 12:00:00 AM";"08225";"Majanggracht";"4.92934446";"52.37904612";"20"
"10/12/2020 12:00:00 AM";"08226";"Majanggracht";"4.93136022";"52.37868540";"49"
"10/12/2020 12:00:00 AM";"08229";"Tosaristraat";"4.92309805";"52.37948916";"65"
"10/12/2020 12:00:00 AM";"08233";"C. van Eesterenlaan";"4.93812487";"52.37345346";"127"
"10/12/2020 12:00:00 AM";"08234";"Muziekgeb. Bimhuis";"4.91316454";"52.37723884";"46"
"10/12/2020 12:00:00 AM";"08235";"Muziekgeb. Bimhuis";"4.91290020";"52.37723779";"240"
"10/12/2020 12:00:00 AM";"08236";"Kattenburgerstraat";"4.92203232";"52.37607865";"117"
"10/12/2020 12:00:00 AM";"08237";"Kattenburgerstraat";"4.92126795";"52.37614755";"244"
"10/12/2020 12:00:00 AM";"08238";"Rietlandpark";"4.93350159";"52.37322013";"289"
"10/12/2020 12:00:00 AM";"08239";"Rietlandpark";"4.93413567";"52.37296191";"424"
"10/12/2020 12:00:00 AM";"08240";"Zuiderzeeweg";"4.96116314";"52.37212752";"95"
"10/12/2020 12:00:00 AM";"08241";"Zuiderzeeweg";"4.96185517";"52.37193228";"841"
"10/12/2020 12:00:00 AM";"08244";"Steigereiland";"4.98083725";"52.36280456";"110"
"10/12/2020 12:00:00 AM";"08245";"Steigereiland";"4.98012952";"52.36313467";"521"
"10/12/2020 12:00:00 AM";"08246";"Vennepluimstraat";"4.99104399";"52.35749148";"90"
"10/12/2020 12:00:00 AM";"08247";"Vennepluimstraat";"4.99057242";"52.35769662";"701"
"10/12/2020 12:00:00 AM";"08248";"Diemerparklaan";"4.99546869";"52.35512447";"14"
"10/12/2020 12:00:00 AM";"08249";"Diemerparklaan";"4.99499716";"52.35532962";"393"
"10/12/2020 12:00:00 AM";"08250";"Lumi?restraat";"4.99992218";"52.35276637";"18"
"10/12/2020 12:00:00 AM";"08251";"Lumi?restraat";"4.99942127";"52.35298044";"358"
"10/12/2020 12:00:00 AM";"08254";"Hoogte Kadijk";"4.92421627";"52.36663216";"60"
"10/12/2020 12:00:00 AM";"08255";"Hoogte Kadijk";"4.92483038";"52.36687722";"258"
"10/12/2020 12:00:00 AM";"08256";"1e Coehoornstraat";"4.92651855";"52.36832184";"40"
"10/12/2020 12:00:00 AM";"08257";"1e Coehoornstraat";"4.92618328";"52.36808685";"166"
"10/12/2020 12:00:00 AM";"08258";"1e Leeghwaterstraat";"4.92943685";"52.37009474";"26"
"10/12/2020 12:00:00 AM";"08259";"1e Leeghwaterstraat";"4.93004964";"52.37047459";"140"
"10/12/2020 12:00:00 AM";"08260";"Rietlandpark";"4.93444431";"52.37293613";"10"
"10/12/2020 12:00:00 AM";"08261";"Rietlandpark";"4.93481067";"52.37300943";"155"
"10/12/2020 12:00:00 AM";"08262";"IJburg";"5.00486802";"52.35112872";"661"
"10/12/2020 12:00:00 AM";"08270";"Diemerparklaan";"4.99472994";"52.35567027";"53"
"10/12/2020 12:00:00 AM";"08271";"Diemerparklaan";"4.99573567";"52.35481078";"21"
"10/12/2020 12:00:00 AM";"08281";"Vennepluimstraat";"4.99139941";"52.35714215";"106"
"10/12/2020 12:00:00 AM";"08286";"Lumierestraat";"4.99915409";"52.35332109";"93"
"10/12/2020 12:00:00 AM";"08288";"R.J.H. Fortuynplein";"4.94671253";"52.37226339";"36"
"10/12/2020 12:00:00 AM";"08291";"Molukkenstraat";"4.94100274";"52.36180730";"196"
"10/12/2020 12:00:00 AM";"08292";"Zeeburgerdijk";"4.93952581";"52.36559453";"56"
"10/12/2020 12:00:00 AM";"08293";"Zeeburgerdijk";"4.93942159";"52.36573794";"116"
"10/12/2020 12:00:00 AM";"08299";"P.Oosterhuisstraat";"5.00794301";"52.35197446";"34"
"10/12/2020 12:00:00 AM";"08300";"P.Oosterhuisstraat";"5.00693059";"52.35193526";"134"
"10/12/2020 12:00:00 AM";"09001";"Dintelstraat";"4.89364343";"52.34191819";"19"
"10/12/2020 12:00:00 AM";"09003";"Dintelstraat";"4.89289498";"52.34192405";"44"
"10/12/2020 12:00:00 AM";"09004";"Europaplein";"4.89216887";"52.33992574";"67"
"10/12/2020 12:00:00 AM";"09005";"Europaplein";"4.89228054";"52.34043851";"21"
"10/12/2020 12:00:00 AM";"09008";"Maxwellstraat";"4.92841149";"52.34713615";"43"
"10/12/2020 12:00:00 AM";"09013";"Amstelstation";"4.91790223";"52.34725673";"418"
"10/12/2020 12:00:00 AM";"09015";"Amstelstation";"4.91940405";"52.34679531";"103"
"10/12/2020 12:00:00 AM";"09016";"Amstelstation";"4.91953925";"52.34649925";"109"
"10/12/2020 12:00:00 AM";"09020";"Wibautstraat";"4.90928242";"52.35726154";"74"
"10/12/2020 12:00:00 AM";"09023";"Camperstraat";"4.91383551";"52.35840330";"99"
"10/12/2020 12:00:00 AM";"09024";"Camperstraat";"4.91339591";"52.35832964";"57"
"10/12/2020 12:00:00 AM";"09025";"Amstelstation";"4.91891097";"52.34623612";"12"
"10/12/2020 12:00:00 AM";"09026";"Amstelstation";"4.91874992";"52.34619953";"141"
"10/12/2020 12:00:00 AM";"09027";"Wibautstraat";"4.90986831";"52.35738074";"162"
"10/12/2020 12:00:00 AM";"09028";"Amstelstation";"4.91867673";"52.34618127";"105"
"10/12/2020 12:00:00 AM";"09048";"Victorieplein";"4.90511195";"52.34659416";"166"
"10/12/2020 12:00:00 AM";"09049";"Victorieplein";"4.90570139";"52.34637186";"234"
"10/12/2020 12:00:00 AM";"09050";"Victorieplein";"4.90499015";"52.34699811";"70"
"10/12/2020 12:00:00 AM";"09051";"Victorieplein";"4.90653699";"52.34645615";"335"
"10/12/2020 12:00:00 AM";"09060";"Waalstraat";"4.90103893";"52.34462715";"92"
"10/12/2020 12:00:00 AM";"09061";"Waalstraat";"4.90060087";"52.34442762";"64"
"10/12/2020 12:00:00 AM";"09063";"Waalstraat";"4.90131745";"52.34465526";"10"
"10/12/2020 12:00:00 AM";"09064";"Pres. Kennedylaan";"4.90174037";"52.34087315";"28"
"10/12/2020 12:00:00 AM";"09065";"Pres. Kennedylaan";"4.90190089";"52.34095470";"31"
"10/12/2020 12:00:00 AM";"09068";"Maasstraat";"4.89636198";"52.34290018";"39"
"10/12/2020 12:00:00 AM";"09069";"Maasstraat";"4.89684393";"52.34310889";"74"
"10/12/2020 12:00:00 AM";"09070";"Scheldestraat";"4.88952142";"52.34702395";"36"
"10/12/2020 12:00:00 AM";"09071";"Scheldestraat";"4.88961971";"52.34741983";"12"
"10/12/2020 12:00:00 AM";"09072";"Scheldeplein";"4.89056960";"52.34384669";"10"
"10/12/2020 12:00:00 AM";"09073";"Scheldeplein";"4.89113518";"52.34445124";"27"
"10/12/2020 12:00:00 AM";"09074";"Scheldestraat";"4.89116002";"52.34748022";"105"
"10/12/2020 12:00:00 AM";"09075";"Scheldestraat";"4.89161737";"52.34726643";"60"
"10/12/2020 12:00:00 AM";"09078";"Maasstraat";"4.89476308";"52.34681220";"91"
"10/12/2020 12:00:00 AM";"09079";"Maasstraat";"4.89545003";"52.34706671";"57"
"10/12/2020 12:00:00 AM";"09082";"Waalstraat";"4.89974094";"52.34656317";"87"
"10/12/2020 12:00:00 AM";"09083";"Waalstraat";"4.90032528";"52.34680824";"59"
"10/12/2020 12:00:00 AM";"09086";"Amstelkade";"4.90432498";"52.34878396";"35"
"10/12/2020 12:00:00 AM";"09088";"Amstelkade";"4.90406932";"52.34934914";"89"
"10/12/2020 12:00:00 AM";"09090";"Lutmastraat";"4.90331220";"52.35148513";"94"
"10/12/2020 12:00:00 AM";"09091";"Lutmastraat";"4.90313216";"52.35184391";"175"
"10/12/2020 12:00:00 AM";"09094";"Ceintuurbaan";"4.90142870";"52.35460515";"50"
"10/12/2020 12:00:00 AM";"09095";"Ceintuurbaan";"4.90105673";"52.35506200";"111"
"10/12/2020 12:00:00 AM";"09096";"Van Woustraat";"4.90163035";"52.35495650";"196"
"10/12/2020 12:00:00 AM";"09097";"Van Woustraat";"4.90084070";"52.35468363";"231"
"10/12/2020 12:00:00 AM";"09100";"Stadhouderskade";"4.89918434";"52.35847862";"28"
"10/12/2020 12:00:00 AM";"09102";"Frederiksplein";"4.89904996";"52.35868478";"80"
"10/12/2020 12:00:00 AM";"09108";"2e v.d.Helststraat";"4.89423729";"52.35319131";"130"
"10/12/2020 12:00:00 AM";"09109";"2e v.d.Helststraat";"4.89488170";"52.35331982";"135"
"10/12/2020 12:00:00 AM";"09111";"De Pijp";"4.89073444";"52.35272728";"527"
"10/12/2020 12:00:00 AM";"09114";"De Pijp";"4.88948829";"52.35259622";"373"
"10/12/2020 12:00:00 AM";"09119";"Cornelis Troostplein";"4.89149871";"52.35000720";"77"
"10/12/2020 12:00:00 AM";"09120";"Cornelis Troostplein";"4.89161100";"52.35046604";"129"
"10/12/2020 12:00:00 AM";"09121";"Marie Heinekenplein";"4.89077224";"52.35722131";"86"
"10/12/2020 12:00:00 AM";"09122";"Marie Heinekenplein";"4.89065823";"52.35691525";"20"
"10/12/2020 12:00:00 AM";"09139";"Amsteldijk";"4.91124086";"52.34711329";"90"
"10/12/2020 12:00:00 AM";"09140";"Amsteldijk";"4.91055179";"52.34704760";"85"
"10/12/2020 12:00:00 AM";"09161";"Maasstraat";"4.89844315";"52.34047310";"24"
"10/12/2020 12:00:00 AM";"09175";"James Wattstraat";"4.92275924";"52.35153607";"36"
"10/12/2020 12:00:00 AM";"09176";"James Wattstraat";"4.92329155";"52.35116068";"49"
"10/12/2020 12:00:00 AM";"09177";"Krugerplein";"4.92076163";"52.35307411";"61"
"10/12/2020 12:00:00 AM";"09178";"Krugerplein";"4.92080670";"52.35297542";"89"
"10/12/2020 12:00:00 AM";"09179";"Maxwellstraat";"4.92826798";"52.34824109";"14"
"10/12/2020 12:00:00 AM";"ASA";"Amstelstation";"4.91751426";"52.34647326";"3791"
"10/12/2020 12:00:00 AM";"ASW";"Amstelveenseweg";"4.85798324";"52.33836671";"2242"
"10/12/2020 12:00:00 AM";"BLW";"Bullewijk";"4.95233581";"52.30642205";"1923"
"10/12/2020 12:00:00 AM";"BMR";"Station Bijlmer ArenA";"4.94713474";"52.31193030";"4851"
"10/12/2020 12:00:00 AM";"CLL";"Station Lelylaan";"4.83426589";"52.35766291";"1493"
"10/12/2020 12:00:00 AM";"CS";"Centraal Station";"4.90078150";"52.37749421";"10775"
"10/12/2020 12:00:00 AM";"DMZ";"Station Diemen-Zuid";"4.95713273";"52.33042795";"979"
"10/12/2020 12:00:00 AM";"DPP";"De Pijp";"4.89101069";"52.35296212";"3383"
"10/12/2020 12:00:00 AM";"DVD";"Station Duivendrecht";"4.93678429";"52.32325190";"1282"
"10/12/2020 12:00:00 AM";"EPP";"Europaplein";"4.89138430";"52.34185482";"1517"
"10/12/2020 12:00:00 AM";"GN";"Gein";"4.98952268";"52.29627089";"1744"
"10/12/2020 12:00:00 AM";"GPP";"Gaasperplas";"4.98468551";"52.31080575";"518"
"10/12/2020 12:00:00 AM";"GZH";"Station Ganzenhoef";"4.97323379";"52.32331315";"1728"
"10/12/2020 12:00:00 AM";"HDS";"Heemstedestraat";"4.83421208";"52.35255760";"937"
"10/12/2020 12:00:00 AM";"HLD";"Station Holendrecht";"4.96021904";"52.29780451";"3187"
"10/12/2020 12:00:00 AM";"HVW";"Henk Sneevlietweg";"4.83439318";"52.34626699";"1491"
"10/12/2020 12:00:00 AM";"ITW";"Isolatorweg";"4.85013475";"52.39523277";"457"
"10/12/2020 12:00:00 AM";"JLS";"Jan v.Galenstraat";"4.83492461";"52.37196551";"1253"
"10/12/2020 12:00:00 AM";"KEN";"Kraaienneststation";"4.97963450";"52.31632492";"1599"
"10/12/2020 12:00:00 AM";"MDW";"Van der Madeweg";"4.93048657";"52.32945629";"770"
"10/12/2020 12:00:00 AM";"ND";"Noord";"4.93123182";"52.40117202";"5882"
"10/12/2020 12:00:00 AM";"NDP";"Noorderpark";"4.91789115";"52.38855518";"2501"
"10/12/2020 12:00:00 AM";"NMT";"Nieuwmarkt";"4.90123885";"52.37194169";"1729"
"10/12/2020 12:00:00 AM";"OAS";"Overamstel";"4.91815361";"52.33179879";"638"
"10/12/2020 12:00:00 AM";"PJW";"Postjesweg";"4.83385543";"52.36468044";"871"
"10/12/2020 12:00:00 AM";"RAI";"Station RAI";"4.88982004";"52.33739931";"1074"
"10/12/2020 12:00:00 AM";"RGB";"Reigersbos";"4.97473728";"52.29566301";"2179"
"10/12/2020 12:00:00 AM";"RKN";"Rokin";"4.89229651";"52.36928023";"4409"
"10/12/2020 12:00:00 AM";"SLW";"Spaklerweg";"4.92085640";"52.33986250";"1149"
"10/12/2020 12:00:00 AM";"STD";"Station Sloterdijk";"4.83878389";"52.38880848";"3018"
"10/12/2020 12:00:00 AM";"SVT";"Strandvliet";"4.94152820";"52.31825469";"1012"
"10/12/2020 12:00:00 AM";"VLN";"Burg.de Vlugtlaan";"4.83809109";"52.37951196";"1096"
"10/12/2020 12:00:00 AM";"VPD";"Venserpolder";"4.94665009";"52.32679428";"753"
"10/12/2020 12:00:00 AM";"VSW";"Verrijn Stuartweg";"4.96693669";"52.32844093";"396"
"10/12/2020 12:00:00 AM";"VZG";"Vijzelgracht";"4.89072870";"52.35980061";"1831"
"10/12/2020 12:00:00 AM";"WBS";"Wibautstraat";"4.91202993";"52.35428867";"2604"
"10/12/2020 12:00:00 AM";"WLP";"Waterlooplein";"4.90298171";"52.36697862";"2445"
"10/12/2020 12:00:00 AM";"WPP";"Weesperplein";"4.90787469";"52.36120146";"2707"
"10/12/2020 12:00:00 AM";"WTC";"Station Zuid";"4.87509853";"52.33908015";"6118"
"10/13/2020 12:00:00 AM";"";"Overig";"";"";"5487"
"10/13/2020 12:00:00 AM";"[[ Onb";"[[ Onbekend ]]";"0.00000000";"0.00000000";"5266"
"10/13/2020 12:00:00 AM";"00001";"Muiderpoortstation";"4.93287450";"52.36132700";"77"
"10/13/2020 12:00:00 AM";"00005";"Muiderpoortstation";"4.93280219";"52.36121887";"203"
"10/13/2020 12:00:00 AM";"00006";"Muiderpoortstation";"4.93368466";"52.36106048";"220"
"10/13/2020 12:00:00 AM";"00007";"Muiderpoortstation";"4.93356602";"52.36117686";"436"
"10/13/2020 12:00:00 AM";"00008";"Dapperstraat";"4.92977913";"52.36110836";"788"
"10/13/2020 12:00:00 AM";"00010";"Dapperstraat";"4.92891486";"52.36092527";"287"
"10/13/2020 12:00:00 AM";"00014";"Wijttenbachstraat";"4.92507537";"52.36027221";"147"
"10/13/2020 12:00:00 AM";"00017";"Linnaeusstraat";"4.92573745";"52.36013099";"146"
"10/13/2020 12:00:00 AM";"00018";"Diemerknoop";"5.00286153";"52.33537576";"66"
"10/13/2020 12:00:00 AM";"00019";"Diemerknoop";"5.00296377";"52.33543002";"65"
"10/13/2020 12:00:00 AM";"00020";"Beukenweg";"4.91674979";"52.35906203";"168"
"10/13/2020 12:00:00 AM";"00021";"Beukenweg";"4.91721293";"52.35829991";"428"
"10/13/2020 12:00:00 AM";"00023";"Beukenplein";"4.91809259";"52.35701816";"199"
"10/13/2020 12:00:00 AM";"00024";"Beukenplein";"4.91807544";"52.35725177";"58"
"10/13/2020 12:00:00 AM";"00029";"Oostpoort";"4.92719316";"52.35707185";"254"
"10/13/2020 12:00:00 AM";"00030";"Oostpoort";"4.92694026";"52.35739442";"327"
"10/13/2020 12:00:00 AM";"00039";"Hogeweg";"4.93084015";"52.35358075";"98"
"10/13/2020 12:00:00 AM";"00040";"Hogeweg";"4.93135765";"52.35321425";"168"
"10/13/2020 12:00:00 AM";"00041";"Maxwellstraat";"4.93019273";"52.34803283";"33"
"10/13/2020 12:00:00 AM";"00044";"Fizeaustraat";"4.92432897";"52.34597881";"60"
"10/13/2020 12:00:00 AM";"00046";"Fizeaustraat";"4.92463808";"52.34589015";"39"
"10/13/2020 12:00:00 AM";"00048";"Lorentzlaan";"4.93197648";"52.34582872";"10"
"10/13/2020 12:00:00 AM";"00051";"Pekelharingstraat";"4.93652909";"52.34551360";"61"
"10/13/2020 12:00:00 AM";"00052";"Pekelharingstraat";"4.93677583";"52.34578417";"26"
"10/13/2020 12:00:00 AM";"00053";"Kruislaan";"4.93967974";"52.34742196";"79"
"10/13/2020 12:00:00 AM";"00054";"Kruislaan";"4.93899299";"52.34712277";"15"
"10/13/2020 12:00:00 AM";"00055";"Linnaeusparkweg";"4.94154593";"52.34865133";"14"
"10/13/2020 12:00:00 AM";"00059";"Radioweg";"4.93945830";"52.35337100";"89"
"10/13/2020 12:00:00 AM";"00060";"Radioweg";"4.93979325";"52.35363291";"33"
"10/13/2020 12:00:00 AM";"00061";"Archimedesweg";"4.93965454";"52.35574450";"56"
"10/13/2020 12:00:00 AM";"00065";"Hugo de Vrieslaan";"4.93487340";"52.35101676";"101"
"10/13/2020 12:00:00 AM";"00066";"Hugo de Vrieslaan";"4.93540468";"52.35073118";"48"
"10/13/2020 12:00:00 AM";"00070";"Kruislaan";"4.93993910";"52.34789929";"220"
"10/13/2020 12:00:00 AM";"00071";"Kruislaan";"4.94045564";"52.34761364";"22"
"10/13/2020 12:00:00 AM";"00074";"Brinkstraat";"4.94797289";"52.34285131";"243"
"10/13/2020 12:00:00 AM";"00076";"Brinkstraat";"4.94742604";"52.34324474";"26"
"10/13/2020 12:00:00 AM";"00079";"Zaaiersweg";"4.93840610";"52.33984947";"37"
"10/13/2020 12:00:00 AM";"00080";"Zaaiersweg";"4.93948574";"52.33900871";"41"
"10/13/2020 12:00:00 AM";"00113";"Dennenrode";"4.95124546";"52.32191297";"29"
"10/13/2020 12:00:00 AM";"00114";"Dennenrode";"4.95213839";"52.32209601";"132"
"10/13/2020 12:00:00 AM";"00116";"Station Ganzenhoef";"4.97272915";"52.32237665";"166"
"10/13/2020 12:00:00 AM";"00118";"Echtenstein";"4.95952116";"52.32463051";"55"
"10/13/2020 12:00:00 AM";"00119";"Echtenstein";"4.95972461";"52.32482898";"22"
"10/13/2020 12:00:00 AM";"00124";"Geldershoofd";"4.97091549";"52.32495876";"14"
"10/13/2020 12:00:00 AM";"00125";"Geldershoofd";"4.97088414";"52.32517435";"29"
"10/13/2020 12:00:00 AM";"00126";"Grubbehoeve";"4.97626815";"52.32352145";"33"
"10/13/2020 12:00:00 AM";"00127";"Grubbehoeve";"4.97765851";"52.32385882";"32"
"10/13/2020 12:00:00 AM";"00128";"Geerdinkhof";"4.98077720";"52.32287193";"40"
"10/13/2020 12:00:00 AM";"00129";"Geerdinkhof";"4.98025676";"52.32364309";"24"
"10/13/2020 12:00:00 AM";"00134";"Koornhorst";"4.98400929";"52.31907218";"140"
"10/13/2020 12:00:00 AM";"00135";"Koornhorst";"4.98396309";"52.31931470";"29"
"10/13/2020 12:00:00 AM";"00141";"Kraaienneststation";"4.97868390";"52.31603403";"379"
"10/13/2020 12:00:00 AM";"00144";"Kikkenstein";"4.97237050";"52.31680298";"46"
"10/13/2020 12:00:00 AM";"00145";"Kikkenstein";"4.97271326";"52.31621998";"118"
"10/13/2020 12:00:00 AM";"00146";"Gooioord";"4.96906535";"52.32048532";"66"
"10/13/2020 12:00:00 AM";"00147";"Gooioord";"4.96936376";"52.31994711";"103"
"10/13/2020 12:00:00 AM";"00150";"Tulastraat";"4.96535973";"52.31994189";"86"
"10/13/2020 12:00:00 AM";"00151";"Tulastraat";"4.96584458";"52.31985374";"237"
"10/13/2020 12:00:00 AM";"00152";"Florijn";"4.95859163";"52.31758973";"191"
"10/13/2020 12:00:00 AM";"00153";"Florijn";"4.95971907";"52.31778255";"207"
"10/13/2020 12:00:00 AM";"00157";"Dolingadreef";"4.94847023";"52.31925132";"68"
"10/13/2020 12:00:00 AM";"00158";"Dolingadreef";"4.94901581";"52.31895674";"76"
"10/13/2020 12:00:00 AM";"00167";"Hogevecht";"4.95956435";"52.30947729";"96"
"10/13/2020 12:00:00 AM";"00168";"Hogevecht";"4.95997517";"52.30945181";"29"
"10/13/2020 12:00:00 AM";"00169";"Huigenbos";"4.96076438";"52.30666844";"79"
"10/13/2020 12:00:00 AM";"00170";"Huigenbos";"4.96083553";"52.30689339";"16"
"10/13/2020 12:00:00 AM";"00171";"Maasdrielhof";"4.96483898";"52.30220714";"80"
"10/13/2020 12:00:00 AM";"00172";"Holendrechtplein";"4.96402882";"52.29952588";"152"
"10/13/2020 12:00:00 AM";"00178";"Nelson Mandelapark";"4.96403676";"52.31101231";"23"
"10/13/2020 12:00:00 AM";"00179";"Kelbergen";"4.97179997";"52.31351146";"82"
"10/13/2020 12:00:00 AM";"00180";"Kelbergen";"4.97143303";"52.31354612";"71"
"10/13/2020 12:00:00 AM";"00186";"Geinbrug";"5.01312849";"52.30442792";"11"
"10/13/2020 12:00:00 AM";"00187";"Geinbrug";"5.01277616";"52.30448073";"19"
"10/13/2020 12:00:00 AM";"00197";"Annie Romeinplein";"4.97162041";"52.32173463";"414"
"10/13/2020 12:00:00 AM";"00198";"Annie Romeinplein";"4.96998049";"52.32143226";"57"
"10/13/2020 12:00:00 AM";"00199";"Station Ganzenhoef";"4.97329456";"52.32308866";"125"
"10/13/2020 12:00:00 AM";"00200";"Station Ganzenhoef";"4.97508507";"52.32297807";"62"
"10/13/2020 12:00:00 AM";"00205";"Station Holendrecht";"4.95865657";"52.29716971";"129"
"10/13/2020 12:00:00 AM";"00207";"Rhenenhof";"4.97082721";"52.29838160";"14"
"10/13/2020 12:00:00 AM";"00210";"Hakfort";"4.95541377";"52.30805113";"10"
"10/13/2020 12:00:00 AM";"00211";"Station Holendrecht";"4.95889207";"52.29707170";"23"
"10/13/2020 12:00:00 AM";"00238";"Anton de Komplein";"4.95413359";"52.31603659";"464"
"10/13/2020 12:00:00 AM";"00239";"Anton de Komplein";"4.95597669";"52.31652866";"304"
"10/13/2020 12:00:00 AM";"00250";"Station Diemen Zuid";"4.95668889";"52.33081280";"52"
"10/13/2020 12:00:00 AM";"00251";"Station Diemen Zuid";"4.95681979";"52.33093012";"60"
"10/13/2020 12:00:00 AM";"00252";"Tarwekamp";"4.95487876";"52.33290035";"14"
"10/13/2020 12:00:00 AM";"00253";"Tarwekamp";"4.95472987";"52.33312450";"19"
"10/13/2020 12:00:00 AM";"00256";"Kruidenommegang";"4.93928931";"52.32793505";"10"
"10/13/2020 12:00:00 AM";"00257";"Kruidenommegang";"4.93939127";"52.32800734";"10"
"10/13/2020 12:00:00 AM";"00258";"Burg. van Damstraat";"4.94155946";"52.33414518";"17"
"10/13/2020 12:00:00 AM";"00259";"Burg. van Damstraat";"4.94174830";"52.33433463";"13"
"10/13/2020 12:00:00 AM";"00266";"Korenbloemstraat";"4.93994635";"52.32969914";"10"
"10/13/2020 12:00:00 AM";"00295";"Dalsteindreef";"4.94234237";"52.32482782";"19"
"10/13/2020 12:00:00 AM";"00296";"Dalsteindreef";"4.94241589";"52.32481012";"14"
"10/13/2020 12:00:00 AM";"00305";"Leusdenhof";"4.97849180";"52.30981383";"14"
"10/13/2020 12:00:00 AM";"00306";"Leusdenhof";"4.97837367";"52.30990330";"41"
"10/13/2020 12:00:00 AM";"00307";"Leerdamhof";"4.97402711";"52.30740757";"12"
"10/13/2020 12:00:00 AM";"00314";"Leerdamhof";"4.97526283";"52.30538963";"24"
"10/13/2020 12:00:00 AM";"00321";"Gaasperplas (uitstap)";"4.98513910";"52.31091514";"57"
"10/13/2020 12:00:00 AM";"00330";"Middenweg";"4.93455629";"52.35044932";"87"
"10/13/2020 12:00:00 AM";"00331";"Station Reigersbos";"4.97350466";"52.29737537";"24"
"10/13/2020 12:00:00 AM";"00333";"Schoonhovendreef";"4.97463519";"52.29402687";"44"
"10/13/2020 12:00:00 AM";"00335";"Scherpenzeelstraat";"4.97724033";"52.29287650";"23"
"10/13/2020 12:00:00 AM";"00337";"Schaarsbergenstraat";"4.98130170";"52.29275570";"27"
"10/13/2020 12:00:00 AM";"00338";"Staverdenplein";"4.98602093";"52.29282573";"11"
"10/13/2020 12:00:00 AM";"00339";"Staverdenplein";"4.98584439";"52.29289703";"20"
"10/13/2020 12:00:00 AM";"00341";"Woudrichemstraat";"4.98882309";"52.29418337";"19"
"10/13/2020 12:00:00 AM";"00343";"W. Gertenbachstraat";"4.98914971";"52.29863342";"33"
"10/13/2020 12:00:00 AM";"00345";"Station Gein";"4.98911240";"52.29625153";"69"
"10/13/2020 12:00:00 AM";"00351";"Dostojevskisingel";"4.94525272";"52.32275356";"133"
"10/13/2020 12:00:00 AM";"00352";"Dostojevskisingel";"4.94457408";"52.32314649";"55"
"10/13/2020 12:00:00 AM";"00364";"Boven Rijkersloot";"4.95497934";"52.33462636";"16"
"10/13/2020 12:00:00 AM";"00365";"Boven Rijkersloot";"4.95544506";"52.33501454";"23"
"10/13/2020 12:00:00 AM";"00370";"Plataanstraat";"4.94100436";"52.33244440";"24"
"10/13/2020 12:00:00 AM";"00371";"Plataanstraat";"4.94103424";"52.33239059";"26"
"10/13/2020 12:00:00 AM";"00419";"Wamelstraat";"4.98591342";"52.30148959";"28"
"10/13/2020 12:00:00 AM";"00421";"Veenendaalplein";"4.98085559";"52.30147232";"47"
"10/13/2020 12:00:00 AM";"00422";"Veenendaalplein";"4.98041495";"52.30156069";"11"
"10/13/2020 12:00:00 AM";"00432";"Diemerbrug";"4.96142958";"52.33824484";"361"
"10/13/2020 12:00:00 AM";"00434";"Bijlmerplein";"4.95032022";"52.31457553";"307"
"10/13/2020 12:00:00 AM";"00436";"Industrieweg";"4.94609590";"52.33533058";"19"
"10/13/2020 12:00:00 AM";"00441";"Muiderpoortstation";"4.93254137";"52.36088532";"204"
"10/13/2020 12:00:00 AM";"00442";"Beukenhorst";"4.96005659";"52.33759278";"20"
"10/13/2020 12:00:00 AM";"00443";"Beukenhorst";"4.96005866";"52.33737708";"54"
"10/13/2020 12:00:00 AM";"00444";"Linnaeusstraat";"4.92490296";"52.35991203";"352"
"10/13/2020 12:00:00 AM";"00453";"Diemen Sniep";"4.96964866";"52.33644962";"222"
"10/13/2020 12:00:00 AM";"00464";"Hogeschool InHolland";"4.95958754";"52.32687769";"67"
"10/13/2020 12:00:00 AM";"00465";"Hogeschool InHolland";"4.95988065";"52.32690571";"29"
"10/13/2020 12:00:00 AM";"00491";"Science Park Aer";"4.95218495";"52.35478458";"209"
"10/13/2020 12:00:00 AM";"00494";"Science Park Aqua";"4.95416922";"52.35601419";"34"
"10/13/2020 12:00:00 AM";"00505";"Arent Krijtsstraat";"4.95469645";"52.33956859";"169"
"10/13/2020 12:00:00 AM";"00506";"Science Park Terra";"4.95831008";"52.35434856";"75"
"10/13/2020 12:00:00 AM";"00507";"Science Park Terra";"4.95772497";"52.35413972";"48"
"10/13/2020 12:00:00 AM";"00511";"Station Duivendrecht";"4.93682938";"52.32314422";"64"
"10/13/2020 12:00:00 AM";"00512";"Middenweg";"4.93389832";"52.35020413";"41"
"10/13/2020 12:00:00 AM";"00515";"Station Duivendrecht";"4.93669692";"52.32318866";"87"
"10/13/2020 12:00:00 AM";"00518";"Foppingadreef";"4.94967889";"52.31268573";"175"
"10/13/2020 12:00:00 AM";"00526";"Provincialeweg";"4.97270608";"52.32799392";"13"
"10/13/2020 12:00:00 AM";"00529";"Station Science Park";"4.94782063";"52.35230583";"36"
"10/13/2020 12:00:00 AM";"00537";"Linnaeusparkweg";"4.94275809";"52.34924908";"46"
"10/13/2020 12:00:00 AM";"00538";"Station Science Park";"4.94808393";"52.35239669";"113"
"10/13/2020 12:00:00 AM";"00552";"Kraaienneststation";"4.98156548";"52.31686183";"120"
"10/13/2020 12:00:00 AM";"00553";"Kraaienneststation";"4.98073727";"52.31601414";"283"
"10/13/2020 12:00:00 AM";"00554";"Science Park";"4.95088162";"52.35447420";"179"
"10/13/2020 12:00:00 AM";"00556";"C. Mac Gillavrylaan";"4.94469989";"52.35763291";"21"
"10/13/2020 12:00:00 AM";"00560";"Station Bijlmer ArenA";"4.94747867";"52.31125750";"242"
"10/13/2020 12:00:00 AM";"00561";"Station Bijlmer ArenA";"4.94741931";"52.31132918";"378"
"10/13/2020 12:00:00 AM";"00562";"Station Bijlmer ArenA";"4.94736012";"52.31138289";"61"
"10/13/2020 12:00:00 AM";"00568";"Station Bijlmer ArenA";"4.94762664";"52.31112323";"107"
"10/13/2020 12:00:00 AM";"00570";"Stationsweg";"4.93140631";"52.32417502";"10"
"10/13/2020 12:00:00 AM";"00571";"Stationsweg";"4.93111222";"52.32424579";"11"
"10/13/2020 12:00:00 AM";"00601";"Van Houtenlaan";"5.03711994";"52.30381828";"34"
"10/13/2020 12:00:00 AM";"00602";"Van Houtenlaan";"5.03690045";"52.30376371";"10"
"10/13/2020 12:00:00 AM";"00651";"Casparuslaan";"5.03531862";"52.30911571";"44"
"10/13/2020 12:00:00 AM";"00665";"Station Weesp";"5.04383463";"52.31145059";"52"
"10/13/2020 12:00:00 AM";"00675";"J.H.Leopoldhof";"5.03906300";"52.31219161";"14"
"10/13/2020 12:00:00 AM";"00901";"Stammerkamp";"4.98292612";"52.33334103";"23"
"10/13/2020 12:00:00 AM";"00902";"Stammerkamp";"4.98344083";"52.33320797";"30"
"10/13/2020 12:00:00 AM";"00966";"Tureluurweg";"4.97931906";"52.35068393";"41"
"10/13/2020 12:00:00 AM";"00970";"Diemen Noord";"4.98591323";"52.34697657";"18"
"10/13/2020 12:00:00 AM";"00971";"Rietzangerweg";"4.97382833";"52.35084464";"32"
"10/13/2020 12:00:00 AM";"00973";"Vogelweg";"4.97356522";"52.34915403";"59"
"10/13/2020 12:00:00 AM";"00975";"Station Diemen";"4.96742618";"52.34494414";"59"
"10/13/2020 12:00:00 AM";"00976";"Klipperweg";"4.98288824";"52.34878179";"34"
"10/13/2020 12:00:00 AM";"00979";"Meerkoet";"4.97635516";"52.35217463";"40"
"10/13/2020 12:00:00 AM";"00985";"Winkelcentrum";"4.96422695";"52.34186794";"150"
"10/13/2020 12:00:00 AM";"00986";"Prins Bernhardlaan";"4.96813694";"52.33805308";"21"
"10/13/2020 12:00:00 AM";"00989";"Martin L.Kinglaan";"4.96563784";"52.34318518";"39"
"10/13/2020 12:00:00 AM";"00991";"Station Diemen";"4.96784657";"52.34549388";"13"
"10/13/2020 12:00:00 AM";"00992";"Pr. Beatrixlaan";"4.96770879";"52.33988506";"65"
"10/13/2020 12:00:00 AM";"00994";"Burg. Bickerstraat";"4.96278104";"52.34115273";"17"
"10/13/2020 12:00:00 AM";"00998";"Vinkenbrug";"4.97878537";"52.33371328";"23"
"10/13/2020 12:00:00 AM";"00999";"Vinkenbrug";"4.97831599";"52.33370267";"82"
"10/13/2020 12:00:00 AM";"01001";"Hilversumstraat";"4.95884418";"52.39025625";"115"
"10/13/2020 12:00:00 AM";"01002";"Hilversumstraat";"4.95898142";"52.38973546";"134"
"10/13/2020 12:00:00 AM";"01005";"Volendammerweg";"4.95680438";"52.39306199";"203"
"10/13/2020 12:00:00 AM";"01006";"Purmerweg";"4.94847513";"52.39002955";"25"
"10/13/2020 12:00:00 AM";"01007";"Purmerweg";"4.94871052";"52.38999448";"75"
"10/13/2020 12:00:00 AM";"01058";"Purmerplein";"4.94586747";"52.39078382";"30"
"10/13/2020 12:00:00 AM";"01059";"Purmerplein";"4.94569441";"52.39045962";"80"
"10/13/2020 12:00:00 AM";"01060";"Wervershoofstraat";"4.94038537";"52.39249788";"25"
"10/13/2020 12:00:00 AM";"01061";"Wervershoofstraat";"4.93954583";"52.39271041";"69"
"10/13/2020 12:00:00 AM";"01062";"Nieuwe Purmerweg";"4.93413606";"52.39448737";"13"
"10/13/2020 12:00:00 AM";"01063";"Nieuwe Purmerweg";"4.93450646";"52.39418321";"54"
"10/13/2020 12:00:00 AM";"01064";"Het Breed";"4.93243679";"52.39830061";"13"
"10/13/2020 12:00:00 AM";"01067";"Ilperveldstraat";"4.94464975";"52.39503942";"15"
"10/13/2020 12:00:00 AM";"01068";"Ilperveldstraat";"4.94516476";"52.39496045";"10"
"10/13/2020 12:00:00 AM";"01069";"De Egmondenstraat";"4.94948278";"52.39361036";"49"
"10/13/2020 12:00:00 AM";"01070";"De Egmondenstraat";"4.94809704";"52.39409057";"77"
"10/13/2020 12:00:00 AM";"01071";"Waterlandplein";"4.95393688";"52.39183820";"88"
"10/13/2020 12:00:00 AM";"01076";"Waterlandplein";"4.95247364";"52.39274059";"262"
"10/13/2020 12:00:00 AM";"01077";"Dijkmanshuizenstraat";"4.95440778";"52.39627083";"48"
"10/13/2020 12:00:00 AM";"01078";"Dijkmanshuizenstraat";"4.95475323";"52.39549915";"200"
"10/13/2020 12:00:00 AM";"01091";"Beemsterstraat";"4.95105959";"52.39759770";"73"
"10/13/2020 12:00:00 AM";"01100";"Bakkerswaal";"4.93759657";"52.40239170";"24"
"10/13/2020 12:00:00 AM";"01101";"Bakkerswaal";"4.93728965";"52.40222876";"23"
"10/13/2020 12:00:00 AM";"01103";"Amerbos";"4.94140690";"52.40340373";"24"
"10/13/2020 12:00:00 AM";"01104";"Amerbos";"4.94255700";"52.40301260";"28"
"10/13/2020 12:00:00 AM";"01106";"Spelderholt";"4.94423483";"52.40127528";"37"
"10/13/2020 12:00:00 AM";"01107";"Spelderholt";"4.94419255";"52.40109537";"74"
"10/13/2020 12:00:00 AM";"01108";"J. Drijverweg";"4.94437079";"52.39943333";"62"
"10/13/2020 12:00:00 AM";"01109";"J. Drijverweg";"4.94420701";"52.39964842";"100"
"10/13/2020 12:00:00 AM";"01110";"Rode Kruisstraat";"4.92847908";"52.39455548";"23"
"10/13/2020 12:00:00 AM";"01111";"Rode Kruisstraat";"4.92881363";"52.39488033";"97"
"10/13/2020 12:00:00 AM";"01112";"Waddenweg";"4.92695639";"52.39263520";"12"
"10/13/2020 12:00:00 AM";"01116";"Merelstraat";"4.92492850";"52.38986809";"35"
"10/13/2020 12:00:00 AM";"01117";"Merelstraat";"4.92505977";"52.38995848";"42"
"10/13/2020 12:00:00 AM";"01121";"Hamerstraat";"4.92100278";"52.38600598";"15"
"10/13/2020 12:00:00 AM";"01123";"Havikslaan";"4.91760530";"52.38503088";"41"
"10/13/2020 12:00:00 AM";"01124";"Valkenweg";"4.91327814";"52.38309927";"24"
"10/13/2020 12:00:00 AM";"01136";"Bundlaan";"4.90249488";"52.38869090";"26"
"10/13/2020 12:00:00 AM";"01151";"Mosplein";"4.91407704";"52.39357310";"150"
"10/13/2020 12:00:00 AM";"01155";"Mosplein";"4.91358361";"52.39300490";"96"
"10/13/2020 12:00:00 AM";"01156";"Sneeuwbalstraat";"4.91395944";"52.39633184";"44"
"10/13/2020 12:00:00 AM";"01158";"Sneeuwbalstraat";"4.91413517";"52.39638647";"122"
"10/13/2020 12:00:00 AM";"01166";"Barkpad";"4.91174689";"52.40262332";"75"
"10/13/2020 12:00:00 AM";"01167";"Tjalkstraat";"4.91007632";"52.40492643";"94"
"10/13/2020 12:00:00 AM";"01168";"Tjalkstraat";"4.91116991";"52.40572174";"277"
"10/13/2020 12:00:00 AM";"01171";"Voordek";"4.91677702";"52.41048960";"60"
"10/13/2020 12:00:00 AM";"01172";"Voordek";"4.91743292";"52.41100450";"95"
"10/13/2020 12:00:00 AM";"01173";"Tussendek";"4.91923925";"52.41253056";"110"
"10/13/2020 12:00:00 AM";"01174";"Tussendek";"4.91996775";"52.41313560";"61"
"10/13/2020 12:00:00 AM";"01175";"Staghof";"4.92253391";"52.41370293";"51"
"10/13/2020 12:00:00 AM";"01176";"Staghof";"4.92294855";"52.41340796";"26"
"10/13/2020 12:00:00 AM";"01177";"Masthof";"4.92557694";"52.41224085";"81"
"10/13/2020 12:00:00 AM";"01178";"Masthof";"4.92600624";"52.41194593";"31"
"10/13/2020 12:00:00 AM";"01179";"Grootzeil";"4.92427558";"52.40878453";"132"
"10/13/2020 12:00:00 AM";"01180";"Grootzeil";"4.92316491";"52.40818700";"29"
"10/13/2020 12:00:00 AM";"01188";"Barkpad";"4.91148172";"52.40268517";"21"
"10/13/2020 12:00:00 AM";"01189";"Pinksterbloemstraat";"4.91221693";"52.39852684";"31"
"10/13/2020 12:00:00 AM";"01191";"Pinksterbloemstraat";"4.91203754";"52.39881372";"86"
"10/13/2020 12:00:00 AM";"01194";"Slijperweg";"4.90768400";"52.39921860";"54"
"10/13/2020 12:00:00 AM";"01199";"Klaprozenweg";"4.89670788";"52.40322709";"267"
"10/13/2020 12:00:00 AM";"01200";"Klaprozenweg";"4.89588253";"52.40344836";"36"
"10/13/2020 12:00:00 AM";"01203";"Meteorensingel";"4.89157478";"52.41021609";"90"
"10/13/2020 12:00:00 AM";"01204";"Meteorensingel";"4.89107380";"52.41033083";"22"
"10/13/2020 12:00:00 AM";"01205";"Maanstraat";"4.88734967";"52.41214866";"104"
"10/13/2020 12:00:00 AM";"01206";"Maanstraat";"4.88683437";"52.41222737";"18"
"10/13/2020 12:00:00 AM";"01208";"Meteorenweg";"4.88139638";"52.41479272";"77"
"10/13/2020 12:00:00 AM";"01209";"Meteorenweg";"4.88130901";"52.41472045";"10"
"10/13/2020 12:00:00 AM";"01210";"Kometensingel";"4.88262603";"52.41652359";"10"
"10/13/2020 12:00:00 AM";"01211";"Kometensingel";"4.88284527";"52.41663238";"66"
"10/13/2020 12:00:00 AM";"01212";"Oostzanerdijk";"4.88149588";"52.42023965";"73"
"10/13/2020 12:00:00 AM";"01213";"Oostzanerdijk";"4.88083286";"52.42037163";"10"
"10/13/2020 12:00:00 AM";"01214";"Bovenkruier";"4.88405513";"52.42011573";"119"
"10/13/2020 12:00:00 AM";"01215";"Bovenkruier";"4.88414138";"52.42028686";"27"
"10/13/2020 12:00:00 AM";"01216";"Petmolen";"4.88552082";"52.41790200";"82"
"10/13/2020 12:00:00 AM";"01219";"Petmolen";"4.88623439";"52.41719500";"17"
"10/13/2020 12:00:00 AM";"01223";"Standerdmolen";"4.89327050";"52.41630780";"69"
"10/13/2020 12:00:00 AM";"01225";"Appelweg";"4.89540742";"52.41580439";"10"
"10/13/2020 12:00:00 AM";"01226";"Druivenstraat";"4.89870428";"52.41274426";"20"
"10/13/2020 12:00:00 AM";"01227";"Druivenstraat";"4.89810627";"52.41232837";"26"
"10/13/2020 12:00:00 AM";"01228";"Ananasplein";"4.89555645";"52.41032256";"27"
"10/13/2020 12:00:00 AM";"01229";"Ananasplein";"4.89611082";"52.41069335";"52"
"10/13/2020 12:00:00 AM";"01237";"Beemsterstraat";"4.95210741";"52.39712521";"240"
"10/13/2020 12:00:00 AM";"01277";"Statenjachtstraat";"4.91364478";"52.40790666";"136"
"10/13/2020 12:00:00 AM";"01278";"Statenjachtstraat";"4.91380643";"52.40790731";"187"
"10/13/2020 12:00:00 AM";"01305";"Station Noord";"4.93215715";"52.40264056";"114"
"10/13/2020 12:00:00 AM";"01314";"Station Noord";"4.93342661";"52.40207921";"27"
"10/13/2020 12:00:00 AM";"01315";"Station Noord";"4.93339740";"52.40206112";"269"
"10/13/2020 12:00:00 AM";"01316";"Station Noord";"4.93336820";"52.40204304";"133"
"10/13/2020 12:00:00 AM";"01325";"Volkstuin";"4.96871945";"52.38677738";"11"
"10/13/2020 12:00:00 AM";"01328";"Winkelcentrum";"4.93733535";"52.39772613";"51"
"10/13/2020 12:00:00 AM";"01329";"Stenendokweg";"4.89310573";"52.40867661";"193"
"10/13/2020 12:00:00 AM";"01330";"Stenendokweg";"4.89295540";"52.40766038";"24"
"10/13/2020 12:00:00 AM";"01339";"G.J. Scheurleerweg";"4.92911695";"52.40391408";"21"
"10/13/2020 12:00:00 AM";"01340";"G.J. Scheurleerweg";"4.92914820";"52.40373445";"25"
"10/13/2020 12:00:00 AM";"01351";"Oosterlengte";"4.92232257";"52.40582894";"33"
"10/13/2020 12:00:00 AM";"01352";"Oosterlengte";"4.92206974";"52.40611555";"147"
"10/13/2020 12:00:00 AM";"01353";"BovenIJ ziekenhuis";"4.92002004";"52.40538848";"43"
"10/13/2020 12:00:00 AM";"01354";"BovenIJ ziekenhuis";"4.92010489";"52.40570338";"64"
"10/13/2020 12:00:00 AM";"01359";"Molenwijk";"4.89361832";"52.41807082";"155"
"10/13/2020 12:00:00 AM";"01360";"Buiksloterwegveer";"4.90574018";"52.38338343";"25"
"10/13/2020 12:00:00 AM";"01361";"Molenwijk";"4.89363353";"52.41802595";"83"
"10/13/2020 12:00:00 AM";"01362";"Molenwijk";"4.89364883";"52.41797209";"58"
"10/13/2020 12:00:00 AM";"01363";"Buikslotermeerplein";"4.93968364";"52.39943369";"224"
"10/13/2020 12:00:00 AM";"01364";"Buikslotermeerplein";"4.93887054";"52.39992493";"202"
"10/13/2020 12:00:00 AM";"01374";"Buiksloterwegveer";"4.90562327";"52.38332903";"13"
"10/13/2020 12:00:00 AM";"01388";"Liergouw";"4.97048749";"52.38308071";"18"
"10/13/2020 12:00:00 AM";"01389";"Liergouw";"4.97076402";"52.38335131";"38"
"10/13/2020 12:00:00 AM";"01402";"Floraweg";"4.90614362";"52.39899665";"97"
"10/13/2020 12:00:00 AM";"01403";"Distelweg";"4.90268094";"52.39451567";"51"
