"Datum";"UurgroepOmschrijving (van vertrek)";"VertrekHalteCode";"VertrekHalteNaam";"VertrekLat";"VertrekLon";"AantalReizen"
"10/5/2020 12:00:00 AM";"00:00 - 00:59";"";"Overig";"";"";"20"
"10/5/2020 12:00:00 AM";"01:00 - 01:59";"";"Overig";"";"";"50"
"10/5/2020 12:00:00 AM";"01:00 - 01:59";"05100";"Centraal Station";"4.90068332";"52.37974972";"10"
"10/5/2020 12:00:00 AM";"02:00 - 02:59";"";"Overig";"";"";"57"
"10/5/2020 12:00:00 AM";"03:00 - 03:59";"";"Overig";"";"";"39"
"10/5/2020 12:00:00 AM";"04:00 - 04:59";"";"Overig";"";"";"155"
"10/5/2020 12:00:00 AM";"05:00 - 05:59";"";"Overig";"";"";"727"
"10/5/2020 12:00:00 AM";"05:00 - 05:59";"03101";"Lambertus Zijlplein";"4.80300456";"52.37726788";"10"
"10/5/2020 12:00:00 AM";"05:00 - 05:59";"03129";"Plein '40 - '45";"4.82112671";"52.38075328";"10"
"10/5/2020 12:00:00 AM";"05:00 - 05:59";"04410";"Baden Powellweg";"4.79518898";"52.35105663";"13"
"10/5/2020 12:00:00 AM";"05:00 - 05:59";"04412";"Hoekenes";"4.80261063";"52.35255853";"12"
"10/5/2020 12:00:00 AM";"05:00 - 05:59";"BLW";"Bullewijk";"4.95233581";"52.30642205";"43"
"10/5/2020 12:00:00 AM";"05:00 - 05:59";"BMR";"Station Bijlmer ArenA";"4.94713474";"52.31193030";"33"
"10/5/2020 12:00:00 AM";"05:00 - 05:59";"CLL";"Station Lelylaan";"4.83426589";"52.35766291";"13"
"10/5/2020 12:00:00 AM";"05:00 - 05:59";"CS";"Centraal Station";"4.90078150";"52.37749421";"26"
"10/5/2020 12:00:00 AM";"05:00 - 05:59";"DPP";"De Pijp";"4.89101069";"52.35296212";"11"
"10/5/2020 12:00:00 AM";"05:00 - 05:59";"GN";"Gein";"4.98952268";"52.29627089";"61"
"10/5/2020 12:00:00 AM";"05:00 - 05:59";"GPP";"Gaasperplas";"4.98468551";"52.31080575";"10"
"10/5/2020 12:00:00 AM";"05:00 - 05:59";"GZH";"Station Ganzenhoef";"4.97323379";"52.32331315";"51"
"10/5/2020 12:00:00 AM";"05:00 - 05:59";"HLD";"Station Holendrecht";"4.96021904";"52.29780451";"41"
"10/5/2020 12:00:00 AM";"05:00 - 05:59";"KEN";"Kraaienneststation";"4.97963450";"52.31632492";"58"
"10/5/2020 12:00:00 AM";"05:00 - 05:59";"ND";"Noord";"4.93123182";"52.40117202";"101"
"10/5/2020 12:00:00 AM";"05:00 - 05:59";"NDP";"Noorderpark";"4.91789115";"52.38855518";"27"
"10/5/2020 12:00:00 AM";"05:00 - 05:59";"RGB";"Reigersbos";"4.97473728";"52.29566301";"60"
"10/5/2020 12:00:00 AM";"05:00 - 05:59";"STD";"Station Sloterdijk";"4.83878389";"52.38880848";"23"
"10/5/2020 12:00:00 AM";"05:00 - 05:59";"SVT";"Strandvliet";"4.94152820";"52.31825469";"33"
"10/5/2020 12:00:00 AM";"05:00 - 05:59";"VLN";"Burg.de Vlugtlaan";"4.83809109";"52.37951196";"24"
"10/5/2020 12:00:00 AM";"05:00 - 05:59";"VPD";"Venserpolder";"4.94665009";"52.32679428";"10"
"10/5/2020 12:00:00 AM";"05:00 - 05:59";"WBS";"Wibautstraat";"4.91202993";"52.35428867";"13"
"10/5/2020 12:00:00 AM";"05:00 - 05:59";"WTC";"Station Zuid";"4.87509853";"52.33908015";"10"
"10/5/2020 12:00:00 AM";"06:00 - 06:59";"";"Overig";"";"";"1788"
"10/5/2020 12:00:00 AM";"06:00 - 06:59";"[[ Onb";"[[ Onbekend ]]";"0.00000000";"0.00000000";"14"
"10/5/2020 12:00:00 AM";"06:00 - 06:59";"00005";"Muiderpoortstation";"4.93280219";"52.36121887";"25"
"10/5/2020 12:00:00 AM";"06:00 - 06:59";"00010";"Dapperstraat";"4.92891486";"52.36092527";"15"
"10/5/2020 12:00:00 AM";"06:00 - 06:59";"00076";"Brinkstraat";"4.94742604";"52.34324474";"10"
"10/5/2020 12:00:00 AM";"06:00 - 06:59";"00116";"Station Ganzenhoef";"4.97272915";"52.32237665";"22"
"10/5/2020 12:00:00 AM";"06:00 - 06:59";"00141";"Kraaienneststation";"4.97868390";"52.31603403";"25"
"10/5/2020 12:00:00 AM";"06:00 - 06:59";"00144";"Kikkenstein";"4.97237050";"52.31680298";"13"
"10/5/2020 12:00:00 AM";"06:00 - 06:59";"00150";"Tulastraat";"4.96535973";"52.31994189";"18"
"10/5/2020 12:00:00 AM";"06:00 - 06:59";"00152";"Florijn";"4.95859163";"52.31758973";"22"
"10/5/2020 12:00:00 AM";"06:00 - 06:59";"00198";"Annie Romeinplein";"4.96998049";"52.32143226";"17"
"10/5/2020 12:00:00 AM";"06:00 - 06:59";"00433";"Diemerbrug";"4.96098811";"52.33837807";"12"
"10/5/2020 12:00:00 AM";"06:00 - 06:59";"01071";"Waterlandplein";"4.95393688";"52.39183820";"15"
"10/5/2020 12:00:00 AM";"06:00 - 06:59";"01219";"Petmolen";"4.88623439";"52.41719500";"10"
"10/5/2020 12:00:00 AM";"06:00 - 06:59";"01359";"Molenwijk";"4.89361832";"52.41807082";"10"
"10/5/2020 12:00:00 AM";"06:00 - 06:59";"02103";"Spaarndammerstraat";"4.87765867";"52.39216375";"10"
"10/5/2020 12:00:00 AM";"06:00 - 06:59";"02113";"Haarlemmerplein";"4.88371739";"52.38516129";"23"
"10/5/2020 12:00:00 AM";"06:00 - 06:59";"02170";"Spaarndammerstraat";"4.87723089";"52.39231470";"15"
"10/5/2020 12:00:00 AM";"06:00 - 06:59";"02177";"Bos en Lommerweg";"4.85521256";"52.38101018";"11"
"10/5/2020 12:00:00 AM";"06:00 - 06:59";"02222";"Jan van Galenstraat";"4.85874763";"52.37399761";"11"
"10/5/2020 12:00:00 AM";"06:00 - 06:59";"02361";"Station Sloterdijk";"4.83931858";"52.38833460";"21"
"10/5/2020 12:00:00 AM";"06:00 - 06:59";"02367";"Station Sloterdijk";"4.83876429";"52.38801747";"10"
"10/5/2020 12:00:00 AM";"06:00 - 06:59";"03009";"Witte de Withstraat";"4.85851970";"52.36478416";"10"
"10/5/2020 12:00:00 AM";"06:00 - 06:59";"03091";"Slotermeerlaan";"4.82076888";"52.37542183";"10"
"10/5/2020 12:00:00 AM";"06:00 - 06:59";"03098";"Burg. v. Leeuwenlaan";"4.81209115";"52.37644954";"18"
"10/5/2020 12:00:00 AM";"06:00 - 06:59";"03101";"Lambertus Zijlplein";"4.80300456";"52.37726788";"40"
"10/5/2020 12:00:00 AM";"06:00 - 06:59";"03106";"Troelstralaan";"4.80145216";"52.37471668";"10"
"10/5/2020 12:00:00 AM";"06:00 - 06:59";"03122";"Aalbersestraat";"4.79897224";"52.38232600";"17"
"10/5/2020 12:00:00 AM";"06:00 - 06:59";"03123";"Dr. H. Colijnstraat";"4.80565355";"52.38244888";"15"
"10/5/2020 12:00:00 AM";"06:00 - 06:59";"03130";"Plein '40 - '45";"4.82267774";"52.38121007";"31"
"10/5/2020 12:00:00 AM";"06:00 - 06:59";"03132";"Burg. R?ellstraat";"4.81950345";"52.37676393";"15"
"10/5/2020 12:00:00 AM";"06:00 - 06:59";"03167";"Bos en Lommerplein";"4.84650668";"52.37709704";"21"
"10/5/2020 12:00:00 AM";"06:00 - 06:59";"03172";"Burg. Rendorpstraat";"4.82691962";"52.37445346";"12"
"10/5/2020 12:00:00 AM";"06:00 - 06:59";"03197";"W. Schoutenstraat";"4.85238084";"52.36737202";"13"
"10/5/2020 12:00:00 AM";"06:00 - 06:59";"04008";"Dijkgraafplein";"4.78646982";"52.35545267";"18"
"10/5/2020 12:00:00 AM";"06:00 - 06:59";"04011";"Baden Powellweg";"4.79172542";"52.35650384";"58"
"10/5/2020 12:00:00 AM";"06:00 - 06:59";"04015";"Hoekenes";"4.79927973";"52.35802459";"27"
"10/5/2020 12:00:00 AM";"06:00 - 06:59";"04022";"Osdorpplein";"4.80322217";"52.35962596";"19"
"10/5/2020 12:00:00 AM";"06:00 - 06:59";"04049";"Meer en Vaart";"4.81058859";"52.35647140";"15"
"10/5/2020 12:00:00 AM";"06:00 - 06:59";"04063";"Johan Huizingalaan";"4.82626398";"52.35778704";"10"
"10/5/2020 12:00:00 AM";"06:00 - 06:59";"04195";"Station Lelylaan";"4.83460082";"52.35788018";"16"
"10/5/2020 12:00:00 AM";"06:00 - 06:59";"04274";"Schiphol Airport/Plaza";"4.76104997";"52.30939292";"11"
"10/5/2020 12:00:00 AM";"06:00 - 06:59";"04406";"Inaristraat";"4.78314823";"52.35036664";"12"
"10/5/2020 12:00:00 AM";"06:00 - 06:59";"04410";"Baden Powellweg";"4.79518898";"52.35105663";"32"
"10/5/2020 12:00:00 AM";"06:00 - 06:59";"04412";"Hoekenes";"4.80261063";"52.35255853";"22"
"10/5/2020 12:00:00 AM";"06:00 - 06:59";"05011";"Centraal Station";"4.89921803";"52.37810793";"77"
"10/5/2020 12:00:00 AM";"06:00 - 06:59";"05022";"Centraal Station";"4.90104337";"52.37771998";"57"
"10/5/2020 12:00:00 AM";"06:00 - 06:59";"05073";"Westermarkt";"4.88453426";"52.37400204";"10"
"10/5/2020 12:00:00 AM";"06:00 - 06:59";"05097";"Centraal Station";"4.90087651";"52.37954379";"14"
"10/5/2020 12:00:00 AM";"06:00 - 06:59";"05103";"Centraal Station";"4.90127481";"52.37938365";"14"
"10/5/2020 12:00:00 AM";"06:00 - 06:59";"06002";"Surinameplein";"4.85090753";"52.35807202";"13"
"10/5/2020 12:00:00 AM";"06:00 - 06:59";"06016";"J.P. Heijestraat";"4.86239635";"52.36472951";"14"
"10/5/2020 12:00:00 AM";"06:00 - 06:59";"06115";"Postjesweg";"4.85319014";"52.36478720";"10"
"10/5/2020 12:00:00 AM";"06:00 - 06:59";"07513";"Sacharovlaan";"4.83264484";"52.28179795";"11"
"10/5/2020 12:00:00 AM";"06:00 - 06:59";"08119";"Insulindeweg";"4.94765323";"52.36476217";"10"
"10/5/2020 12:00:00 AM";"06:00 - 06:59";"08121";"Soembawastraat";"4.94391980";"52.36224967";"11"
"10/5/2020 12:00:00 AM";"06:00 - 06:59";"08129";"Molukkenstraat";"4.93861286";"52.36150167";"19"
"10/5/2020 12:00:00 AM";"06:00 - 06:59";"08131";"Valentijnkade";"4.94073898";"52.35884036";"13"
"10/5/2020 12:00:00 AM";"06:00 - 06:59";"08238";"Rietlandpark";"4.93350159";"52.37322013";"11"
"10/5/2020 12:00:00 AM";"06:00 - 06:59";"08240";"Zuiderzeeweg";"4.96116314";"52.37212752";"18"
"10/5/2020 12:00:00 AM";"06:00 - 06:59";"08244";"Steigereiland";"4.98083725";"52.36280456";"16"
"10/5/2020 12:00:00 AM";"06:00 - 06:59";"08246";"Vennepluimstraat";"4.99104399";"52.35749148";"24"
"10/5/2020 12:00:00 AM";"06:00 - 06:59";"08248";"Diemerparklaan";"4.99546869";"52.35512447";"13"
"10/5/2020 12:00:00 AM";"06:00 - 06:59";"08250";"Lumi?restraat";"4.99992218";"52.35276637";"23"
"10/5/2020 12:00:00 AM";"06:00 - 06:59";"08262";"IJburg";"5.00486802";"52.35112872";"21"
"10/5/2020 12:00:00 AM";"06:00 - 06:59";"09090";"Lutmastraat";"4.90331220";"52.35148513";"12"
"10/5/2020 12:00:00 AM";"06:00 - 06:59";"09096";"Van Woustraat";"4.90163035";"52.35495650";"10"
"10/5/2020 12:00:00 AM";"06:00 - 06:59";"ASA";"Amstelstation";"4.91751426";"52.34647326";"124"
"10/5/2020 12:00:00 AM";"06:00 - 06:59";"ASW";"Amstelveenseweg";"4.85798324";"52.33836671";"50"
"10/5/2020 12:00:00 AM";"06:00 - 06:59";"BLW";"Bullewijk";"4.95233581";"52.30642205";"84"
"10/5/2020 12:00:00 AM";"06:00 - 06:59";"BMR";"Station Bijlmer ArenA";"4.94713474";"52.31193030";"129"
"10/5/2020 12:00:00 AM";"06:00 - 06:59";"CLL";"Station Lelylaan";"4.83426589";"52.35766291";"64"
"10/5/2020 12:00:00 AM";"06:00 - 06:59";"CS";"Centraal Station";"4.90078150";"52.37749421";"250"
"10/5/2020 12:00:00 AM";"06:00 - 06:59";"DMZ";"Station Diemen-Zuid";"4.95713273";"52.33042795";"31"
"10/5/2020 12:00:00 AM";"06:00 - 06:59";"DPP";"De Pijp";"4.89101069";"52.35296212";"76"
"10/5/2020 12:00:00 AM";"06:00 - 06:59";"DVD";"Station Duivendrecht";"4.93678429";"52.32325190";"68"
"10/5/2020 12:00:00 AM";"06:00 - 06:59";"EPP";"Europaplein";"4.89138430";"52.34185482";"21"
"10/5/2020 12:00:00 AM";"06:00 - 06:59";"GN";"Gein";"4.98952268";"52.29627089";"133"
"10/5/2020 12:00:00 AM";"06:00 - 06:59";"GPP";"Gaasperplas";"4.98468551";"52.31080575";"33"
"10/5/2020 12:00:00 AM";"06:00 - 06:59";"GZH";"Station Ganzenhoef";"4.97323379";"52.32331315";"132"
"10/5/2020 12:00:00 AM";"06:00 - 06:59";"HDS";"Heemstedestraat";"4.83421208";"52.35255760";"25"
"10/5/2020 12:00:00 AM";"06:00 - 06:59";"HLD";"Station Holendrecht";"4.96021904";"52.29780451";"96"
"10/5/2020 12:00:00 AM";"06:00 - 06:59";"HVW";"Henk Sneevlietweg";"4.83439318";"52.34626699";"44"
"10/5/2020 12:00:00 AM";"06:00 - 06:59";"JLS";"Jan v.Galenstraat";"4.83492461";"52.37196551";"48"
"10/5/2020 12:00:00 AM";"06:00 - 06:59";"KEN";"Kraaienneststation";"4.97963450";"52.31632492";"156"
"10/5/2020 12:00:00 AM";"06:00 - 06:59";"MDW";"Van der Madeweg";"4.93048657";"52.32945629";"16"
"10/5/2020 12:00:00 AM";"06:00 - 06:59";"ND";"Noord";"4.93123182";"52.40117202";"322"
"10/5/2020 12:00:00 AM";"06:00 - 06:59";"NDP";"Noorderpark";"4.91789115";"52.38855518";"122"
"10/5/2020 12:00:00 AM";"06:00 - 06:59";"NMT";"Nieuwmarkt";"4.90123885";"52.37194169";"31"
"10/5/2020 12:00:00 AM";"06:00 - 06:59";"PJW";"Postjesweg";"4.83385543";"52.36468044";"47"
"10/5/2020 12:00:00 AM";"06:00 - 06:59";"RAI";"Station RAI";"4.88982004";"52.33739931";"34"
"10/5/2020 12:00:00 AM";"06:00 - 06:59";"RGB";"Reigersbos";"4.97473728";"52.29566301";"153"
"10/5/2020 12:00:00 AM";"06:00 - 06:59";"RKN";"Rokin";"4.89229651";"52.36928023";"17"
"10/5/2020 12:00:00 AM";"06:00 - 06:59";"SLW";"Spaklerweg";"4.92085640";"52.33986250";"27"
"10/5/2020 12:00:00 AM";"06:00 - 06:59";"STD";"Station Sloterdijk";"4.83878389";"52.38880848";"137"
"10/5/2020 12:00:00 AM";"06:00 - 06:59";"SVT";"Strandvliet";"4.94152820";"52.31825469";"76"
"10/5/2020 12:00:00 AM";"06:00 - 06:59";"VLN";"Burg.de Vlugtlaan";"4.83809109";"52.37951196";"56"
"10/5/2020 12:00:00 AM";"06:00 - 06:59";"VPD";"Venserpolder";"4.94665009";"52.32679428";"43"
"10/5/2020 12:00:00 AM";"06:00 - 06:59";"VSW";"Verrijn Stuartweg";"4.96693669";"52.32844093";"16"
"10/5/2020 12:00:00 AM";"06:00 - 06:59";"VZG";"Vijzelgracht";"4.89072870";"52.35980061";"22"
"10/5/2020 12:00:00 AM";"06:00 - 06:59";"WBS";"Wibautstraat";"4.91202993";"52.35428867";"88"
"10/5/2020 12:00:00 AM";"06:00 - 06:59";"WLP";"Waterlooplein";"4.90298171";"52.36697862";"25"
"10/5/2020 12:00:00 AM";"06:00 - 06:59";"WPP";"Weesperplein";"4.90787469";"52.36120146";"39"
"10/5/2020 12:00:00 AM";"06:00 - 06:59";"WTC";"Station Zuid";"4.87509853";"52.33908015";"131"
"10/5/2020 12:00:00 AM";"07:00 - 07:59";"";"Overig";"";"";"2058"
"10/5/2020 12:00:00 AM";"07:00 - 07:59";"[[ Onb";"[[ Onbekend ]]";"0.00000000";"0.00000000";"18"
"10/5/2020 12:00:00 AM";"07:00 - 07:59";"00001";"Muiderpoortstation";"4.93287450";"52.36132700";"24"
"10/5/2020 12:00:00 AM";"07:00 - 07:59";"00005";"Muiderpoortstation";"4.93280219";"52.36121887";"37"
"10/5/2020 12:00:00 AM";"07:00 - 07:59";"00006";"Muiderpoortstation";"4.93368466";"52.36106048";"20"
"10/5/2020 12:00:00 AM";"07:00 - 07:59";"00007";"Muiderpoortstation";"4.93356602";"52.36117686";"13"
"10/5/2020 12:00:00 AM";"07:00 - 07:59";"00010";"Dapperstraat";"4.92891486";"52.36092527";"54"
"10/5/2020 12:00:00 AM";"07:00 - 07:59";"00017";"Linnaeusstraat";"4.92573745";"52.36013099";"16"
"10/5/2020 12:00:00 AM";"07:00 - 07:59";"00019";"Diemerknoop";"5.00296377";"52.33543002";"10"
"10/5/2020 12:00:00 AM";"07:00 - 07:59";"00020";"Beukenweg";"4.91674979";"52.35906203";"17"
"10/5/2020 12:00:00 AM";"07:00 - 07:59";"00030";"Oostpoort";"4.92694026";"52.35739442";"10"
"10/5/2020 12:00:00 AM";"07:00 - 07:59";"00060";"Radioweg";"4.93979325";"52.35363291";"10"
"10/5/2020 12:00:00 AM";"07:00 - 07:59";"00076";"Brinkstraat";"4.94742604";"52.34324474";"15"
"10/5/2020 12:00:00 AM";"07:00 - 07:59";"00116";"Station Ganzenhoef";"4.97272915";"52.32237665";"45"
"10/5/2020 12:00:00 AM";"07:00 - 07:59";"00135";"Koornhorst";"4.98396309";"52.31931470";"21"
"10/5/2020 12:00:00 AM";"07:00 - 07:59";"00141";"Kraaienneststation";"4.97868390";"52.31603403";"26"
"10/5/2020 12:00:00 AM";"07:00 - 07:59";"00147";"Gooioord";"4.96936376";"52.31994711";"10"
"10/5/2020 12:00:00 AM";"07:00 - 07:59";"00150";"Tulastraat";"4.96535973";"52.31994189";"39"
"10/5/2020 12:00:00 AM";"07:00 - 07:59";"00151";"Tulastraat";"4.96584458";"52.31985374";"19"
"10/5/2020 12:00:00 AM";"07:00 - 07:59";"00152";"Florijn";"4.95859163";"52.31758973";"40"
"10/5/2020 12:00:00 AM";"07:00 - 07:59";"00153";"Florijn";"4.95971907";"52.31778255";"15"
"10/5/2020 12:00:00 AM";"07:00 - 07:59";"00168";"Hogevecht";"4.95997517";"52.30945181";"10"
"10/5/2020 12:00:00 AM";"07:00 - 07:59";"00173";"Holendrechtplein";"4.96309454";"52.29910910";"20"
"10/5/2020 12:00:00 AM";"07:00 - 07:59";"00174";"Maasdrielhof";"4.96548788";"52.30180501";"23"
"10/5/2020 12:00:00 AM";"07:00 - 07:59";"00179";"Kelbergen";"4.97179997";"52.31351146";"19"
"10/5/2020 12:00:00 AM";"07:00 - 07:59";"00198";"Annie Romeinplein";"4.96998049";"52.32143226";"25"
"10/5/2020 12:00:00 AM";"07:00 - 07:59";"00199";"Station Ganzenhoef";"4.97329456";"52.32308866";"12"
"10/5/2020 12:00:00 AM";"07:00 - 07:59";"00200";"Station Ganzenhoef";"4.97508507";"52.32297807";"10"
"10/5/2020 12:00:00 AM";"07:00 - 07:59";"00205";"Station Holendrecht";"4.95865657";"52.29716971";"10"
"10/5/2020 12:00:00 AM";"07:00 - 07:59";"00238";"Anton de Komplein";"4.95413359";"52.31603659";"27"
"10/5/2020 12:00:00 AM";"07:00 - 07:59";"00239";"Anton de Komplein";"4.95597669";"52.31652866";"17"
"10/5/2020 12:00:00 AM";"07:00 - 07:59";"00334";"Scherpenzeelstraat";"4.97740256";"52.29276921";"16"
"10/5/2020 12:00:00 AM";"07:00 - 07:59";"00352";"Dostojevskisingel";"4.94457408";"52.32314649";"12"
"10/5/2020 12:00:00 AM";"07:00 - 07:59";"00433";"Diemerbrug";"4.96098811";"52.33837807";"31"
"10/5/2020 12:00:00 AM";"07:00 - 07:59";"00441";"Muiderpoortstation";"4.93254137";"52.36088532";"34"
"10/5/2020 12:00:00 AM";"07:00 - 07:59";"00453";"Diemen Sniep";"4.96964866";"52.33644962";"11"
"10/5/2020 12:00:00 AM";"07:00 - 07:59";"00552";"Kraaienneststation";"4.98156548";"52.31686183";"19"
"10/5/2020 12:00:00 AM";"07:00 - 07:59";"00553";"Kraaienneststation";"4.98073727";"52.31601414";"23"
"10/5/2020 12:00:00 AM";"07:00 - 07:59";"00561";"Station Bijlmer ArenA";"4.94741931";"52.31132918";"19"
"10/5/2020 12:00:00 AM";"07:00 - 07:59";"00562";"Station Bijlmer ArenA";"4.94736012";"52.31138289";"11"
"10/5/2020 12:00:00 AM";"07:00 - 07:59";"01001";"Hilversumstraat";"4.95884418";"52.39025625";"20"
"10/5/2020 12:00:00 AM";"07:00 - 07:59";"01002";"Hilversumstraat";"4.95898142";"52.38973546";"14"
"10/5/2020 12:00:00 AM";"07:00 - 07:59";"01005";"Volendammerweg";"4.95680438";"52.39306199";"22"
"10/5/2020 12:00:00 AM";"07:00 - 07:59";"01006";"Purmerweg";"4.94847513";"52.39002955";"10"
"10/5/2020 12:00:00 AM";"07:00 - 07:59";"01060";"Wervershoofstraat";"4.94038537";"52.39249788";"13"
"10/5/2020 12:00:00 AM";"07:00 - 07:59";"01062";"Nieuwe Purmerweg";"4.93413606";"52.39448737";"14"
"10/5/2020 12:00:00 AM";"07:00 - 07:59";"01069";"De Egmondenstraat";"4.94948278";"52.39361036";"19"
"10/5/2020 12:00:00 AM";"07:00 - 07:59";"01071";"Waterlandplein";"4.95393688";"52.39183820";"31"
"10/5/2020 12:00:00 AM";"07:00 - 07:59";"01077";"Dijkmanshuizenstraat";"4.95440778";"52.39627083";"21"
"10/5/2020 12:00:00 AM";"07:00 - 07:59";"01091";"Beemsterstraat";"4.95105959";"52.39759770";"20"
"10/5/2020 12:00:00 AM";"07:00 - 07:59";"01107";"Spelderholt";"4.94419255";"52.40109537";"11"
"10/5/2020 12:00:00 AM";"07:00 - 07:59";"01155";"Mosplein";"4.91358361";"52.39300490";"10"
"10/5/2020 12:00:00 AM";"07:00 - 07:59";"01156";"Sneeuwbalstraat";"4.91395944";"52.39633184";"18"
"10/5/2020 12:00:00 AM";"07:00 - 07:59";"01167";"Tjalkstraat";"4.91007632";"52.40492643";"36"
"10/5/2020 12:00:00 AM";"07:00 - 07:59";"01168";"Tjalkstraat";"4.91116991";"52.40572174";"11"
"10/5/2020 12:00:00 AM";"07:00 - 07:59";"01171";"Voordek";"4.91677702";"52.41048960";"14"
"10/5/2020 12:00:00 AM";"07:00 - 07:59";"01172";"Voordek";"4.91743292";"52.41100450";"13"
"10/5/2020 12:00:00 AM";"07:00 - 07:59";"01173";"Tussendek";"4.91923925";"52.41253056";"13"
"10/5/2020 12:00:00 AM";"07:00 - 07:59";"01178";"Masthof";"4.92600624";"52.41194593";"20"
"10/5/2020 12:00:00 AM";"07:00 - 07:59";"01180";"Grootzeil";"4.92316491";"52.40818700";"24"
"10/5/2020 12:00:00 AM";"07:00 - 07:59";"01204";"Meteorensingel";"4.89107380";"52.41033083";"10"
"10/5/2020 12:00:00 AM";"07:00 - 07:59";"01206";"Maanstraat";"4.88683437";"52.41222737";"23"
"10/5/2020 12:00:00 AM";"07:00 - 07:59";"01210";"Kometensingel";"4.88262603";"52.41652359";"10"
"10/5/2020 12:00:00 AM";"07:00 - 07:59";"01215";"Bovenkruier";"4.88414138";"52.42028686";"37"
"10/5/2020 12:00:00 AM";"07:00 - 07:59";"01219";"Petmolen";"4.88623439";"52.41719500";"24"
"10/5/2020 12:00:00 AM";"07:00 - 07:59";"01277";"Statenjachtstraat";"4.91364478";"52.40790666";"27"
"10/5/2020 12:00:00 AM";"07:00 - 07:59";"01314";"Station Noord";"4.93342661";"52.40207921";"11"
"10/5/2020 12:00:00 AM";"07:00 - 07:59";"01315";"Station Noord";"4.93339740";"52.40206112";"22"
"10/5/2020 12:00:00 AM";"07:00 - 07:59";"01316";"Station Noord";"4.93336820";"52.40204304";"11"
"10/5/2020 12:00:00 AM";"07:00 - 07:59";"01346";"Nageljongenstraat";"4.89894497";"52.40824245";"40"
"10/5/2020 12:00:00 AM";"07:00 - 07:59";"01351";"Oosterlengte";"4.92232257";"52.40582894";"18"
"10/5/2020 12:00:00 AM";"07:00 - 07:59";"01359";"Molenwijk";"4.89361832";"52.41807082";"36"
"10/5/2020 12:00:00 AM";"07:00 - 07:59";"01366";"Atat?rk";"4.89776534";"52.40327640";"11"
"10/5/2020 12:00:00 AM";"07:00 - 07:59";"01370";"Pomonastraat";"4.89547014";"52.40883025";"17"
"10/5/2020 12:00:00 AM";"07:00 - 07:59";"01414";"Olof Palmeplein";"4.94012168";"52.39679298";"20"
"10/5/2020 12:00:00 AM";"07:00 - 07:59";"01443";"Volendammerweg";"4.95697086";"52.39255928";"26"
"10/5/2020 12:00:00 AM";"07:00 - 07:59";"02086";"Solebaystraat";"4.85594303";"52.38501299";"12"
"10/5/2020 12:00:00 AM";"07:00 - 07:59";"02103";"Spaarndammerstraat";"4.87765867";"52.39216375";"10"
"10/5/2020 12:00:00 AM";"07:00 - 07:59";"02104";"Houtmankade";"4.88393178";"52.39086040";"12"
"10/5/2020 12:00:00 AM";"07:00 - 07:59";"02107";"Assendelftstraat";"4.87984170";"52.38882970";"19"
"10/5/2020 12:00:00 AM";"07:00 - 07:59";"02113";"Haarlemmerplein";"4.88371739";"52.38516129";"36"
"10/5/2020 12:00:00 AM";"07:00 - 07:59";"02114";"Haarlemmerplein";"4.88341252";"52.38484542";"18"
"10/5/2020 12:00:00 AM";"07:00 - 07:59";"02125";"Bloemgracht";"4.87632342";"52.37417361";"12"
"10/5/2020 12:00:00 AM";"07:00 - 07:59";"02131";"Hugo de Grootplein";"4.87292199";"52.37496778";"18"
"10/5/2020 12:00:00 AM";"07:00 - 07:59";"02133";"Fred. Hendrikplants.";"4.87521709";"52.37842002";"12"
"10/5/2020 12:00:00 AM";"07:00 - 07:59";"02137";"Kostverlorenstraat";"4.87173645";"52.37968118";"10"
"10/5/2020 12:00:00 AM";"07:00 - 07:59";"02141";"V.d. Hoopstraat";"4.87037134";"52.38339614";"11"
"10/5/2020 12:00:00 AM";"07:00 - 07:59";"02145";"Van Hallstraat";"4.86990682";"52.38418503";"12"
"10/5/2020 12:00:00 AM";"07:00 - 07:59";"02148";"Van L.Stirumstraat";"4.87517891";"52.38427085";"15"
"10/5/2020 12:00:00 AM";"07:00 - 07:59";"02150";"De Wittenkade";"4.87717527";"52.38310208";"11"
"10/5/2020 12:00:00 AM";"07:00 - 07:59";"02154";"De Clercqstraat";"4.87052824";"52.37119150";"11"
"10/5/2020 12:00:00 AM";"07:00 - 07:59";"02155";"Willem de Zwijgerlaan";"4.86360306";"52.37071170";"10"
"10/5/2020 12:00:00 AM";"07:00 - 07:59";"02156";"Willem de Zwijgerlaan";"4.86425293";"52.37039101";"26"
"10/5/2020 12:00:00 AM";"07:00 - 07:59";"02157";"Adm. de Ruijterweg";"4.86009910";"52.37148707";"20"
"10/5/2020 12:00:00 AM";"07:00 - 07:59";"02158";"Adm. de Ruijterweg";"4.86096776";"52.37129320";"22"
"10/5/2020 12:00:00 AM";"07:00 - 07:59";"02164";"De Rijpstraat";"4.85776890";"52.37725578";"17"
"10/5/2020 12:00:00 AM";"07:00 - 07:59";"02166";"Bos en Lommerweg";"4.85548704";"52.38016657";"20"
"10/5/2020 12:00:00 AM";"07:00 - 07:59";"02167";"Bos en Lommerweg";"4.85380049";"52.38118358";"11"
"10/5/2020 12:00:00 AM";"07:00 - 07:59";"02169";"Wiltzanghlaan";"4.85218893";"52.38206609";"37"
"10/5/2020 12:00:00 AM";"07:00 - 07:59";"02170";"Spaarndammerstraat";"4.87723089";"52.39231470";"42"
"10/5/2020 12:00:00 AM";"07:00 - 07:59";"02171";"Wiltzanghlaan";"4.85060722";"52.38290378";"21"
"10/5/2020 12:00:00 AM";"07:00 - 07:59";"02177";"Bos en Lommerweg";"4.85521256";"52.38101018";"27"
"10/5/2020 12:00:00 AM";"07:00 - 07:59";"02182";"Markthallen";"4.86695146";"52.37567869";"10"
"10/5/2020 12:00:00 AM";"07:00 - 07:59";"02192";"Marnixplein";"4.87860283";"52.37773357";"15"
"10/5/2020 12:00:00 AM";"07:00 - 07:59";"02199";"Eerste Marnixdwarsstraat";"4.88203787";"52.38302405";"13"
"10/5/2020 12:00:00 AM";"07:00 - 07:59";"02221";"Jan v.Galenstraat";"4.85842340";"52.37532634";"11"
"10/5/2020 12:00:00 AM";"07:00 - 07:59";"02222";"Jan van Galenstraat";"4.85874763";"52.37399761";"27"
"10/5/2020 12:00:00 AM";"07:00 - 07:59";"02321";"Van Hallstraat";"4.86864429";"52.38538386";"13"
"10/5/2020 12:00:00 AM";"07:00 - 07:59";"02361";"Station Sloterdijk";"4.83931858";"52.38833460";"45"
"10/5/2020 12:00:00 AM";"07:00 - 07:59";"02365";"Station Sloterdijk";"4.83873236";"52.38822404";"28"
"10/5/2020 12:00:00 AM";"07:00 - 07:59";"02367";"Station Sloterdijk";"4.83876429";"52.38801747";"27"
"10/5/2020 12:00:00 AM";"07:00 - 07:59";"02368";"Station Sloterdijk";"4.83877999";"52.38793665";"10"
"10/5/2020 12:00:00 AM";"07:00 - 07:59";"02370";"Station Sloterdijk";"4.83879745";"52.38771204";"27"
"10/5/2020 12:00:00 AM";"07:00 - 07:59";"02371";"Station Sloterdijk";"4.83882961";"52.38748749";"15"
"10/5/2020 12:00:00 AM";"07:00 - 07:59";"03009";"Witte de Withstraat";"4.85851970";"52.36478416";"19"
"10/5/2020 12:00:00 AM";"07:00 - 07:59";"03010";"Witte de Withstraat";"4.85928290";"52.36480554";"18"
"10/5/2020 12:00:00 AM";"07:00 - 07:59";"03022";"Mercatorplein";"4.85070310";"52.37012367";"13"
"10/5/2020 12:00:00 AM";"07:00 - 07:59";"03023";"Marco Polostraat";"4.85520189";"52.37088096";"20"
"10/5/2020 12:00:00 AM";"07:00 - 07:59";"03024";"Marco Polostraat";"4.85546532";"52.37095405";"11"
"10/5/2020 12:00:00 AM";"07:00 - 07:59";"03028";"Jan van Galenstraat";"4.84921138";"52.37204926";"23"
"10/5/2020 12:00:00 AM";"07:00 - 07:59";"03061";"Bos en Lommerplein";"4.84523530";"52.37778328";"21"
"10/5/2020 12:00:00 AM";"07:00 - 07:59";"03091";"Slotermeerlaan";"4.82076888";"52.37542183";"24"
"10/5/2020 12:00:00 AM";"07:00 - 07:59";"03098";"Burg. v. Leeuwenlaan";"4.81209115";"52.37644954";"54"
"10/5/2020 12:00:00 AM";"07:00 - 07:59";"03100";"Dr. H. Colijnstraat";"4.80626901";"52.37695140";"21"
"10/5/2020 12:00:00 AM";"07:00 - 07:59";"03101";"Lambertus Zijlplein";"4.80300456";"52.37726788";"124"
"10/5/2020 12:00:00 AM";"07:00 - 07:59";"03109";"Herman Bonpad";"4.80064754";"52.36893356";"11"
"10/5/2020 12:00:00 AM";"07:00 - 07:59";"03114";"De Sav. Lohmanstraat";"4.80079644";"52.37544144";"12"
"10/5/2020 12:00:00 AM";"07:00 - 07:59";"03115";"Michel de Klerkhof";"4.79770398";"52.37608219";"15"
"10/5/2020 12:00:00 AM";"07:00 - 07:59";"03118";"Sam van Houtenstraat";"4.79800745";"52.37976868";"14"
"10/5/2020 12:00:00 AM";"07:00 - 07:59";"03121";"Aalbersestraat";"4.79774249";"52.38202329";"14"
"10/5/2020 12:00:00 AM";"07:00 - 07:59";"03122";"Aalbersestraat";"4.79897224";"52.38232600";"43"
"10/5/2020 12:00:00 AM";"07:00 - 07:59";"03123";"Dr. H. Colijnstraat";"4.80565355";"52.38244888";"38"
"10/5/2020 12:00:00 AM";"07:00 - 07:59";"03125";"Anth. Moddermanstraat";"4.81338292";"52.38330447";"17"
"10/5/2020 12:00:00 AM";"07:00 - 07:59";"03129";"Plein '40 - '45";"4.82112671";"52.38075328";"12"
"10/5/2020 12:00:00 AM";"07:00 - 07:59";"03130";"Plein '40 - '45";"4.82267774";"52.38121007";"105"
"10/5/2020 12:00:00 AM";"07:00 - 07:59";"03132";"Burg. R?ellstraat";"4.81950345";"52.37676393";"24"
"10/5/2020 12:00:00 AM";"07:00 - 07:59";"03150";"Mercatorplein";"4.85011339";"52.37031872";"17"
"10/5/2020 12:00:00 AM";"07:00 - 07:59";"03167";"Bos en Lommerplein";"4.84650668";"52.37709704";"39"
"10/5/2020 12:00:00 AM";"07:00 - 07:59";"03168";"Mercatorplein";"4.85152392";"52.37024423";"24"
"10/5/2020 12:00:00 AM";"07:00 - 07:59";"03172";"Burg. Rendorpstraat";"4.82691962";"52.37445346";"21"
"10/5/2020 12:00:00 AM";"07:00 - 07:59";"03178";"Mercatorplein";"4.84991664";"52.37080317";"12"
"10/5/2020 12:00:00 AM";"07:00 - 07:59";"03197";"W. Schoutenstraat";"4.85238084";"52.36737202";"27"
"10/5/2020 12:00:00 AM";"07:00 - 07:59";"03198";"W. Schoutenstraat";"4.85259061";"52.36702245";"16"
"10/5/2020 12:00:00 AM";"07:00 - 07:59";"04008";"Dijkgraafplein";"4.78646982";"52.35545267";"65"
"10/5/2020 12:00:00 AM";"07:00 - 07:59";"04011";"Baden Powellweg";"4.79172542";"52.35650384";"121"
"10/5/2020 12:00:00 AM";"07:00 - 07:59";"04015";"Hoekenes";"4.79927973";"52.35802459";"68"
"10/5/2020 12:00:00 AM";"07:00 - 07:59";"04022";"Osdorpplein";"4.80322217";"52.35962596";"74"
"10/5/2020 12:00:00 AM";"07:00 - 07:59";"04042";"Ruimzicht";"4.80758369";"52.35951258";"14"
"10/5/2020 12:00:00 AM";"07:00 - 07:59";"04049";"Meer en Vaart";"4.81058859";"52.35647140";"60"
"10/5/2020 12:00:00 AM";"07:00 - 07:59";"04063";"Johan Huizingalaan";"4.82626398";"52.35778704";"29"
"10/5/2020 12:00:00 AM";"07:00 - 07:59";"04065";"Ruimzicht";"4.80773259";"52.35935153";"11"
"10/5/2020 12:00:00 AM";"07:00 - 07:59";"04089";"Louwesweg";"4.82514186";"52.34670876";"13"
"10/5/2020 12:00:00 AM";"07:00 - 07:59";"04116";"Heemstedestraat";"4.83416670";"52.35148784";"12"
"10/5/2020 12:00:00 AM";"07:00 - 07:59";"04131";"Jan Tooropstraat";"4.83575744";"52.36403320";"10"
"10/5/2020 12:00:00 AM";"07:00 - 07:59";"04195";"Station Lelylaan";"4.83460082";"52.35788018";"50"
"10/5/2020 12:00:00 AM";"07:00 - 07:59";"04196";"Station Lelylaan";"4.83382251";"52.35790351";"23"
"10/5/2020 12:00:00 AM";"07:00 - 07:59";"04274";"Schiphol Airport/Plaza";"4.76104997";"52.30939292";"15"
"10/5/2020 12:00:00 AM";"07:00 - 07:59";"04276";"Laan v.Vlaanderen";"4.81567936";"52.34643875";"30"
"10/5/2020 12:00:00 AM";"07:00 - 07:59";"04278";"Kasterleepark";"4.81061791";"52.34630634";"32"
"10/5/2020 12:00:00 AM";"07:00 - 07:59";"04313";"Hageland";"4.81136124";"52.34444050";"24"
"10/5/2020 12:00:00 AM";"07:00 - 07:59";"04314";"Oudenaardeplantsoen";"4.80382615";"52.34495185";"26"
"10/5/2020 12:00:00 AM";"07:00 - 07:59";"04402";"Matterhorn";"4.77477998";"52.35372103";"29"
"10/5/2020 12:00:00 AM";"07:00 - 07:59";"04404";"Pilatus";"4.77668386";"52.35296690";"36"
"10/5/2020 12:00:00 AM";"07:00 - 07:59";"04406";"Inaristraat";"4.78314823";"52.35036664";"54"
"10/5/2020 12:00:00 AM";"07:00 - 07:59";"04408";"Ecuplein";"4.78886514";"52.34981147";"55"
"10/5/2020 12:00:00 AM";"07:00 - 07:59";"04410";"Baden Powellweg";"4.79518898";"52.35105663";"59"
"10/5/2020 12:00:00 AM";"07:00 - 07:59";"04412";"Hoekenes";"4.80261063";"52.35255853";"54"
"10/5/2020 12:00:00 AM";"07:00 - 07:59";"04414";"Louis Davidsstraat";"4.80910976";"52.35392963";"11"
"10/5/2020 12:00:00 AM";"07:00 - 07:59";"05011";"Centraal Station";"4.89921803";"52.37810793";"252"
"10/5/2020 12:00:00 AM";"07:00 - 07:59";"05022";"Centraal Station";"4.90104337";"52.37771998";"149"
"10/5/2020 12:00:00 AM";"07:00 - 07:59";"05065";"Dam";"4.89079364";"52.37367792";"21"
"10/5/2020 12:00:00 AM";"07:00 - 07:59";"05073";"Westermarkt";"4.88453426";"52.37400204";"25"
"10/5/2020 12:00:00 AM";"07:00 - 07:59";"05093";"Barentszplein";"4.89156209";"52.38901415";"11"
"10/5/2020 12:00:00 AM";"07:00 - 07:59";"05097";"Centraal Station";"4.90087651";"52.37954379";"25"
"10/5/2020 12:00:00 AM";"07:00 - 07:59";"05103";"Centraal Station";"4.90127481";"52.37938365";"27"
"10/5/2020 12:00:00 AM";"07:00 - 07:59";"05104";"Centraal Station";"4.90164343";"52.37925034";"28"
"10/5/2020 12:00:00 AM";"07:00 - 07:59";"05105";"Centraal Station";"4.90187762";"52.37932321";"19"
"10/5/2020 12:00:00 AM";"07:00 - 07:59";"05107";"Centraal Station";"4.90195282";"52.37916174";"27"
"10/5/2020 12:00:00 AM";"07:00 - 07:59";"06001";"Surinameplein";"4.85252231";"52.35807034";"21"
"10/5/2020 12:00:00 AM";"07:00 - 07:59";"06002";"Surinameplein";"4.85090753";"52.35807202";"35"
"10/5/2020 12:00:00 AM";"07:00 - 07:59";"06016";"J.P. Heijestraat";"4.86239635";"52.36472951";"34"
"10/5/2020 12:00:00 AM";"07:00 - 07:59";"06017";"J.P. Heijestraat";"4.86292316";"52.36487565";"20"
"10/5/2020 12:00:00 AM";"07:00 - 07:59";"06019";"Ten Katestraat";"4.86737423";"52.36591988";"26"
"10/5/2020 12:00:00 AM";"07:00 - 07:59";"06020";"Ten Katestraat";"4.86773990";"52.36603832";"24"
"10/5/2020 12:00:00 AM";"07:00 - 07:59";"06021";"Bilderdijkstraat";"4.87176488";"52.36712545";"20"
"10/5/2020 12:00:00 AM";"07:00 - 07:59";"06027";"Elandsgracht";"4.87855189";"52.36808953";"18"
"10/5/2020 12:00:00 AM";"07:00 - 07:59";"06034";"Bilderdijkstraat";"4.87082347";"52.37105798";"11"
"10/5/2020 12:00:00 AM";"07:00 - 07:59";"06037";"Bilderdijkstraat";"4.86985701";"52.37082906";"10"
"10/5/2020 12:00:00 AM";"07:00 - 07:59";"06046";"1e Con. Huygensstraat";"4.87487082";"52.36262709";"10"
"10/5/2020 12:00:00 AM";"07:00 - 07:59";"06048";"J.P. Heijestraat";"4.86585368";"52.36037674";"13"
"10/5/2020 12:00:00 AM";"07:00 - 07:59";"06049";"J.P. Heijestraat";"4.86671778";"52.36055131";"21"
"10/5/2020 12:00:00 AM";"07:00 - 07:59";"06067";"Leidseplein";"4.88301434";"52.36431580";"10"
"10/5/2020 12:00:00 AM";"07:00 - 07:59";"06082";"Rhijnvis Feithstraat";"4.85967683";"52.35883943";"18"
"10/5/2020 12:00:00 AM";"07:00 - 07:59";"06089";"Leidseplein";"4.88085541";"52.36309324";"18"
"10/5/2020 12:00:00 AM";"07:00 - 07:59";"06114";"Hoofdweg";"4.85444451";"52.36425359";"26"
"10/5/2020 12:00:00 AM";"07:00 - 07:59";"07049";"Hoofddorpplein";"4.84958188";"52.35117239";"25"
"10/5/2020 12:00:00 AM";"07:00 - 07:59";"07050";"Haarlemmermeerstation";"4.85744749";"52.34883508";"11"
"10/5/2020 12:00:00 AM";"07:00 - 07:59";"07098";"Olympiaplein";"4.86659057";"52.34636807";"15"
"10/5/2020 12:00:00 AM";"07:00 - 07:59";"07108";"Olympiaweg";"4.85873730";"52.34528169";"19"
"10/5/2020 12:00:00 AM";"07:00 - 07:59";"07191";"Station Zuid";"4.87340673";"52.34072657";"12"
"10/5/2020 12:00:00 AM";"07:00 - 07:59";"07193";"Station Zuid";"4.87334616";"52.34088808";"28"
"10/5/2020 12:00:00 AM";"07:00 - 07:59";"07268";"Station Zuid";"4.87428608";"52.34082026";"27"
"10/5/2020 12:00:00 AM";"07:00 - 07:59";"07269";"Station Zuid";"4.87374306";"52.34082689";"38"
"10/5/2020 12:00:00 AM";"07:00 - 07:59";"07271";"Parnassusweg";"4.86866745";"52.33818033";"12"
"10/5/2020 12:00:00 AM";"07:00 - 07:59";"07418";"Van Boshuizenstraat";"4.86902148";"52.32544617";"19"
"10/5/2020 12:00:00 AM";"07:00 - 07:59";"07422";"Uilenstede";"4.86917604";"52.32225618";"18"
"10/5/2020 12:00:00 AM";"07:00 - 07:59";"07434";"Onderuit";"4.87257685";"52.30851066";"29"
"10/5/2020 12:00:00 AM";"07:00 - 07:59";"07438";"Oranjebaan";"4.87217918";"52.30360157";"23"
"10/5/2020 12:00:00 AM";"07:00 - 07:59";"07443";"Zonnestein";"4.87228656";"52.31205060";"20"
"10/5/2020 12:00:00 AM";"07:00 - 07:59";"07445";"Amstelveen Stadshart";"4.86751502";"52.30124433";"25"
"10/5/2020 12:00:00 AM";"07:00 - 07:59";"07513";"Sacharovlaan";"4.83264484";"52.28179795";"21"
"10/5/2020 12:00:00 AM";"07:00 - 07:59";"07515";"Middenhoven / Brink";"4.85221152";"52.28033320";"28"
"10/5/2020 12:00:00 AM";"07:00 - 07:59";"07516";"Praam";"4.85549985";"52.27984471";"15"
"10/5/2020 12:00:00 AM";"07:00 - 07:59";"07517";"Logger";"4.86003037";"52.28334331";"11"
"10/5/2020 12:00:00 AM";"07:00 - 07:59";"07518";"Seine";"4.86664439";"52.28419950";"17"
"10/5/2020 12:00:00 AM";"07:00 - 07:59";"07520";"Groenhof";"4.86835403";"52.28965367";"22"
"10/5/2020 12:00:00 AM";"07:00 - 07:59";"07521";"Ziekenhuis";"4.87192175";"52.29419017";"24"
"10/5/2020 12:00:00 AM";"07:00 - 07:59";"08008";"Wittenburgergracht";"4.91947244";"52.36955249";"10"
"10/5/2020 12:00:00 AM";"07:00 - 07:59";"08009";"Bob Haarmslaan";"4.96859205";"52.36915214";"13"
"10/5/2020 12:00:00 AM";"07:00 - 07:59";"08013";"Azartplein";"4.93734445";"52.37656023";"14"
"10/5/2020 12:00:00 AM";"07:00 - 07:59";"08051";"K. 's-Gravesandestr.";"4.91366120";"52.36235720";"14"
"10/5/2020 12:00:00 AM";"07:00 - 07:59";"08053";"Weesperplein";"4.90655690";"52.36088154";"12"
"10/5/2020 12:00:00 AM";"07:00 - 07:59";"08055";"Borneolaan";"4.93819040";"52.37133261";"18"
"10/5/2020 12:00:00 AM";"07:00 - 07:59";"08058";"Veelaan";"4.93961588";"52.36830916";"17"
"10/5/2020 12:00:00 AM";"07:00 - 07:59";"08059";"Veelaan";"4.93944523";"52.36776026";"14"
"10/5/2020 12:00:00 AM";"07:00 - 07:59";"08096";"Alexanderplein";"4.91931589";"52.36351213";"12"
"10/5/2020 12:00:00 AM";"07:00 - 07:59";"08097";"1e v.Swindenstraat";"4.92412105";"52.36168854";"10"
"10/5/2020 12:00:00 AM";"07:00 - 07:59";"08113";"Javaplein";"4.93949828";"52.36395867";"20"
"10/5/2020 12:00:00 AM";"07:00 - 07:59";"08114";"Javaplein";"4.93955537";"52.36412066";"11"
"10/5/2020 12:00:00 AM";"07:00 - 07:59";"08119";"Insulindeweg";"4.94765323";"52.36476217";"19"
"10/5/2020 12:00:00 AM";"07:00 - 07:59";"08121";"Soembawastraat";"4.94391980";"52.36224967";"27"
"10/5/2020 12:00:00 AM";"07:00 - 07:59";"08129";"Molukkenstraat";"4.93861286";"52.36150167";"25"
"10/5/2020 12:00:00 AM";"07:00 - 07:59";"08131";"Valentijnkade";"4.94073898";"52.35884036";"17"
"10/5/2020 12:00:00 AM";"07:00 - 07:59";"08190";"Molukkenstraat";"4.93934614";"52.36157635";"21"
"10/5/2020 12:00:00 AM";"07:00 - 07:59";"08194";"Oostenburgergracht";"4.92430564";"52.36791775";"13"
"10/5/2020 12:00:00 AM";"07:00 - 07:59";"08208";"Levantplein";"4.94239073";"52.37711855";"13"
"10/5/2020 12:00:00 AM";"07:00 - 07:59";"08223";"Peter Martensstraat";"5.01420969";"52.34855209";"11"
"10/5/2020 12:00:00 AM";"07:00 - 07:59";"08225";"Majanggracht";"4.92934446";"52.37904612";"10"
"10/5/2020 12:00:00 AM";"07:00 - 07:59";"08236";"Kattenburgerstraat";"4.92203232";"52.37607865";"30"
"10/5/2020 12:00:00 AM";"07:00 - 07:59";"08238";"Rietlandpark";"4.93350159";"52.37322013";"40"
"10/5/2020 12:00:00 AM";"07:00 - 07:59";"08239";"Rietlandpark";"4.93413567";"52.37296191";"18"
"10/5/2020 12:00:00 AM";"07:00 - 07:59";"08240";"Zuiderzeeweg";"4.96116314";"52.37212752";"32"
"10/5/2020 12:00:00 AM";"07:00 - 07:59";"08241";"Zuiderzeeweg";"4.96185517";"52.37193228";"11"
"10/5/2020 12:00:00 AM";"07:00 - 07:59";"08244";"Steigereiland";"4.98083725";"52.36280456";"63"
"10/5/2020 12:00:00 AM";"07:00 - 07:59";"08246";"Vennepluimstraat";"4.99104399";"52.35749148";"81"
"10/5/2020 12:00:00 AM";"07:00 - 07:59";"08247";"Vennepluimstraat";"4.99057242";"52.35769662";"14"
"10/5/2020 12:00:00 AM";"07:00 - 07:59";"08248";"Diemerparklaan";"4.99546869";"52.35512447";"77"
"10/5/2020 12:00:00 AM";"07:00 - 07:59";"08250";"Lumi?restraat";"4.99992218";"52.35276637";"63"
"10/5/2020 12:00:00 AM";"07:00 - 07:59";"08262";"IJburg";"5.00486802";"52.35112872";"81"
"10/5/2020 12:00:00 AM";"07:00 - 07:59";"08281";"Vennepluimstraat";"4.99139941";"52.35714215";"14"
"10/5/2020 12:00:00 AM";"07:00 - 07:59";"08285";"Lumierestraat";"5.00018928";"52.35243470";"13"
"10/5/2020 12:00:00 AM";"07:00 - 07:59";"08290";"Molukkenstraat";"4.94016678";"52.36172326";"10"
"10/5/2020 12:00:00 AM";"07:00 - 07:59";"08299";"P.Oosterhuisstraat";"5.00794301";"52.35197446";"14"
"10/5/2020 12:00:00 AM";"07:00 - 07:59";"09013";"Amstelstation";"4.91790223";"52.34725673";"35"
"10/5/2020 12:00:00 AM";"07:00 - 07:59";"09015";"Amstelstation";"4.91940405";"52.34679531";"16"
"10/5/2020 12:00:00 AM";"07:00 - 07:59";"09049";"Victorieplein";"4.90570139";"52.34637186";"22"
"10/5/2020 12:00:00 AM";"07:00 - 07:59";"09051";"Victorieplein";"4.90653699";"52.34645615";"12"
"10/5/2020 12:00:00 AM";"07:00 - 07:59";"09096";"Van Woustraat";"4.90163035";"52.35495650";"10"
"10/5/2020 12:00:00 AM";"07:00 - 07:59";"09097";"Van Woustraat";"4.90084070";"52.35468363";"10"
"10/5/2020 12:00:00 AM";"07:00 - 07:59";"09111";"De Pijp";"4.89073444";"52.35272728";"12"
"10/5/2020 12:00:00 AM";"07:00 - 07:59";"09114";"De Pijp";"4.88948829";"52.35259622";"17"
"10/5/2020 12:00:00 AM";"07:00 - 07:59";"ASA";"Amstelstation";"4.91751426";"52.34647326";"323"
"10/5/2020 12:00:00 AM";"07:00 - 07:59";"ASW";"Amstelveenseweg";"4.85798324";"52.33836671";"91"
"10/5/2020 12:00:00 AM";"07:00 - 07:59";"BLW";"Bullewijk";"4.95233581";"52.30642205";"159"
"10/5/2020 12:00:00 AM";"07:00 - 07:59";"BMR";"Station Bijlmer ArenA";"4.94713474";"52.31193030";"226"
"10/5/2020 12:00:00 AM";"07:00 - 07:59";"CLL";"Station Lelylaan";"4.83426589";"52.35766291";"188"
"10/5/2020 12:00:00 AM";"07:00 - 07:59";"CS";"Centraal Station";"4.90078150";"52.37749421";"647"
"10/5/2020 12:00:00 AM";"07:00 - 07:59";"DMZ";"Station Diemen-Zuid";"4.95713273";"52.33042795";"73"
"10/5/2020 12:00:00 AM";"07:00 - 07:59";"DPP";"De Pijp";"4.89101069";"52.35296212";"180"
"10/5/2020 12:00:00 AM";"07:00 - 07:59";"DVD";"Station Duivendrecht";"4.93678429";"52.32325190";"144"
"10/5/2020 12:00:00 AM";"07:00 - 07:59";"EPP";"Europaplein";"4.89138430";"52.34185482";"78"
"10/5/2020 12:00:00 AM";"07:00 - 07:59";"GN";"Gein";"4.98952268";"52.29627089";"288"
"10/5/2020 12:00:00 AM";"07:00 - 07:59";"GPP";"Gaasperplas";"4.98468551";"52.31080575";"59"
"10/5/2020 12:00:00 AM";"07:00 - 07:59";"GZH";"Station Ganzenhoef";"4.97323379";"52.32331315";"189"
"10/5/2020 12:00:00 AM";"07:00 - 07:59";"HDS";"Heemstedestraat";"4.83421208";"52.35255760";"71"
"10/5/2020 12:00:00 AM";"07:00 - 07:59";"HLD";"Station Holendrecht";"4.96021904";"52.29780451";"237"
"10/5/2020 12:00:00 AM";"07:00 - 07:59";"HVW";"Henk Sneevlietweg";"4.83439318";"52.34626699";"80"
"10/5/2020 12:00:00 AM";"07:00 - 07:59";"JLS";"Jan v.Galenstraat";"4.83492461";"52.37196551";"112"
"10/5/2020 12:00:00 AM";"07:00 - 07:59";"KEN";"Kraaienneststation";"4.97963450";"52.31632492";"208"
"10/5/2020 12:00:00 AM";"07:00 - 07:59";"MDW";"Van der Madeweg";"4.93048657";"52.32945629";"58"
"10/5/2020 12:00:00 AM";"07:00 - 07:59";"ND";"Noord";"4.93123182";"52.40117202";"839"
"10/5/2020 12:00:00 AM";"07:00 - 07:59";"NDP";"Noorderpark";"4.91789115";"52.38855518";"255"
"10/5/2020 12:00:00 AM";"07:00 - 07:59";"NMT";"Nieuwmarkt";"4.90123885";"52.37194169";"74"
"10/5/2020 12:00:00 AM";"07:00 - 07:59";"OAS";"Overamstel";"4.91815361";"52.33179879";"14"
"10/5/2020 12:00:00 AM";"07:00 - 07:59";"PJW";"Postjesweg";"4.83385543";"52.36468044";"113"
"10/5/2020 12:00:00 AM";"07:00 - 07:59";"RAI";"Station RAI";"4.88982004";"52.33739931";"62"
"10/5/2020 12:00:00 AM";"07:00 - 07:59";"RGB";"Reigersbos";"4.97473728";"52.29566301";"292"
"10/5/2020 12:00:00 AM";"07:00 - 07:59";"RKN";"Rokin";"4.89229651";"52.36928023";"66"
"10/5/2020 12:00:00 AM";"07:00 - 07:59";"SLW";"Spaklerweg";"4.92085640";"52.33986250";"74"
"10/5/2020 12:00:00 AM";"07:00 - 07:59";"STD";"Station Sloterdijk";"4.83878389";"52.38880848";"493"
"10/5/2020 12:00:00 AM";"07:00 - 07:59";"SVT";"Strandvliet";"4.94152820";"52.31825469";"114"
"10/5/2020 12:00:00 AM";"07:00 - 07:59";"VLN";"Burg.de Vlugtlaan";"4.83809109";"52.37951196";"155"
"10/5/2020 12:00:00 AM";"07:00 - 07:59";"VPD";"Venserpolder";"4.94665009";"52.32679428";"86"
"10/5/2020 12:00:00 AM";"07:00 - 07:59";"VSW";"Verrijn Stuartweg";"4.96693669";"52.32844093";"32"
"10/5/2020 12:00:00 AM";"07:00 - 07:59";"VZG";"Vijzelgracht";"4.89072870";"52.35980061";"53"
"10/5/2020 12:00:00 AM";"07:00 - 07:59";"WBS";"Wibautstraat";"4.91202993";"52.35428867";"171"
"10/5/2020 12:00:00 AM";"07:00 - 07:59";"WLP";"Waterlooplein";"4.90298171";"52.36697862";"76"
"10/5/2020 12:00:00 AM";"07:00 - 07:59";"WPP";"Weesperplein";"4.90787469";"52.36120146";"99"
"10/5/2020 12:00:00 AM";"07:00 - 07:59";"WTC";"Station Zuid";"4.87509853";"52.33908015";"356"
"10/5/2020 12:00:00 AM";"08:00 - 08:59";"";"Overig";"";"";"2076"
"10/5/2020 12:00:00 AM";"08:00 - 08:59";"[[ Onb";"[[ Onbekend ]]";"0.00000000";"0.00000000";"65"
"10/5/2020 12:00:00 AM";"08:00 - 08:59";"00001";"Muiderpoortstation";"4.93287450";"52.36132700";"15"
"10/5/2020 12:00:00 AM";"08:00 - 08:59";"00005";"Muiderpoortstation";"4.93280219";"52.36121887";"74"
"10/5/2020 12:00:00 AM";"08:00 - 08:59";"00006";"Muiderpoortstation";"4.93368466";"52.36106048";"18"
"10/5/2020 12:00:00 AM";"08:00 - 08:59";"00007";"Muiderpoortstation";"4.93356602";"52.36117686";"23"
"10/5/2020 12:00:00 AM";"08:00 - 08:59";"00010";"Dapperstraat";"4.92891486";"52.36092527";"62"
"10/5/2020 12:00:00 AM";"08:00 - 08:59";"00017";"Linnaeusstraat";"4.92573745";"52.36013099";"30"
"10/5/2020 12:00:00 AM";"08:00 - 08:59";"00019";"Diemerknoop";"5.00296377";"52.33543002";"10"
"10/5/2020 12:00:00 AM";"08:00 - 08:59";"00020";"Beukenweg";"4.91674979";"52.35906203";"41"
"10/5/2020 12:00:00 AM";"08:00 - 08:59";"00021";"Beukenweg";"4.91721293";"52.35829991";"15"
"10/5/2020 12:00:00 AM";"08:00 - 08:59";"00029";"Oostpoort";"4.92719316";"52.35707185";"26"
"10/5/2020 12:00:00 AM";"08:00 - 08:59";"00030";"Oostpoort";"4.92694026";"52.35739442";"13"
"10/5/2020 12:00:00 AM";"08:00 - 08:59";"00039";"Hogeweg";"4.93084015";"52.35358075";"14"
"10/5/2020 12:00:00 AM";"08:00 - 08:59";"00062";"Archimedesweg";"4.93987652";"52.35556558";"10"
"10/5/2020 12:00:00 AM";"08:00 - 08:59";"00066";"Hugo de Vrieslaan";"4.93540468";"52.35073118";"23"
"10/5/2020 12:00:00 AM";"08:00 - 08:59";"00076";"Brinkstraat";"4.94742604";"52.34324474";"33"
"10/5/2020 12:00:00 AM";"08:00 - 08:59";"00116";"Station Ganzenhoef";"4.97272915";"52.32237665";"44"
"10/5/2020 12:00:00 AM";"08:00 - 08:59";"00119";"Echtenstein";"4.95972461";"52.32482898";"10"
"10/5/2020 12:00:00 AM";"08:00 - 08:59";"00134";"Koornhorst";"4.98400929";"52.31907218";"18"
"10/5/2020 12:00:00 AM";"08:00 - 08:59";"00135";"Koornhorst";"4.98396309";"52.31931470";"24"
"10/5/2020 12:00:00 AM";"08:00 - 08:59";"00141";"Kraaienneststation";"4.97868390";"52.31603403";"52"
"10/5/2020 12:00:00 AM";"08:00 - 08:59";"00144";"Kikkenstein";"4.97237050";"52.31680298";"10"
"10/5/2020 12:00:00 AM";"08:00 - 08:59";"00147";"Gooioord";"4.96936376";"52.31994711";"16"
"10/5/2020 12:00:00 AM";"08:00 - 08:59";"00150";"Tulastraat";"4.96535973";"52.31994189";"42"
"10/5/2020 12:00:00 AM";"08:00 - 08:59";"00151";"Tulastraat";"4.96584458";"52.31985374";"23"
"10/5/2020 12:00:00 AM";"08:00 - 08:59";"00152";"Florijn";"4.95859163";"52.31758973";"50"
"10/5/2020 12:00:00 AM";"08:00 - 08:59";"00153";"Florijn";"4.95971907";"52.31778255";"14"
"10/5/2020 12:00:00 AM";"08:00 - 08:59";"00157";"Dolingadreef";"4.94847023";"52.31925132";"10"
"10/5/2020 12:00:00 AM";"08:00 - 08:59";"00168";"Hogevecht";"4.95997517";"52.30945181";"14"
"10/5/2020 12:00:00 AM";"08:00 - 08:59";"00170";"Huigenbos";"4.96083553";"52.30689339";"11"
"10/5/2020 12:00:00 AM";"08:00 - 08:59";"00173";"Holendrechtplein";"4.96309454";"52.29910910";"20"
"10/5/2020 12:00:00 AM";"08:00 - 08:59";"00174";"Maasdrielhof";"4.96548788";"52.30180501";"18"
"10/5/2020 12:00:00 AM";"08:00 - 08:59";"00179";"Kelbergen";"4.97179997";"52.31351146";"16"
"10/5/2020 12:00:00 AM";"08:00 - 08:59";"00180";"Kelbergen";"4.97143303";"52.31354612";"10"
"10/5/2020 12:00:00 AM";"08:00 - 08:59";"00197";"Annie Romeinplein";"4.97162041";"52.32173463";"19"
"10/5/2020 12:00:00 AM";"08:00 - 08:59";"00198";"Annie Romeinplein";"4.96998049";"52.32143226";"36"
"10/5/2020 12:00:00 AM";"08:00 - 08:59";"00199";"Station Ganzenhoef";"4.97329456";"52.32308866";"25"
"10/5/2020 12:00:00 AM";"08:00 - 08:59";"00205";"Station Holendrecht";"4.95865657";"52.29716971";"19"
"10/5/2020 12:00:00 AM";"08:00 - 08:59";"00238";"Anton de Komplein";"4.95413359";"52.31603659";"33"
"10/5/2020 12:00:00 AM";"08:00 - 08:59";"00239";"Anton de Komplein";"4.95597669";"52.31652866";"33"
"10/5/2020 12:00:00 AM";"08:00 - 08:59";"00338";"Staverdenplein";"4.98602093";"52.29282573";"10"
"10/5/2020 12:00:00 AM";"08:00 - 08:59";"00346";"Station Gein";"4.98935990";"52.29644111";"16"
"10/5/2020 12:00:00 AM";"08:00 - 08:59";"00351";"Dostojevskisingel";"4.94525272";"52.32275356";"10"
"10/5/2020 12:00:00 AM";"08:00 - 08:59";"00352";"Dostojevskisingel";"4.94457408";"52.32314649";"29"
"10/5/2020 12:00:00 AM";"08:00 - 08:59";"00433";"Diemerbrug";"4.96098811";"52.33837807";"36"
"10/5/2020 12:00:00 AM";"08:00 - 08:59";"00434";"Bijlmerplein";"4.95032022";"52.31457553";"13"
"10/5/2020 12:00:00 AM";"08:00 - 08:59";"00441";"Muiderpoortstation";"4.93254137";"52.36088532";"54"
"10/5/2020 12:00:00 AM";"08:00 - 08:59";"00442";"Beukenhorst";"4.96005659";"52.33759278";"10"
"10/5/2020 12:00:00 AM";"08:00 - 08:59";"00444";"Linnaeusstraat";"4.92490296";"52.35991203";"10"
"10/5/2020 12:00:00 AM";"08:00 - 08:59";"00453";"Diemen Sniep";"4.96964866";"52.33644962";"19"
"10/5/2020 12:00:00 AM";"08:00 - 08:59";"00509";"Arent Krijtsstraat";"4.95549045";"52.33940072";"28"
"10/5/2020 12:00:00 AM";"08:00 - 08:59";"00511";"Station Duivendrecht";"4.93682938";"52.32314422";"14"
"10/5/2020 12:00:00 AM";"08:00 - 08:59";"00512";"Middenweg";"4.93389832";"52.35020413";"14"
"10/5/2020 12:00:00 AM";"08:00 - 08:59";"00515";"Station Duivendrecht";"4.93669692";"52.32318866";"17"
"10/5/2020 12:00:00 AM";"08:00 - 08:59";"00552";"Kraaienneststation";"4.98156548";"52.31686183";"18"
"10/5/2020 12:00:00 AM";"08:00 - 08:59";"00553";"Kraaienneststation";"4.98073727";"52.31601414";"34"
"10/5/2020 12:00:00 AM";"08:00 - 08:59";"00560";"Station Bijlmer ArenA";"4.94747867";"52.31125750";"14"
"10/5/2020 12:00:00 AM";"08:00 - 08:59";"00561";"Station Bijlmer ArenA";"4.94741931";"52.31132918";"30"
"10/5/2020 12:00:00 AM";"08:00 - 08:59";"00562";"Station Bijlmer ArenA";"4.94736012";"52.31138289";"37"
"10/5/2020 12:00:00 AM";"08:00 - 08:59";"00568";"Station Bijlmer ArenA";"4.94762664";"52.31112323";"17"
"10/5/2020 12:00:00 AM";"08:00 - 08:59";"00978";"Tureluurweg";"4.97903855";"52.35086272";"10"
"10/5/2020 12:00:00 AM";"08:00 - 08:59";"00980";"Zeezigt";"4.97580794";"52.35262211";"10"
"10/5/2020 12:00:00 AM";"08:00 - 08:59";"00990";"Martin L.Kinglaan";"4.96527201";"52.34307603";"15"
"10/5/2020 12:00:00 AM";"08:00 - 08:59";"00994";"Burg. Bickerstraat";"4.96278104";"52.34115273";"13"
"10/5/2020 12:00:00 AM";"08:00 - 08:59";"00999";"Vinkenbrug";"4.97831599";"52.33370267";"14"
"10/5/2020 12:00:00 AM";"08:00 - 08:59";"01001";"Hilversumstraat";"4.95884418";"52.39025625";"22"
"10/5/2020 12:00:00 AM";"08:00 - 08:59";"01002";"Hilversumstraat";"4.95898142";"52.38973546";"26"
"10/5/2020 12:00:00 AM";"08:00 - 08:59";"01005";"Volendammerweg";"4.95680438";"52.39306199";"40"
"10/5/2020 12:00:00 AM";"08:00 - 08:59";"01006";"Purmerweg";"4.94847513";"52.39002955";"11"
"10/5/2020 12:00:00 AM";"08:00 - 08:59";"01060";"Wervershoofstraat";"4.94038537";"52.39249788";"16"
"10/5/2020 12:00:00 AM";"08:00 - 08:59";"01062";"Nieuwe Purmerweg";"4.93413606";"52.39448737";"14"
"10/5/2020 12:00:00 AM";"08:00 - 08:59";"01069";"De Egmondenstraat";"4.94948278";"52.39361036";"22"
"10/5/2020 12:00:00 AM";"08:00 - 08:59";"01071";"Waterlandplein";"4.95393688";"52.39183820";"76"
"10/5/2020 12:00:00 AM";"08:00 - 08:59";"01077";"Dijkmanshuizenstraat";"4.95440778";"52.39627083";"22"
"10/5/2020 12:00:00 AM";"08:00 - 08:59";"01078";"Dijkmanshuizenstraat";"4.95475323";"52.39549915";"18"
"10/5/2020 12:00:00 AM";"08:00 - 08:59";"01091";"Beemsterstraat";"4.95105959";"52.39759770";"21"
"10/5/2020 12:00:00 AM";"08:00 - 08:59";"01101";"Bakkerswaal";"4.93728965";"52.40222876";"11"
"10/5/2020 12:00:00 AM";"08:00 - 08:59";"01104";"Amerbos";"4.94255700";"52.40301260";"13"
"10/5/2020 12:00:00 AM";"08:00 - 08:59";"01107";"Spelderholt";"4.94419255";"52.40109537";"10"
"10/5/2020 12:00:00 AM";"08:00 - 08:59";"01108";"J. Drijverweg";"4.94437079";"52.39943333";"11"
"10/5/2020 12:00:00 AM";"08:00 - 08:59";"01109";"J. Drijverweg";"4.94420701";"52.39964842";"18"
"10/5/2020 12:00:00 AM";"08:00 - 08:59";"01151";"Mosplein";"4.91407704";"52.39357310";"16"
"10/5/2020 12:00:00 AM";"08:00 - 08:59";"01155";"Mosplein";"4.91358361";"52.39300490";"11"
"10/5/2020 12:00:00 AM";"08:00 - 08:59";"01156";"Sneeuwbalstraat";"4.91395944";"52.39633184";"19"
"10/5/2020 12:00:00 AM";"08:00 - 08:59";"01167";"Tjalkstraat";"4.91007632";"52.40492643";"51"
"10/5/2020 12:00:00 AM";"08:00 - 08:59";"01168";"Tjalkstraat";"4.91116991";"52.40572174";"17"
"10/5/2020 12:00:00 AM";"08:00 - 08:59";"01171";"Voordek";"4.91677702";"52.41048960";"20"
"10/5/2020 12:00:00 AM";"08:00 - 08:59";"01173";"Tussendek";"4.91923925";"52.41253056";"22"
"10/5/2020 12:00:00 AM";"08:00 - 08:59";"01174";"Tussendek";"4.91996775";"52.41313560";"22"
"10/5/2020 12:00:00 AM";"08:00 - 08:59";"01177";"Masthof";"4.92557694";"52.41224085";"10"
"10/5/2020 12:00:00 AM";"08:00 - 08:59";"01178";"Masthof";"4.92600624";"52.41194593";"21"
"10/5/2020 12:00:00 AM";"08:00 - 08:59";"01180";"Grootzeil";"4.92316491";"52.40818700";"23"
"10/5/2020 12:00:00 AM";"08:00 - 08:59";"01188";"Barkpad";"4.91148172";"52.40268517";"24"
"10/5/2020 12:00:00 AM";"08:00 - 08:59";"01189";"Pinksterbloemstraat";"4.91221693";"52.39852684";"17"
"10/5/2020 12:00:00 AM";"08:00 - 08:59";"01204";"Meteorensingel";"4.89107380";"52.41033083";"14"
"10/5/2020 12:00:00 AM";"08:00 - 08:59";"01206";"Maanstraat";"4.88683437";"52.41222737";"19"
"10/5/2020 12:00:00 AM";"08:00 - 08:59";"01213";"Oostzanerdijk";"4.88083286";"52.42037163";"13"
"10/5/2020 12:00:00 AM";"08:00 - 08:59";"01215";"Bovenkruier";"4.88414138";"52.42028686";"37"
"10/5/2020 12:00:00 AM";"08:00 - 08:59";"01219";"Petmolen";"4.88623439";"52.41719500";"20"
"10/5/2020 12:00:00 AM";"08:00 - 08:59";"01237";"Beemsterstraat";"4.95210741";"52.39712521";"13"
"10/5/2020 12:00:00 AM";"08:00 - 08:59";"01277";"Statenjachtstraat";"4.91364478";"52.40790666";"27"
"10/5/2020 12:00:00 AM";"08:00 - 08:59";"01314";"Station Noord";"4.93342661";"52.40207921";"48"
"10/5/2020 12:00:00 AM";"08:00 - 08:59";"01315";"Station Noord";"4.93339740";"52.40206112";"52"
"10/5/2020 12:00:00 AM";"08:00 - 08:59";"01346";"Nageljongenstraat";"4.89894497";"52.40824245";"46"
"10/5/2020 12:00:00 AM";"08:00 - 08:59";"01351";"Oosterlengte";"4.92232257";"52.40582894";"15"
"10/5/2020 12:00:00 AM";"08:00 - 08:59";"01359";"Molenwijk";"4.89361832";"52.41807082";"24"
"10/5/2020 12:00:00 AM";"08:00 - 08:59";"01361";"Molenwijk";"4.89363353";"52.41802595";"10"
"10/5/2020 12:00:00 AM";"08:00 - 08:59";"01362";"Molenwijk";"4.89364883";"52.41797209";"13"
"10/5/2020 12:00:00 AM";"08:00 - 08:59";"01363";"Buikslotermeerplein";"4.93968364";"52.39943369";"19"
"10/5/2020 12:00:00 AM";"08:00 - 08:59";"01366";"Atat?rk";"4.89776534";"52.40327640";"14"
"10/5/2020 12:00:00 AM";"08:00 - 08:59";"01370";"Pomonastraat";"4.89547014";"52.40883025";"13"
"10/5/2020 12:00:00 AM";"08:00 - 08:59";"01414";"Olof Palmeplein";"4.94012168";"52.39679298";"24"
"10/5/2020 12:00:00 AM";"08:00 - 08:59";"01423";"Noorderpark";"4.91921998";"52.38930641";"17"
"10/5/2020 12:00:00 AM";"08:00 - 08:59";"01443";"Volendammerweg";"4.95697086";"52.39255928";"40"
"10/5/2020 12:00:00 AM";"08:00 - 08:59";"02086";"Solebaystraat";"4.85594303";"52.38501299";"15"
"10/5/2020 12:00:00 AM";"08:00 - 08:59";"02103";"Spaarndammerstraat";"4.87765867";"52.39216375";"13"
"10/5/2020 12:00:00 AM";"08:00 - 08:59";"02104";"Houtmankade";"4.88393178";"52.39086040";"14"
"10/5/2020 12:00:00 AM";"08:00 - 08:59";"02107";"Assendelftstraat";"4.87984170";"52.38882970";"24"
"10/5/2020 12:00:00 AM";"08:00 - 08:59";"02113";"Haarlemmerplein";"4.88371739";"52.38516129";"51"
"10/5/2020 12:00:00 AM";"08:00 - 08:59";"02114";"Haarlemmerplein";"4.88341252";"52.38484542";"26"
"10/5/2020 12:00:00 AM";"08:00 - 08:59";"02118";"Nw.Willemsstraat";"4.88088280";"52.38127551";"19"
"10/5/2020 12:00:00 AM";"08:00 - 08:59";"02125";"Bloemgracht";"4.87632342";"52.37417361";"16"
"10/5/2020 12:00:00 AM";"08:00 - 08:59";"02127";"Rozengracht";"4.87584312";"52.37252679";"13"
"10/5/2020 12:00:00 AM";"08:00 - 08:59";"02128";"G. v.Ledenberchstraat";"4.87062828";"52.37520945";"13"
"10/5/2020 12:00:00 AM";"08:00 - 08:59";"02129";"G. v.Ledenberchstraat";"4.87080586";"52.37509339";"12"
"10/5/2020 12:00:00 AM";"08:00 - 08:59";"02131";"Hugo de Grootplein";"4.87292199";"52.37496778";"29"
"10/5/2020 12:00:00 AM";"08:00 - 08:59";"02133";"Fred. Hendrikplants.";"4.87521709";"52.37842002";"31"
"10/5/2020 12:00:00 AM";"08:00 - 08:59";"02137";"Kostverlorenstraat";"4.87173645";"52.37968118";"12"
"10/5/2020 12:00:00 AM";"08:00 - 08:59";"02139";"Van Beuningenplein";"4.87112924";"52.38137721";"16"
"10/5/2020 12:00:00 AM";"08:00 - 08:59";"02141";"V.d. Hoopstraat";"4.87037134";"52.38339614";"19"
"10/5/2020 12:00:00 AM";"08:00 - 08:59";"02142";"V.d. Hoopstraat";"4.87031312";"52.38335094";"13"
"10/5/2020 12:00:00 AM";"08:00 - 08:59";"02145";"Van Hallstraat";"4.86990682";"52.38418503";"17"
"10/5/2020 12:00:00 AM";"08:00 - 08:59";"02148";"Van L.Stirumstraat";"4.87517891";"52.38427085";"19"
"10/5/2020 12:00:00 AM";"08:00 - 08:59";"02150";"De Wittenkade";"4.87717527";"52.38310208";"20"
"10/5/2020 12:00:00 AM";"08:00 - 08:59";"02152";"Nassaukade";"4.87906660";"52.38083632";"15"
"10/5/2020 12:00:00 AM";"08:00 - 08:59";"02154";"De Clercqstraat";"4.87052824";"52.37119150";"14"
"10/5/2020 12:00:00 AM";"08:00 - 08:59";"02155";"Willem de Zwijgerlaan";"4.86360306";"52.37071170";"28"
"10/5/2020 12:00:00 AM";"08:00 - 08:59";"02156";"Willem de Zwijgerlaan";"4.86425293";"52.37039101";"29"
"10/5/2020 12:00:00 AM";"08:00 - 08:59";"02157";"Adm. de Ruijterweg";"4.86009910";"52.37148707";"30"
"10/5/2020 12:00:00 AM";"08:00 - 08:59";"02158";"Adm. de Ruijterweg";"4.86096776";"52.37129320";"47"
"10/5/2020 12:00:00 AM";"08:00 - 08:59";"02164";"De Rijpstraat";"4.85776890";"52.37725578";"15"
"10/5/2020 12:00:00 AM";"08:00 - 08:59";"02166";"Bos en Lommerweg";"4.85548704";"52.38016657";"35"
"10/5/2020 12:00:00 AM";"08:00 - 08:59";"02167";"Bos en Lommerweg";"4.85380049";"52.38118358";"33"
"10/5/2020 12:00:00 AM";"08:00 - 08:59";"02169";"Wiltzanghlaan";"4.85218893";"52.38206609";"25"
"10/5/2020 12:00:00 AM";"08:00 - 08:59";"02170";"Spaarndammerstraat";"4.87723089";"52.39231470";"45"
"10/5/2020 12:00:00 AM";"08:00 - 08:59";"02171";"Wiltzanghlaan";"4.85060722";"52.38290378";"12"
"10/5/2020 12:00:00 AM";"08:00 - 08:59";"02177";"Bos en Lommerweg";"4.85521256";"52.38101018";"30"
"10/5/2020 12:00:00 AM";"08:00 - 08:59";"02184";"Jan v.Galenstraat";"4.86033817";"52.37484954";"20"
"10/5/2020 12:00:00 AM";"08:00 - 08:59";"02190";"Karel Doormanstraat";"4.85695623";"52.37889690";"13"
"10/5/2020 12:00:00 AM";"08:00 - 08:59";"02192";"Marnixplein";"4.87860283";"52.37773357";"18"
"10/5/2020 12:00:00 AM";"08:00 - 08:59";"02199";"Eerste Marnixdwarsstraat";"4.88203787";"52.38302405";"17"
"10/5/2020 12:00:00 AM";"08:00 - 08:59";"02220";"Jan Evertsenstraat";"4.85941704";"52.37204127";"12"
"10/5/2020 12:00:00 AM";"08:00 - 08:59";"02222";"Jan van Galenstraat";"4.85874763";"52.37399761";"34"
"10/5/2020 12:00:00 AM";"08:00 - 08:59";"02302";"Fred. Hendrikplants.";"4.87549415";"52.37859198";"10"
"10/5/2020 12:00:00 AM";"08:00 - 08:59";"02319";"Solebaystraat";"4.85540788";"52.38431853";"18"
"10/5/2020 12:00:00 AM";"08:00 - 08:59";"02321";"Van Hallstraat";"4.86864429";"52.38538386";"12"
"10/5/2020 12:00:00 AM";"08:00 - 08:59";"02361";"Station Sloterdijk";"4.83931858";"52.38833460";"51"
"10/5/2020 12:00:00 AM";"08:00 - 08:59";"02365";"Station Sloterdijk";"4.83873236";"52.38822404";"35"
"10/5/2020 12:00:00 AM";"08:00 - 08:59";"02366";"Station Sloterdijk";"4.83873347";"52.38813416";"15"
"10/5/2020 12:00:00 AM";"08:00 - 08:59";"02367";"Station Sloterdijk";"4.83876429";"52.38801747";"113"
"10/5/2020 12:00:00 AM";"08:00 - 08:59";"02368";"Station Sloterdijk";"4.83877999";"52.38793665";"22"
"10/5/2020 12:00:00 AM";"08:00 - 08:59";"02370";"Station Sloterdijk";"4.83879745";"52.38771204";"49"
"10/5/2020 12:00:00 AM";"08:00 - 08:59";"02371";"Station Sloterdijk";"4.83882961";"52.38748749";"15"
"10/5/2020 12:00:00 AM";"08:00 - 08:59";"03009";"Witte de Withstraat";"4.85851970";"52.36478416";"62"
"10/5/2020 12:00:00 AM";"08:00 - 08:59";"03010";"Witte de Withstraat";"4.85928290";"52.36480554";"30"
"10/5/2020 12:00:00 AM";"08:00 - 08:59";"03012";"Hoofdweg";"4.85237353";"52.36432514";"22"
"10/5/2020 12:00:00 AM";"08:00 - 08:59";"03022";"Mercatorplein";"4.85070310";"52.37012367";"30"
"10/5/2020 12:00:00 AM";"08:00 - 08:59";"03023";"Marco Polostraat";"4.85520189";"52.37088096";"24"
"10/5/2020 12:00:00 AM";"08:00 - 08:59";"03024";"Marco Polostraat";"4.85546532";"52.37095405";"29"
"10/5/2020 12:00:00 AM";"08:00 - 08:59";"03025";"Jan v.Galenstraat";"4.84854861";"52.37342137";"11"
"10/5/2020 12:00:00 AM";"08:00 - 08:59";"03028";"Jan van Galenstraat";"4.84921138";"52.37204926";"34"
"10/5/2020 12:00:00 AM";"08:00 - 08:59";"03034";"Erasmusgracht";"4.84691117";"52.37644278";"14"
"10/5/2020 12:00:00 AM";"08:00 - 08:59";"03061";"Bos en Lommerplein";"4.84523530";"52.37778328";"65"
"10/5/2020 12:00:00 AM";"08:00 - 08:59";"03077";"Jan Tooropstraat";"4.83817288";"52.37171997";"14"
"10/5/2020 12:00:00 AM";"08:00 - 08:59";"03091";"Slotermeerlaan";"4.82076888";"52.37542183";"63"
"10/5/2020 12:00:00 AM";"08:00 - 08:59";"03098";"Burg. v. Leeuwenlaan";"4.81209115";"52.37644954";"123"
"10/5/2020 12:00:00 AM";"08:00 - 08:59";"03100";"Dr. H. Colijnstraat";"4.80626901";"52.37695140";"61"
"10/5/2020 12:00:00 AM";"08:00 - 08:59";"03101";"Lambertus Zijlplein";"4.80300456";"52.37726788";"243"
"10/5/2020 12:00:00 AM";"08:00 - 08:59";"03102";"Confuciusplein";"4.81183779";"52.37447101";"11"
"10/5/2020 12:00:00 AM";"08:00 - 08:59";"03106";"Troelstralaan";"4.80145216";"52.37471668";"36"
"10/5/2020 12:00:00 AM";"08:00 - 08:59";"03115";"Michel de Klerkhof";"4.79770398";"52.37608219";"12"
"10/5/2020 12:00:00 AM";"08:00 - 08:59";"03118";"Sam van Houtenstraat";"4.79800745";"52.37976868";"17"
"10/5/2020 12:00:00 AM";"08:00 - 08:59";"03121";"Aalbersestraat";"4.79774249";"52.38202329";"14"
"10/5/2020 12:00:00 AM";"08:00 - 08:59";"03122";"Aalbersestraat";"4.79897224";"52.38232600";"44"
"10/5/2020 12:00:00 AM";"08:00 - 08:59";"03123";"Dr. H. Colijnstraat";"4.80565355";"52.38244888";"32"
"10/5/2020 12:00:00 AM";"08:00 - 08:59";"03125";"Anth. Moddermanstraat";"4.81338292";"52.38330447";"33"
"10/5/2020 12:00:00 AM";"08:00 - 08:59";"03129";"Plein '40 - '45";"4.82112671";"52.38075328";"24"
"10/5/2020 12:00:00 AM";"08:00 - 08:59";"03130";"Plein '40 - '45";"4.82267774";"52.38121007";"180"
"10/5/2020 12:00:00 AM";"08:00 - 08:59";"03132";"Burg. R?ellstraat";"4.81950345";"52.37676393";"36"
"10/5/2020 12:00:00 AM";"08:00 - 08:59";"03150";"Mercatorplein";"4.85011339";"52.37031872";"22"
"10/5/2020 12:00:00 AM";"08:00 - 08:59";"03167";"Bos en Lommerplein";"4.84650668";"52.37709704";"55"
"10/5/2020 12:00:00 AM";"08:00 - 08:59";"03168";"Mercatorplein";"4.85152392";"52.37024423";"29"
"10/5/2020 12:00:00 AM";"08:00 - 08:59";"03169";"Jan v.Galenstraat";"4.83601291";"52.37301316";"14"
"10/5/2020 12:00:00 AM";"08:00 - 08:59";"03172";"Burg. Rendorpstraat";"4.82691962";"52.37445346";"35"
"10/5/2020 12:00:00 AM";"08:00 - 08:59";"03176";"Sloterpark";"4.81890614";"52.37295026";"18"
"10/5/2020 12:00:00 AM";"08:00 - 08:59";"03178";"Mercatorplein";"4.84991664";"52.37080317";"16"
"10/5/2020 12:00:00 AM";"08:00 - 08:59";"03182";"Jan Voermanstraat";"4.83852226";"52.36959149";"23"
"10/5/2020 12:00:00 AM";"08:00 - 08:59";"03197";"W. Schoutenstraat";"4.85238084";"52.36737202";"44"
"10/5/2020 12:00:00 AM";"08:00 - 08:59";"03198";"W. Schoutenstraat";"4.85259061";"52.36702245";"18"
"10/5/2020 12:00:00 AM";"08:00 - 08:59";"04008";"Dijkgraafplein";"4.78646982";"52.35545267";"132"
"10/5/2020 12:00:00 AM";"08:00 - 08:59";"04011";"Baden Powellweg";"4.79172542";"52.35650384";"129"
"10/5/2020 12:00:00 AM";"08:00 - 08:59";"04014";"Notweg";"4.80070761";"52.36550053";"10"
"10/5/2020 12:00:00 AM";"08:00 - 08:59";"04015";"Hoekenes";"4.79927973";"52.35802459";"94"
"10/5/2020 12:00:00 AM";"08:00 - 08:59";"04022";"Osdorpplein";"4.80322217";"52.35962596";"131"
"10/5/2020 12:00:00 AM";"08:00 - 08:59";"04042";"Ruimzicht";"4.80758369";"52.35951258";"28"
"10/5/2020 12:00:00 AM";"08:00 - 08:59";"04049";"Meer en Vaart";"4.81058859";"52.35647140";"66"
"10/5/2020 12:00:00 AM";"08:00 - 08:59";"04061";"Derkinderenstraat";"4.84014895";"52.35794190";"17"
"10/5/2020 12:00:00 AM";"08:00 - 08:59";"04062";"Johan Huizingalaan";"4.82582327";"52.35781191";"10"
"10/5/2020 12:00:00 AM";"08:00 - 08:59";"04063";"Johan Huizingalaan";"4.82626398";"52.35778704";"40"
"10/5/2020 12:00:00 AM";"08:00 - 08:59";"04065";"Ruimzicht";"4.80773259";"52.35935153";"10"
"10/5/2020 12:00:00 AM";"08:00 - 08:59";"04089";"Louwesweg";"4.82514186";"52.34670876";"21"
"10/5/2020 12:00:00 AM";"08:00 - 08:59";"04110";"Westlandgracht";"4.84581964";"52.35156868";"10"
"10/5/2020 12:00:00 AM";"08:00 - 08:59";"04111";"Delflandlaan";"4.84191575";"52.35154177";"19"
"10/5/2020 12:00:00 AM";"08:00 - 08:59";"04113";"Johan Huizingalaan";"4.82750420";"52.34907476";"35"
"10/5/2020 12:00:00 AM";"08:00 - 08:59";"04116";"Heemstedestraat";"4.83416670";"52.35148784";"23"
"10/5/2020 12:00:00 AM";"08:00 - 08:59";"04135";"Justus Lipsiusstraat";"4.82725922";"52.36151269";"11"
"10/5/2020 12:00:00 AM";"08:00 - 08:59";"04140";"Sierplein";"4.82732630";"52.35503282";"10"
"10/5/2020 12:00:00 AM";"08:00 - 08:59";"04141";"Sierplein";"4.82738648";"52.35491626";"11"
"10/5/2020 12:00:00 AM";"08:00 - 08:59";"04195";"Station Lelylaan";"4.83460082";"52.35788018";"85"
"10/5/2020 12:00:00 AM";"08:00 - 08:59";"04196";"Station Lelylaan";"4.83382251";"52.35790351";"49"
"10/5/2020 12:00:00 AM";"08:00 - 08:59";"04274";"Schiphol Airport/Plaza";"4.76104997";"52.30939292";"17"
"10/5/2020 12:00:00 AM";"08:00 - 08:59";"04276";"Laan v.Vlaanderen";"4.81567936";"52.34643875";"28"
"10/5/2020 12:00:00 AM";"08:00 - 08:59";"04278";"Kasterleepark";"4.81061791";"52.34630634";"48"
"10/5/2020 12:00:00 AM";"08:00 - 08:59";"04313";"Hageland";"4.81136124";"52.34444050";"17"
"10/5/2020 12:00:00 AM";"08:00 - 08:59";"04314";"Oudenaardeplantsoen";"4.80382615";"52.34495185";"54"
"10/5/2020 12:00:00 AM";"08:00 - 08:59";"04402";"Matterhorn";"4.77477998";"52.35372103";"25"
"10/5/2020 12:00:00 AM";"08:00 - 08:59";"04404";"Pilatus";"4.77668386";"52.35296690";"52"
"10/5/2020 12:00:00 AM";"08:00 - 08:59";"04406";"Inaristraat";"4.78314823";"52.35036664";"56"
"10/5/2020 12:00:00 AM";"08:00 - 08:59";"04408";"Ecuplein";"4.78886514";"52.34981147";"71"
"10/5/2020 12:00:00 AM";"08:00 - 08:59";"04410";"Baden Powellweg";"4.79518898";"52.35105663";"125"
"10/5/2020 12:00:00 AM";"08:00 - 08:59";"04412";"Hoekenes";"4.80261063";"52.35255853";"73"
"10/5/2020 12:00:00 AM";"08:00 - 08:59";"04414";"Louis Davidsstraat";"4.80910976";"52.35392963";"16"
"10/5/2020 12:00:00 AM";"08:00 - 08:59";"05011";"Centraal Station";"4.89921803";"52.37810793";"443"
"10/5/2020 12:00:00 AM";"08:00 - 08:59";"05022";"Centraal Station";"4.90104337";"52.37771998";"259"
"10/5/2020 12:00:00 AM";"08:00 - 08:59";"05048";"Mr. Visserplein";"4.90611633";"52.36766548";"10"
"10/5/2020 12:00:00 AM";"08:00 - 08:59";"05065";"Dam";"4.89079364";"52.37367792";"23"
"10/5/2020 12:00:00 AM";"08:00 - 08:59";"05070";"Nieuwezijds Kolk";"4.89284106";"52.37575366";"17"
"10/5/2020 12:00:00 AM";"08:00 - 08:59";"05073";"Westermarkt";"4.88453426";"52.37400204";"40"
"10/5/2020 12:00:00 AM";"08:00 - 08:59";"05074";"Westermarkt";"4.88354950";"52.37407874";"15"
"10/5/2020 12:00:00 AM";"08:00 - 08:59";"05077";"Marnixstraat";"4.87615428";"52.37228546";"13"
"10/5/2020 12:00:00 AM";"08:00 - 08:59";"05079";"Buiten Oranjestraat";"4.88805879";"52.38312149";"30"
"10/5/2020 12:00:00 AM";"08:00 - 08:59";"05093";"Barentszplein";"4.89156209";"52.38901415";"18"
"10/5/2020 12:00:00 AM";"08:00 - 08:59";"05097";"Centraal Station";"4.90087651";"52.37954379";"39"
"10/5/2020 12:00:00 AM";"08:00 - 08:59";"05103";"Centraal Station";"4.90127481";"52.37938365";"54"
"10/5/2020 12:00:00 AM";"08:00 - 08:59";"05104";"Centraal Station";"4.90164343";"52.37925034";"52"
"10/5/2020 12:00:00 AM";"08:00 - 08:59";"05105";"Centraal Station";"4.90187762";"52.37932321";"41"
"10/5/2020 12:00:00 AM";"08:00 - 08:59";"05106";"Centraal Station";"4.90229030";"52.37919008";"15"
"10/5/2020 12:00:00 AM";"08:00 - 08:59";"05107";"Centraal Station";"4.90195282";"52.37916174";"66"
"10/5/2020 12:00:00 AM";"08:00 - 08:59";"05154";"Marnixstraat";"4.87536375";"52.37207533";"19"
"10/5/2020 12:00:00 AM";"08:00 - 08:59";"06001";"Surinameplein";"4.85252231";"52.35807034";"35"
"10/5/2020 12:00:00 AM";"08:00 - 08:59";"06002";"Surinameplein";"4.85090753";"52.35807202";"33"
"10/5/2020 12:00:00 AM";"08:00 - 08:59";"06015";"Postjesweg";"4.85316124";"52.36352879";"32"
"10/5/2020 12:00:00 AM";"08:00 - 08:59";"06016";"J.P. Heijestraat";"4.86239635";"52.36472951";"37"
"10/5/2020 12:00:00 AM";"08:00 - 08:59";"06017";"J.P. Heijestraat";"4.86292316";"52.36487565";"21"
"10/5/2020 12:00:00 AM";"08:00 - 08:59";"06019";"Ten Katestraat";"4.86737423";"52.36591988";"33"
"10/5/2020 12:00:00 AM";"08:00 - 08:59";"06020";"Ten Katestraat";"4.86773990";"52.36603832";"32"
"10/5/2020 12:00:00 AM";"08:00 - 08:59";"06021";"Bilderdijkstraat";"4.87176488";"52.36712545";"25"
"10/5/2020 12:00:00 AM";"08:00 - 08:59";"06023";"Bilderdijkstraat";"4.87254032";"52.36736251";"15"
"10/5/2020 12:00:00 AM";"08:00 - 08:59";"06025";"Kinkerstraat";"4.87201094";"52.36743211";"21"
"10/5/2020 12:00:00 AM";"08:00 - 08:59";"06027";"Elandsgracht";"4.87855189";"52.36808953";"33"
"10/5/2020 12:00:00 AM";"08:00 - 08:59";"06028";"Elandsgracht";"4.87741694";"52.36974738";"14"
"10/5/2020 12:00:00 AM";"08:00 - 08:59";"06029";"Elandsgracht";"4.87684368";"52.36852258";"12"
"10/5/2020 12:00:00 AM";"08:00 - 08:59";"06030";"Rozengracht";"4.87590932";"52.37187996";"12"
"10/5/2020 12:00:00 AM";"08:00 - 08:59";"06034";"Bilderdijkstraat";"4.87082347";"52.37105798";"15"
"10/5/2020 12:00:00 AM";"08:00 - 08:59";"06037";"Bilderdijkstraat";"4.86985701";"52.37082906";"27"
"10/5/2020 12:00:00 AM";"08:00 - 08:59";"06043";"Overtoom";"4.87510145";"52.36299659";"12"
"10/5/2020 12:00:00 AM";"08:00 - 08:59";"06045";"1e Con. Huygensstraat";"4.87399228";"52.36242556";"16"
"10/5/2020 12:00:00 AM";"08:00 - 08:59";"06046";"1e Con. Huygensstraat";"4.87487082";"52.36262709";"18"
"10/5/2020 12:00:00 AM";"08:00 - 08:59";"06048";"J.P. Heijestraat";"4.86585368";"52.36037674";"22"
"10/5/2020 12:00:00 AM";"08:00 - 08:59";"06049";"J.P. Heijestraat";"4.86671778";"52.36055131";"24"
"10/5/2020 12:00:00 AM";"08:00 - 08:59";"06059";"Spiegelgracht";"4.88762090";"52.36071327";"12"
"10/5/2020 12:00:00 AM";"08:00 - 08:59";"06061";"Leidseplein";"4.88339576";"52.36305015";"14"
"10/5/2020 12:00:00 AM";"08:00 - 08:59";"06063";"Leidseplein";"4.88064547";"52.36476406";"13"
"10/5/2020 12:00:00 AM";"08:00 - 08:59";"06067";"Leidseplein";"4.88301434";"52.36431580";"11"
"10/5/2020 12:00:00 AM";"08:00 - 08:59";"06076";"Koningsplein";"4.88857910";"52.36689188";"14"
"10/5/2020 12:00:00 AM";"08:00 - 08:59";"06081";"Rhijnvis Feithstraat";"4.86039355";"52.35905833";"19"
"10/5/2020 12:00:00 AM";"08:00 - 08:59";"06082";"Rhijnvis Feithstraat";"4.85967683";"52.35883943";"26"
"10/5/2020 12:00:00 AM";"08:00 - 08:59";"06089";"Leidseplein";"4.88085541";"52.36309324";"31"
"10/5/2020 12:00:00 AM";"08:00 - 08:59";"06114";"Hoofdweg";"4.85444451";"52.36425359";"22"
"10/5/2020 12:00:00 AM";"08:00 - 08:59";"06115";"Postjesweg";"4.85319014";"52.36478720";"21"
"10/5/2020 12:00:00 AM";"08:00 - 08:59";"07006";"Museumplein";"4.87980116";"52.35642881";"27"
"10/5/2020 12:00:00 AM";"08:00 - 08:59";"07007";"Museumplein";"4.87950215";"52.35690388";"17"
"10/5/2020 12:00:00 AM";"08:00 - 08:59";"07015";"Roelof Hartplein";"4.88206971";"52.35314900";"25"
"10/5/2020 12:00:00 AM";"08:00 - 08:59";"07016";"Roelof Hartplein";"4.88286688";"52.35274795";"11"
"10/5/2020 12:00:00 AM";"08:00 - 08:59";"07021";"Kastelenstraat";"4.87955984";"52.32619291";"11"
"10/5/2020 12:00:00 AM";"08:00 - 08:59";"07034";"Amstelveenseweg";"4.85596467";"52.35132704";"19"
"10/5/2020 12:00:00 AM";"08:00 - 08:59";"07045";"Haarlemmermeerstraat";"4.85023862";"52.35512100";"10"
"10/5/2020 12:00:00 AM";"08:00 - 08:59";"07048";"Hoofddorpplein";"4.85010578";"52.35154327";"12"
"10/5/2020 12:00:00 AM";"08:00 - 08:59";"07049";"Hoofddorpplein";"4.84958188";"52.35117239";"33"
"10/5/2020 12:00:00 AM";"08:00 - 08:59";"07050";"Haarlemmermeerstation";"4.85744749";"52.34883508";"26"
"10/5/2020 12:00:00 AM";"08:00 - 08:59";"07083";"Gerrit v.d. Veenstraat";"4.87735929";"52.34921014";"15"
"10/5/2020 12:00:00 AM";"08:00 - 08:59";"07097";"Olympiaplein";"4.86582821";"52.34630180";"10"
"10/5/2020 12:00:00 AM";"08:00 - 08:59";"07098";"Olympiaplein";"4.86659057";"52.34636807";"14"
"10/5/2020 12:00:00 AM";"08:00 - 08:59";"07108";"Olympiaweg";"4.85873730";"52.34528169";"21"
"10/5/2020 12:00:00 AM";"08:00 - 08:59";"07120";"Olympiaweg";"4.85834130";"52.34526195";"11"
"10/5/2020 12:00:00 AM";"08:00 - 08:59";"07121";"Olympisch stadion";"4.85696449";"52.34380875";"11"
"10/5/2020 12:00:00 AM";"08:00 - 08:59";"07191";"Station Zuid";"4.87340673";"52.34072657";"20"
"10/5/2020 12:00:00 AM";"08:00 - 08:59";"07193";"Station Zuid";"4.87334616";"52.34088808";"37"
"10/5/2020 12:00:00 AM";"08:00 - 08:59";"07198";"Oranjebaan";"4.87333874";"52.30348977";"13"
"10/5/2020 12:00:00 AM";"08:00 - 08:59";"07261";"Station RAI";"4.89069063";"52.33696257";"11"
"10/5/2020 12:00:00 AM";"08:00 - 08:59";"07266";"Station Zuid";"4.87252654";"52.34070477";"30"
"10/5/2020 12:00:00 AM";"08:00 - 08:59";"07268";"Station Zuid";"4.87428608";"52.34082026";"62"
"10/5/2020 12:00:00 AM";"08:00 - 08:59";"07269";"Station Zuid";"4.87374306";"52.34082689";"36"
"10/5/2020 12:00:00 AM";"08:00 - 08:59";"07271";"Parnassusweg";"4.86866745";"52.33818033";"13"
"10/5/2020 12:00:00 AM";"08:00 - 08:59";"07321";"Van Baerlestraat";"4.87895796";"52.35827667";"14"
"10/5/2020 12:00:00 AM";"08:00 - 08:59";"07324";"Rijksmuseum";"4.88332565";"52.36017378";"10"
"10/5/2020 12:00:00 AM";"08:00 - 08:59";"07350";"VU medisch centrum";"4.86006046";"52.33519431";"14"
"10/5/2020 12:00:00 AM";"08:00 - 08:59";"07390";"Kronenburg";"4.87055248";"52.31615048";"29"
"10/5/2020 12:00:00 AM";"08:00 - 08:59";"07418";"Van Boshuizenstraat";"4.86902148";"52.32544617";"36"
"10/5/2020 12:00:00 AM";"08:00 - 08:59";"07422";"Uilenstede";"4.86917604";"52.32225618";"33"
"10/5/2020 12:00:00 AM";"08:00 - 08:59";"07434";"Onderuit";"4.87257685";"52.30851066";"22"
"10/5/2020 12:00:00 AM";"08:00 - 08:59";"07438";"Oranjebaan";"4.87217918";"52.30360157";"20"
"10/5/2020 12:00:00 AM";"08:00 - 08:59";"07443";"Zonnestein";"4.87228656";"52.31205060";"17"
"10/5/2020 12:00:00 AM";"08:00 - 08:59";"07445";"Amstelveen Stadshart";"4.86751502";"52.30124433";"18"
"10/5/2020 12:00:00 AM";"08:00 - 08:59";"07448";"A.J. Ernststraat";"4.86887597";"52.33288743";"12"
"10/5/2020 12:00:00 AM";"08:00 - 08:59";"07490";"Amstelveenseweg";"4.85731153";"52.33809407";"13"
"10/5/2020 12:00:00 AM";"08:00 - 08:59";"07513";"Sacharovlaan";"4.83264484";"52.28179795";"12"
"10/5/2020 12:00:00 AM";"08:00 - 08:59";"07515";"Middenhoven / Brink";"4.85221152";"52.28033320";"13"
"10/5/2020 12:00:00 AM";"08:00 - 08:59";"07516";"Praam";"4.85549985";"52.27984471";"12"
"10/5/2020 12:00:00 AM";"08:00 - 08:59";"07517";"Logger";"4.86003037";"52.28334331";"14"
"10/5/2020 12:00:00 AM";"08:00 - 08:59";"07518";"Seine";"4.86664439";"52.28419950";"12"
"10/5/2020 12:00:00 AM";"08:00 - 08:59";"07520";"Groenhof";"4.86835403";"52.28965367";"23"
"10/5/2020 12:00:00 AM";"08:00 - 08:59";"07521";"Ziekenhuis";"4.87192175";"52.29419017";"12"
"10/5/2020 12:00:00 AM";"08:00 - 08:59";"08008";"Wittenburgergracht";"4.91947244";"52.36955249";"12"
"10/5/2020 12:00:00 AM";"08:00 - 08:59";"08009";"Bob Haarmslaan";"4.96859205";"52.36915214";"18"
"10/5/2020 12:00:00 AM";"08:00 - 08:59";"08012";"C. van Eesterenlaan";"4.93885799";"52.37356409";"23"
"10/5/2020 12:00:00 AM";"08:00 - 08:59";"08014";"Azartplein";"4.93735640";"52.37682991";"12"
"10/5/2020 12:00:00 AM";"08:00 - 08:59";"08047";"Flevopark";"4.95084932";"52.36522337";"11"
"10/5/2020 12:00:00 AM";"08:00 - 08:59";"08051";"K. 's-Gravesandestr.";"4.91366120";"52.36235720";"19"
"10/5/2020 12:00:00 AM";"08:00 - 08:59";"08053";"Weesperplein";"4.90655690";"52.36088154";"20"
"10/5/2020 12:00:00 AM";"08:00 - 08:59";"08055";"Borneolaan";"4.93819040";"52.37133261";"17"
"10/5/2020 12:00:00 AM";"08:00 - 08:59";"08059";"Veelaan";"4.93944523";"52.36776026";"23"
"10/5/2020 12:00:00 AM";"08:00 - 08:59";"08066";"Frederiksplein";"4.89751569";"52.35937050";"19"
"10/5/2020 12:00:00 AM";"08:00 - 08:59";"08072";"Vijzelgracht";"4.89159781";"52.35953462";"15"
"10/5/2020 12:00:00 AM";"08:00 - 08:59";"08073";"Vijzelgracht";"4.89227386";"52.35946554";"24"
"10/5/2020 12:00:00 AM";"08:00 - 08:59";"08096";"Alexanderplein";"4.91931589";"52.36351213";"20"
"10/5/2020 12:00:00 AM";"08:00 - 08:59";"08097";"1e v.Swindenstraat";"4.92412105";"52.36168854";"19"
"10/5/2020 12:00:00 AM";"08:00 - 08:59";"08113";"Javaplein";"4.93949828";"52.36395867";"28"
"10/5/2020 12:00:00 AM";"08:00 - 08:59";"08114";"Javaplein";"4.93955537";"52.36412066";"17"
"10/5/2020 12:00:00 AM";"08:00 - 08:59";"08119";"Insulindeweg";"4.94765323";"52.36476217";"23"
"10/5/2020 12:00:00 AM";"08:00 - 08:59";"08121";"Soembawastraat";"4.94391980";"52.36224967";"47"
"10/5/2020 12:00:00 AM";"08:00 - 08:59";"08128";"Zuiderzeeweg";"4.96221150";"52.37305702";"19"
"10/5/2020 12:00:00 AM";"08:00 - 08:59";"08129";"Molukkenstraat";"4.93861286";"52.36150167";"42"
"10/5/2020 12:00:00 AM";"08:00 - 08:59";"08131";"Valentijnkade";"4.94073898";"52.35884036";"31"
"10/5/2020 12:00:00 AM";"08:00 - 08:59";"08190";"Molukkenstraat";"4.93934614";"52.36157635";"26"
"10/5/2020 12:00:00 AM";"08:00 - 08:59";"08194";"Oostenburgergracht";"4.92430564";"52.36791775";"18"
"10/5/2020 12:00:00 AM";"08:00 - 08:59";"08208";"Levantplein";"4.94239073";"52.37711855";"14"
"10/5/2020 12:00:00 AM";"08:00 - 08:59";"08209";"KNSM-laan";"4.94601854";"52.37707820";"10"
"10/5/2020 12:00:00 AM";"08:00 - 08:59";"08236";"Kattenburgerstraat";"4.92203232";"52.37607865";"41"
"10/5/2020 12:00:00 AM";"08:00 - 08:59";"08237";"Kattenburgerstraat";"4.92126795";"52.37614755";"17"
"10/5/2020 12:00:00 AM";"08:00 - 08:59";"08238";"Rietlandpark";"4.93350159";"52.37322013";"72"
"10/5/2020 12:00:00 AM";"08:00 - 08:59";"08239";"Rietlandpark";"4.93413567";"52.37296191";"60"
"10/5/2020 12:00:00 AM";"08:00 - 08:59";"08240";"Zuiderzeeweg";"4.96116314";"52.37212752";"111"
"10/5/2020 12:00:00 AM";"08:00 - 08:59";"08241";"Zuiderzeeweg";"4.96185517";"52.37193228";"11"
"10/5/2020 12:00:00 AM";"08:00 - 08:59";"08244";"Steigereiland";"4.98083725";"52.36280456";"96"
"10/5/2020 12:00:00 AM";"08:00 - 08:59";"08245";"Steigereiland";"4.98012952";"52.36313467";"15"
"10/5/2020 12:00:00 AM";"08:00 - 08:59";"08246";"Vennepluimstraat";"4.99104399";"52.35749148";"122"
"10/5/2020 12:00:00 AM";"08:00 - 08:59";"08247";"Vennepluimstraat";"4.99057242";"52.35769662";"13"
"10/5/2020 12:00:00 AM";"08:00 - 08:59";"08248";"Diemerparklaan";"4.99546869";"52.35512447";"76"
"10/5/2020 12:00:00 AM";"08:00 - 08:59";"08250";"Lumi?restraat";"4.99992218";"52.35276637";"79"
"10/5/2020 12:00:00 AM";"08:00 - 08:59";"08262";"IJburg";"5.00486802";"52.35112872";"152"
"10/5/2020 12:00:00 AM";"08:00 - 08:59";"08271";"Diemerparklaan";"4.99573567";"52.35481078";"15"
"10/5/2020 12:00:00 AM";"08:00 - 08:59";"08281";"Vennepluimstraat";"4.99139941";"52.35714215";"27"
"10/5/2020 12:00:00 AM";"08:00 - 08:59";"08285";"Lumierestraat";"5.00018928";"52.35243470";"29"
"10/5/2020 12:00:00 AM";"08:00 - 08:59";"08288";"R.J.H. Fortuynplein";"4.94671253";"52.37226339";"10"
"10/5/2020 12:00:00 AM";"08:00 - 08:59";"08292";"Zeeburgerdijk";"4.93952581";"52.36559453";"13"
"10/5/2020 12:00:00 AM";"08:00 - 08:59";"08293";"Zeeburgerdijk";"4.93942159";"52.36573794";"16"
"10/5/2020 12:00:00 AM";"08:00 - 08:59";"08299";"P.Oosterhuisstraat";"5.00794301";"52.35197446";"19"
"10/5/2020 12:00:00 AM";"08:00 - 08:59";"09013";"Amstelstation";"4.91790223";"52.34725673";"66"
"10/5/2020 12:00:00 AM";"08:00 - 08:59";"09015";"Amstelstation";"4.91940405";"52.34679531";"16"
"10/5/2020 12:00:00 AM";"08:00 - 08:59";"09016";"Amstelstation";"4.91953925";"52.34649925";"19"
"10/5/2020 12:00:00 AM";"08:00 - 08:59";"09025";"Amstelstation";"4.91891097";"52.34623612";"12"
"10/5/2020 12:00:00 AM";"08:00 - 08:59";"09028";"Amstelstation";"4.91867673";"52.34618127";"19"
"10/5/2020 12:00:00 AM";"08:00 - 08:59";"09049";"Victorieplein";"4.90570139";"52.34637186";"36"
"10/5/2020 12:00:00 AM";"08:00 - 08:59";"09050";"Victorieplein";"4.90499015";"52.34699811";"15"
"10/5/2020 12:00:00 AM";"08:00 - 08:59";"09051";"Victorieplein";"4.90653699";"52.34645615";"32"
"10/5/2020 12:00:00 AM";"08:00 - 08:59";"09060";"Waalstraat";"4.90103893";"52.34462715";"12"
"10/5/2020 12:00:00 AM";"08:00 - 08:59";"09061";"Waalstraat";"4.90060087";"52.34442762";"11"
"10/5/2020 12:00:00 AM";"08:00 - 08:59";"09083";"Waalstraat";"4.90032528";"52.34680824";"15"
"10/5/2020 12:00:00 AM";"08:00 - 08:59";"09086";"Amstelkade";"4.90432498";"52.34878396";"10"
"10/5/2020 12:00:00 AM";"08:00 - 08:59";"09090";"Lutmastraat";"4.90331220";"52.35148513";"23"
"10/5/2020 12:00:00 AM";"08:00 - 08:59";"09096";"Van Woustraat";"4.90163035";"52.35495650";"29"
"10/5/2020 12:00:00 AM";"08:00 - 08:59";"09097";"Van Woustraat";"4.90084070";"52.35468363";"21"
"10/5/2020 12:00:00 AM";"08:00 - 08:59";"09108";"2e v.d.Helststraat";"4.89423729";"52.35319131";"13"
"10/5/2020 12:00:00 AM";"08:00 - 08:59";"09109";"2e v.d.Helststraat";"4.89488170";"52.35331982";"12"
"10/5/2020 12:00:00 AM";"08:00 - 08:59";"09111";"De Pijp";"4.89073444";"52.35272728";"34"
"10/5/2020 12:00:00 AM";"08:00 - 08:59";"09114";"De Pijp";"4.88948829";"52.35259622";"35"
"10/5/2020 12:00:00 AM";"08:00 - 08:59";"09119";"Cornelis Troostplein";"4.89149871";"52.35000720";"16"
"10/5/2020 12:00:00 AM";"08:00 - 08:59";"09120";"Cornelis Troostplein";"4.89161100";"52.35046604";"14"
"10/5/2020 12:00:00 AM";"08:00 - 08:59";"09122";"Marie Heinekenplein";"4.89065823";"52.35691525";"10"
"10/5/2020 12:00:00 AM";"08:00 - 08:59";"09140";"Amsteldijk";"4.91055179";"52.34704760";"22"
"10/5/2020 12:00:00 AM";"08:00 - 08:59";"09177";"Krugerplein";"4.92076163";"52.35307411";"17"
"10/5/2020 12:00:00 AM";"08:00 - 08:59";"ASA";"Amstelstation";"4.91751426";"52.34647326";"549"
"10/5/2020 12:00:00 AM";"08:00 - 08:59";"ASW";"Amstelveenseweg";"4.85798324";"52.33836671";"189"
"10/5/2020 12:00:00 AM";"08:00 - 08:59";"BLW";"Bullewijk";"4.95233581";"52.30642205";"221"
"10/5/2020 12:00:00 AM";"08:00 - 08:59";"BMR";"Station Bijlmer ArenA";"4.94713474";"52.31193030";"319"
"10/5/2020 12:00:00 AM";"08:00 - 08:59";"CLL";"Station Lelylaan";"4.83426589";"52.35766291";"230"
"10/5/2020 12:00:00 AM";"08:00 - 08:59";"CS";"Centraal Station";"4.90078150";"52.37749421";"1111"
"10/5/2020 12:00:00 AM";"08:00 - 08:59";"DMZ";"Station Diemen-Zuid";"4.95713273";"52.33042795";"122"
"10/5/2020 12:00:00 AM";"08:00 - 08:59";"DPP";"De Pijp";"4.89101069";"52.35296212";"265"
"10/5/2020 12:00:00 AM";"08:00 - 08:59";"DVD";"Station Duivendrecht";"4.93678429";"52.32325190";"252"
"10/5/2020 12:00:00 AM";"08:00 - 08:59";"EPP";"Europaplein";"4.89138430";"52.34185482";"137"
"10/5/2020 12:00:00 AM";"08:00 - 08:59";"GN";"Gein";"4.98952268";"52.29627089";"272"
"10/5/2020 12:00:00 AM";"08:00 - 08:59";"GPP";"Gaasperplas";"4.98468551";"52.31080575";"71"
"10/5/2020 12:00:00 AM";"08:00 - 08:59";"GZH";"Station Ganzenhoef";"4.97323379";"52.32331315";"249"
"10/5/2020 12:00:00 AM";"08:00 - 08:59";"HDS";"Heemstedestraat";"4.83421208";"52.35255760";"106"
"10/5/2020 12:00:00 AM";"08:00 - 08:59";"HLD";"Station Holendrecht";"4.96021904";"52.29780451";"331"
"10/5/2020 12:00:00 AM";"08:00 - 08:59";"HVW";"Henk Sneevlietweg";"4.83439318";"52.34626699";"133"
"10/5/2020 12:00:00 AM";"08:00 - 08:59";"JLS";"Jan v.Galenstraat";"4.83492461";"52.37196551";"145"
"10/5/2020 12:00:00 AM";"08:00 - 08:59";"KEN";"Kraaienneststation";"4.97963450";"52.31632492";"261"
"10/5/2020 12:00:00 AM";"08:00 - 08:59";"MDW";"Van der Madeweg";"4.93048657";"52.32945629";"73"
"10/5/2020 12:00:00 AM";"08:00 - 08:59";"ND";"Noord";"4.93123182";"52.40117202";"1141"
"10/5/2020 12:00:00 AM";"08:00 - 08:59";"NDP";"Noorderpark";"4.91789115";"52.38855518";"368"
"10/5/2020 12:00:00 AM";"08:00 - 08:59";"NMT";"Nieuwmarkt";"4.90123885";"52.37194169";"103"
"10/5/2020 12:00:00 AM";"08:00 - 08:59";"OAS";"Overamstel";"4.91815361";"52.33179879";"26"
"10/5/2020 12:00:00 AM";"08:00 - 08:59";"PJW";"Postjesweg";"4.83385543";"52.36468044";"159"
"10/5/2020 12:00:00 AM";"08:00 - 08:59";"RAI";"Station RAI";"4.88982004";"52.33739931";"93"
"10/5/2020 12:00:00 AM";"08:00 - 08:59";"RGB";"Reigersbos";"4.97473728";"52.29566301";"299"
"10/5/2020 12:00:00 AM";"08:00 - 08:59";"RKN";"Rokin";"4.89229651";"52.36928023";"84"
"10/5/2020 12:00:00 AM";"08:00 - 08:59";"SLW";"Spaklerweg";"4.92085640";"52.33986250";"107"
"10/5/2020 12:00:00 AM";"08:00 - 08:59";"STD";"Station Sloterdijk";"4.83878389";"52.38880848";"549"
"10/5/2020 12:00:00 AM";"08:00 - 08:59";"SVT";"Strandvliet";"4.94152820";"52.31825469";"141"
"10/5/2020 12:00:00 AM";"08:00 - 08:59";"VLN";"Burg.de Vlugtlaan";"4.83809109";"52.37951196";"289"
"10/5/2020 12:00:00 AM";"08:00 - 08:59";"VPD";"Venserpolder";"4.94665009";"52.32679428";"81"
"10/5/2020 12:00:00 AM";"08:00 - 08:59";"VSW";"Verrijn Stuartweg";"4.96693669";"52.32844093";"42"
"10/5/2020 12:00:00 AM";"08:00 - 08:59";"VZG";"Vijzelgracht";"4.89072870";"52.35980061";"105"
"10/5/2020 12:00:00 AM";"08:00 - 08:59";"WBS";"Wibautstraat";"4.91202993";"52.35428867";"318"
"10/5/2020 12:00:00 AM";"08:00 - 08:59";"WLP";"Waterlooplein";"4.90298171";"52.36697862";"105"
"10/5/2020 12:00:00 AM";"08:00 - 08:59";"WPP";"Weesperplein";"4.90787469";"52.36120146";"186"
"10/5/2020 12:00:00 AM";"08:00 - 08:59";"WTC";"Station Zuid";"4.87509853";"52.33908015";"692"
"10/5/2020 12:00:00 AM";"09:00 - 09:59";"";"Overig";"";"";"2335"
"10/5/2020 12:00:00 AM";"09:00 - 09:59";"[[ Onb";"[[ Onbekend ]]";"0.00000000";"0.00000000";"70"
"10/5/2020 12:00:00 AM";"09:00 - 09:59";"00005";"Muiderpoortstation";"4.93280219";"52.36121887";"60"
"10/5/2020 12:00:00 AM";"09:00 - 09:59";"00006";"Muiderpoortstation";"4.93368466";"52.36106048";"12"
"10/5/2020 12:00:00 AM";"09:00 - 09:59";"00007";"Muiderpoortstation";"4.93356602";"52.36117686";"17"
"10/5/2020 12:00:00 AM";"09:00 - 09:59";"00010";"Dapperstraat";"4.92891486";"52.36092527";"50"
"10/5/2020 12:00:00 AM";"09:00 - 09:59";"00017";"Linnaeusstraat";"4.92573745";"52.36013099";"15"
"10/5/2020 12:00:00 AM";"09:00 - 09:59";"00020";"Beukenweg";"4.91674979";"52.35906203";"43"
"10/5/2020 12:00:00 AM";"09:00 - 09:59";"00021";"Beukenweg";"4.91721293";"52.35829991";"18"
"10/5/2020 12:00:00 AM";"09:00 - 09:59";"00029";"Oostpoort";"4.92719316";"52.35707185";"24"
"10/5/2020 12:00:00 AM";"09:00 - 09:59";"00066";"Hugo de Vrieslaan";"4.93540468";"52.35073118";"14"
"10/5/2020 12:00:00 AM";"09:00 - 09:59";"00076";"Brinkstraat";"4.94742604";"52.34324474";"20"
"10/5/2020 12:00:00 AM";"09:00 - 09:59";"00116";"Station Ganzenhoef";"4.97272915";"52.32237665";"19"
"10/5/2020 12:00:00 AM";"09:00 - 09:59";"00141";"Kraaienneststation";"4.97868390";"52.31603403";"36"
"10/5/2020 12:00:00 AM";"09:00 - 09:59";"00144";"Kikkenstein";"4.97237050";"52.31680298";"10"
"10/5/2020 12:00:00 AM";"09:00 - 09:59";"00150";"Tulastraat";"4.96535973";"52.31994189";"33"
"10/5/2020 12:00:00 AM";"09:00 - 09:59";"00151";"Tulastraat";"4.96584458";"52.31985374";"12"
"10/5/2020 12:00:00 AM";"09:00 - 09:59";"00152";"Florijn";"4.95859163";"52.31758973";"24"
"10/5/2020 12:00:00 AM";"09:00 - 09:59";"00198";"Annie Romeinplein";"4.96998049";"52.32143226";"19"
"10/5/2020 12:00:00 AM";"09:00 - 09:59";"00238";"Anton de Komplein";"4.95413359";"52.31603659";"24"
"10/5/2020 12:00:00 AM";"09:00 - 09:59";"00239";"Anton de Komplein";"4.95597669";"52.31652866";"21"
"10/5/2020 12:00:00 AM";"09:00 - 09:59";"00433";"Diemerbrug";"4.96098811";"52.33837807";"26"
"10/5/2020 12:00:00 AM";"09:00 - 09:59";"00441";"Muiderpoortstation";"4.93254137";"52.36088532";"39"
"10/5/2020 12:00:00 AM";"09:00 - 09:59";"00453";"Diemen Sniep";"4.96964866";"52.33644962";"10"
"10/5/2020 12:00:00 AM";"09:00 - 09:59";"00509";"Arent Krijtsstraat";"4.95549045";"52.33940072";"11"
"10/5/2020 12:00:00 AM";"09:00 - 09:59";"00529";"Station Science Park";"4.94782063";"52.35230583";"10"
"10/5/2020 12:00:00 AM";"09:00 - 09:59";"00552";"Kraaienneststation";"4.98156548";"52.31686183";"16"
"10/5/2020 12:00:00 AM";"09:00 - 09:59";"00553";"Kraaienneststation";"4.98073727";"52.31601414";"15"
"10/5/2020 12:00:00 AM";"09:00 - 09:59";"00561";"Station Bijlmer ArenA";"4.94741931";"52.31132918";"20"
"10/5/2020 12:00:00 AM";"09:00 - 09:59";"00562";"Station Bijlmer ArenA";"4.94736012";"52.31138289";"18"
"10/5/2020 12:00:00 AM";"09:00 - 09:59";"01002";"Hilversumstraat";"4.95898142";"52.38973546";"14"
"10/5/2020 12:00:00 AM";"09:00 - 09:59";"01005";"Volendammerweg";"4.95680438";"52.39306199";"24"
"10/5/2020 12:00:00 AM";"09:00 - 09:59";"01060";"Wervershoofstraat";"4.94038537";"52.39249788";"14"
"10/5/2020 12:00:00 AM";"09:00 - 09:59";"01069";"De Egmondenstraat";"4.94948278";"52.39361036";"17"
"10/5/2020 12:00:00 AM";"09:00 - 09:59";"01071";"Waterlandplein";"4.95393688";"52.39183820";"47"
"10/5/2020 12:00:00 AM";"09:00 - 09:59";"01077";"Dijkmanshuizenstraat";"4.95440778";"52.39627083";"13"
"10/5/2020 12:00:00 AM";"09:00 - 09:59";"01091";"Beemsterstraat";"4.95105959";"52.39759770";"12"
"10/5/2020 12:00:00 AM";"09:00 - 09:59";"01110";"Rode Kruisstraat";"4.92847908";"52.39455548";"10"
"10/5/2020 12:00:00 AM";"09:00 - 09:59";"01155";"Mosplein";"4.91358361";"52.39300490";"10"
"10/5/2020 12:00:00 AM";"09:00 - 09:59";"01156";"Sneeuwbalstraat";"4.91395944";"52.39633184";"15"
"10/5/2020 12:00:00 AM";"09:00 - 09:59";"01167";"Tjalkstraat";"4.91007632";"52.40492643";"18"
"10/5/2020 12:00:00 AM";"09:00 - 09:59";"01171";"Voordek";"4.91677702";"52.41048960";"10"
"10/5/2020 12:00:00 AM";"09:00 - 09:59";"01173";"Tussendek";"4.91923925";"52.41253056";"10"
"10/5/2020 12:00:00 AM";"09:00 - 09:59";"01174";"Tussendek";"4.91996775";"52.41313560";"11"
"10/5/2020 12:00:00 AM";"09:00 - 09:59";"01178";"Masthof";"4.92600624";"52.41194593";"14"
"10/5/2020 12:00:00 AM";"09:00 - 09:59";"01180";"Grootzeil";"4.92316491";"52.40818700";"12"
"10/5/2020 12:00:00 AM";"09:00 - 09:59";"01188";"Barkpad";"4.91148172";"52.40268517";"10"
"10/5/2020 12:00:00 AM";"09:00 - 09:59";"01189";"Pinksterbloemstraat";"4.91221693";"52.39852684";"20"
"10/5/2020 12:00:00 AM";"09:00 - 09:59";"01206";"Maanstraat";"4.88683437";"52.41222737";"10"
"10/5/2020 12:00:00 AM";"09:00 - 09:59";"01215";"Bovenkruier";"4.88414138";"52.42028686";"15"
"10/5/2020 12:00:00 AM";"09:00 - 09:59";"01219";"Petmolen";"4.88623439";"52.41719500";"12"
"10/5/2020 12:00:00 AM";"09:00 - 09:59";"01237";"Beemsterstraat";"4.95210741";"52.39712521";"11"
"10/5/2020 12:00:00 AM";"09:00 - 09:59";"01277";"Statenjachtstraat";"4.91364478";"52.40790666";"17"
"10/5/2020 12:00:00 AM";"09:00 - 09:59";"01278";"Statenjachtstraat";"4.91380643";"52.40790731";"10"
"10/5/2020 12:00:00 AM";"09:00 - 09:59";"01314";"Station Noord";"4.93342661";"52.40207921";"11"
"10/5/2020 12:00:00 AM";"09:00 - 09:59";"01346";"Nageljongenstraat";"4.89894497";"52.40824245";"21"
"10/5/2020 12:00:00 AM";"09:00 - 09:59";"01359";"Molenwijk";"4.89361832";"52.41807082";"13"
"10/5/2020 12:00:00 AM";"09:00 - 09:59";"01363";"Buikslotermeerplein";"4.93968364";"52.39943369";"11"
"10/5/2020 12:00:00 AM";"09:00 - 09:59";"01366";"Atat?rk";"4.89776534";"52.40327640";"10"
"10/5/2020 12:00:00 AM";"09:00 - 09:59";"01414";"Olof Palmeplein";"4.94012168";"52.39679298";"19"
"10/5/2020 12:00:00 AM";"09:00 - 09:59";"01443";"Volendammerweg";"4.95697086";"52.39255928";"12"
"10/5/2020 12:00:00 AM";"09:00 - 09:59";"02019";"Koivistokade";"4.87537403";"52.39790601";"12"
"10/5/2020 12:00:00 AM";"09:00 - 09:59";"02107";"Assendelftstraat";"4.87984170";"52.38882970";"17"
"10/5/2020 12:00:00 AM";"09:00 - 09:59";"02113";"Haarlemmerplein";"4.88371739";"52.38516129";"40"
"10/5/2020 12:00:00 AM";"09:00 - 09:59";"02114";"Haarlemmerplein";"4.88341252";"52.38484542";"20"
"10/5/2020 12:00:00 AM";"09:00 - 09:59";"02131";"Hugo de Grootplein";"4.87292199";"52.37496778";"26"
"10/5/2020 12:00:00 AM";"09:00 - 09:59";"02133";"Fred. Hendrikplants.";"4.87521709";"52.37842002";"25"
"10/5/2020 12:00:00 AM";"09:00 - 09:59";"02141";"V.d. Hoopstraat";"4.87037134";"52.38339614";"16"
"10/5/2020 12:00:00 AM";"09:00 - 09:59";"02145";"Van Hallstraat";"4.86990682";"52.38418503";"10"
"10/5/2020 12:00:00 AM";"09:00 - 09:59";"02148";"Van L.Stirumstraat";"4.87517891";"52.38427085";"16"
"10/5/2020 12:00:00 AM";"09:00 - 09:59";"02154";"De Clercqstraat";"4.87052824";"52.37119150";"14"
"10/5/2020 12:00:00 AM";"09:00 - 09:59";"02155";"Willem de Zwijgerlaan";"4.86360306";"52.37071170";"13"
"10/5/2020 12:00:00 AM";"09:00 - 09:59";"02156";"Willem de Zwijgerlaan";"4.86425293";"52.37039101";"20"
"10/5/2020 12:00:00 AM";"09:00 - 09:59";"02157";"Adm. de Ruijterweg";"4.86009910";"52.37148707";"11"
"10/5/2020 12:00:00 AM";"09:00 - 09:59";"02158";"Adm. de Ruijterweg";"4.86096776";"52.37129320";"26"
"10/5/2020 12:00:00 AM";"09:00 - 09:59";"02164";"De Rijpstraat";"4.85776890";"52.37725578";"14"
"10/5/2020 12:00:00 AM";"09:00 - 09:59";"02166";"Bos en Lommerweg";"4.85548704";"52.38016657";"25"
"10/5/2020 12:00:00 AM";"09:00 - 09:59";"02167";"Bos en Lommerweg";"4.85380049";"52.38118358";"18"
"10/5/2020 12:00:00 AM";"09:00 - 09:59";"02169";"Wiltzanghlaan";"4.85218893";"52.38206609";"19"
"10/5/2020 12:00:00 AM";"09:00 - 09:59";"02170";"Spaarndammerstraat";"4.87723089";"52.39231470";"31"
"10/5/2020 12:00:00 AM";"09:00 - 09:59";"02171";"Wiltzanghlaan";"4.85060722";"52.38290378";"10"
"10/5/2020 12:00:00 AM";"09:00 - 09:59";"02177";"Bos en Lommerweg";"4.85521256";"52.38101018";"16"
"10/5/2020 12:00:00 AM";"09:00 - 09:59";"02184";"Jan v.Galenstraat";"4.86033817";"52.37484954";"13"
"10/5/2020 12:00:00 AM";"09:00 - 09:59";"02190";"Karel Doormanstraat";"4.85695623";"52.37889690";"10"
"10/5/2020 12:00:00 AM";"09:00 - 09:59";"02192";"Marnixplein";"4.87860283";"52.37773357";"24"
"10/5/2020 12:00:00 AM";"09:00 - 09:59";"02199";"Eerste Marnixdwarsstraat";"4.88203787";"52.38302405";"15"
"10/5/2020 12:00:00 AM";"09:00 - 09:59";"02221";"Jan v.Galenstraat";"4.85842340";"52.37532634";"14"
"10/5/2020 12:00:00 AM";"09:00 - 09:59";"02222";"Jan van Galenstraat";"4.85874763";"52.37399761";"14"
"10/5/2020 12:00:00 AM";"09:00 - 09:59";"02361";"Station Sloterdijk";"4.83931858";"52.38833460";"57"
"10/5/2020 12:00:00 AM";"09:00 - 09:59";"02365";"Station Sloterdijk";"4.83873236";"52.38822404";"77"
"10/5/2020 12:00:00 AM";"09:00 - 09:59";"02366";"Station Sloterdijk";"4.83873347";"52.38813416";"24"
"10/5/2020 12:00:00 AM";"09:00 - 09:59";"02367";"Station Sloterdijk";"4.83876429";"52.38801747";"77"
"10/5/2020 12:00:00 AM";"09:00 - 09:59";"02368";"Station Sloterdijk";"4.83877999";"52.38793665";"12"
"10/5/2020 12:00:00 AM";"09:00 - 09:59";"02370";"Station Sloterdijk";"4.83879745";"52.38771204";"30"
"10/5/2020 12:00:00 AM";"09:00 - 09:59";"03009";"Witte de Withstraat";"4.85851970";"52.36478416";"18"
"10/5/2020 12:00:00 AM";"09:00 - 09:59";"03010";"Witte de Withstraat";"4.85928290";"52.36480554";"28"
"10/5/2020 12:00:00 AM";"09:00 - 09:59";"03012";"Hoofdweg";"4.85237353";"52.36432514";"10"
"10/5/2020 12:00:00 AM";"09:00 - 09:59";"03022";"Mercatorplein";"4.85070310";"52.37012367";"23"
"10/5/2020 12:00:00 AM";"09:00 - 09:59";"03023";"Marco Polostraat";"4.85520189";"52.37088096";"18"
"10/5/2020 12:00:00 AM";"09:00 - 09:59";"03024";"Marco Polostraat";"4.85546532";"52.37095405";"13"
"10/5/2020 12:00:00 AM";"09:00 - 09:59";"03025";"Jan v.Galenstraat";"4.84854861";"52.37342137";"11"
"10/5/2020 12:00:00 AM";"09:00 - 09:59";"03028";"Jan van Galenstraat";"4.84921138";"52.37204926";"19"
"10/5/2020 12:00:00 AM";"09:00 - 09:59";"03061";"Bos en Lommerplein";"4.84523530";"52.37778328";"26"
"10/5/2020 12:00:00 AM";"09:00 - 09:59";"03077";"Jan Tooropstraat";"4.83817288";"52.37171997";"14"
"10/5/2020 12:00:00 AM";"09:00 - 09:59";"03091";"Slotermeerlaan";"4.82076888";"52.37542183";"25"
"10/5/2020 12:00:00 AM";"09:00 - 09:59";"03098";"Burg. v. Leeuwenlaan";"4.81209115";"52.37644954";"49"
"10/5/2020 12:00:00 AM";"09:00 - 09:59";"03100";"Dr. H. Colijnstraat";"4.80626901";"52.37695140";"28"
"10/5/2020 12:00:00 AM";"09:00 - 09:59";"03101";"Lambertus Zijlplein";"4.80300456";"52.37726788";"99"
"10/5/2020 12:00:00 AM";"09:00 - 09:59";"03118";"Sam van Houtenstraat";"4.79800745";"52.37976868";"12"
"10/5/2020 12:00:00 AM";"09:00 - 09:59";"03122";"Aalbersestraat";"4.79897224";"52.38232600";"32"
"10/5/2020 12:00:00 AM";"09:00 - 09:59";"03123";"Dr. H. Colijnstraat";"4.80565355";"52.38244888";"10"
"10/5/2020 12:00:00 AM";"09:00 - 09:59";"03130";"Plein '40 - '45";"4.82267774";"52.38121007";"109"
"10/5/2020 12:00:00 AM";"09:00 - 09:59";"03132";"Burg. R?ellstraat";"4.81950345";"52.37676393";"15"
"10/5/2020 12:00:00 AM";"09:00 - 09:59";"03150";"Mercatorplein";"4.85011339";"52.37031872";"20"
"10/5/2020 12:00:00 AM";"09:00 - 09:59";"03167";"Bos en Lommerplein";"4.84650668";"52.37709704";"61"
"10/5/2020 12:00:00 AM";"09:00 - 09:59";"03168";"Mercatorplein";"4.85152392";"52.37024423";"22"
"10/5/2020 12:00:00 AM";"09:00 - 09:59";"03169";"Jan v.Galenstraat";"4.83601291";"52.37301316";"15"
"10/5/2020 12:00:00 AM";"09:00 - 09:59";"03172";"Burg. Rendorpstraat";"4.82691962";"52.37445346";"16"
"10/5/2020 12:00:00 AM";"09:00 - 09:59";"03176";"Sloterpark";"4.81890614";"52.37295026";"13"
"10/5/2020 12:00:00 AM";"09:00 - 09:59";"03182";"Jan Voermanstraat";"4.83852226";"52.36959149";"12"
"10/5/2020 12:00:00 AM";"09:00 - 09:59";"03197";"W. Schoutenstraat";"4.85238084";"52.36737202";"16"
"10/5/2020 12:00:00 AM";"09:00 - 09:59";"04008";"Dijkgraafplein";"4.78646982";"52.35545267";"71"
"10/5/2020 12:00:00 AM";"09:00 - 09:59";"04011";"Baden Powellweg";"4.79172542";"52.35650384";"69"
"10/5/2020 12:00:00 AM";"09:00 - 09:59";"04015";"Hoekenes";"4.79927973";"52.35802459";"60"
"10/5/2020 12:00:00 AM";"09:00 - 09:59";"04022";"Osdorpplein";"4.80322217";"52.35962596";"61"
"10/5/2020 12:00:00 AM";"09:00 - 09:59";"04042";"Ruimzicht";"4.80758369";"52.35951258";"19"
"10/5/2020 12:00:00 AM";"09:00 - 09:59";"04049";"Meer en Vaart";"4.81058859";"52.35647140";"51"
"10/5/2020 12:00:00 AM";"09:00 - 09:59";"04061";"Derkinderenstraat";"4.84014895";"52.35794190";"20"
"10/5/2020 12:00:00 AM";"09:00 - 09:59";"04063";"Johan Huizingalaan";"4.82626398";"52.35778704";"27"
"10/5/2020 12:00:00 AM";"09:00 - 09:59";"04089";"Louwesweg";"4.82514186";"52.34670876";"10"
"10/5/2020 12:00:00 AM";"09:00 - 09:59";"04110";"Westlandgracht";"4.84581964";"52.35156868";"10"
"10/5/2020 12:00:00 AM";"09:00 - 09:59";"04111";"Delflandlaan";"4.84191575";"52.35154177";"11"
"10/5/2020 12:00:00 AM";"09:00 - 09:59";"04113";"Johan Huizingalaan";"4.82750420";"52.34907476";"15"
"10/5/2020 12:00:00 AM";"09:00 - 09:59";"04130";"Derkinderenstraat";"4.83963295";"52.36406917";"12"
"10/5/2020 12:00:00 AM";"09:00 - 09:59";"04195";"Station Lelylaan";"4.83460082";"52.35788018";"73"
"10/5/2020 12:00:00 AM";"09:00 - 09:59";"04196";"Station Lelylaan";"4.83382251";"52.35790351";"36"
"10/5/2020 12:00:00 AM";"09:00 - 09:59";"04274";"Schiphol Airport/Plaza";"4.76104997";"52.30939292";"29"
"10/5/2020 12:00:00 AM";"09:00 - 09:59";"04276";"Laan v.Vlaanderen";"4.81567936";"52.34643875";"28"
"10/5/2020 12:00:00 AM";"09:00 - 09:59";"04278";"Kasterleepark";"4.81061791";"52.34630634";"20"
"10/5/2020 12:00:00 AM";"09:00 - 09:59";"04314";"Oudenaardeplantsoen";"4.80382615";"52.34495185";"19"
"10/5/2020 12:00:00 AM";"09:00 - 09:59";"04402";"Matterhorn";"4.77477998";"52.35372103";"27"
"10/5/2020 12:00:00 AM";"09:00 - 09:59";"04404";"Pilatus";"4.77668386";"52.35296690";"19"
"10/5/2020 12:00:00 AM";"09:00 - 09:59";"04406";"Inaristraat";"4.78314823";"52.35036664";"42"
"10/5/2020 12:00:00 AM";"09:00 - 09:59";"04408";"Ecuplein";"4.78886514";"52.34981147";"37"
"10/5/2020 12:00:00 AM";"09:00 - 09:59";"04410";"Baden Powellweg";"4.79518898";"52.35105663";"46"
"10/5/2020 12:00:00 AM";"09:00 - 09:59";"04412";"Hoekenes";"4.80261063";"52.35255853";"38"
"10/5/2020 12:00:00 AM";"09:00 - 09:59";"04414";"Louis Davidsstraat";"4.80910976";"52.35392963";"12"
"10/5/2020 12:00:00 AM";"09:00 - 09:59";"05011";"Centraal Station";"4.89921803";"52.37810793";"386"
"10/5/2020 12:00:00 AM";"09:00 - 09:59";"05022";"Centraal Station";"4.90104337";"52.37771998";"165"
"10/5/2020 12:00:00 AM";"09:00 - 09:59";"05031";"Dam";"4.89348394";"52.37341055";"11"
"10/5/2020 12:00:00 AM";"09:00 - 09:59";"05046";"Rembrandtplein";"4.89627976";"52.36625897";"12"
"10/5/2020 12:00:00 AM";"09:00 - 09:59";"05062";"Spui";"4.88925912";"52.36909673";"11"
"10/5/2020 12:00:00 AM";"09:00 - 09:59";"05065";"Dam";"4.89079364";"52.37367792";"27"
"10/5/2020 12:00:00 AM";"09:00 - 09:59";"05070";"Nieuwezijds Kolk";"4.89284106";"52.37575366";"14"
"10/5/2020 12:00:00 AM";"09:00 - 09:59";"05073";"Westermarkt";"4.88453426";"52.37400204";"26"
"10/5/2020 12:00:00 AM";"09:00 - 09:59";"05074";"Westermarkt";"4.88354950";"52.37407874";"10"
"10/5/2020 12:00:00 AM";"09:00 - 09:59";"05079";"Buiten Oranjestraat";"4.88805879";"52.38312149";"21"
"10/5/2020 12:00:00 AM";"09:00 - 09:59";"05093";"Barentszplein";"4.89156209";"52.38901415";"12"
"10/5/2020 12:00:00 AM";"09:00 - 09:59";"05097";"Centraal Station";"4.90087651";"52.37954379";"31"
"10/5/2020 12:00:00 AM";"09:00 - 09:59";"05103";"Centraal Station";"4.90127481";"52.37938365";"25"
"10/5/2020 12:00:00 AM";"09:00 - 09:59";"05104";"Centraal Station";"4.90164343";"52.37925034";"31"
"10/5/2020 12:00:00 AM";"09:00 - 09:59";"05105";"Centraal Station";"4.90187762";"52.37932321";"19"
"10/5/2020 12:00:00 AM";"09:00 - 09:59";"05106";"Centraal Station";"4.90229030";"52.37919008";"16"
"10/5/2020 12:00:00 AM";"09:00 - 09:59";"05107";"Centraal Station";"4.90195282";"52.37916174";"30"
"10/5/2020 12:00:00 AM";"09:00 - 09:59";"05154";"Marnixstraat";"4.87536375";"52.37207533";"16"
"10/5/2020 12:00:00 AM";"09:00 - 09:59";"06001";"Surinameplein";"4.85252231";"52.35807034";"22"
"10/5/2020 12:00:00 AM";"09:00 - 09:59";"06002";"Surinameplein";"4.85090753";"52.35807202";"24"
"10/5/2020 12:00:00 AM";"09:00 - 09:59";"06015";"Postjesweg";"4.85316124";"52.36352879";"16"
"10/5/2020 12:00:00 AM";"09:00 - 09:59";"06016";"J.P. Heijestraat";"4.86239635";"52.36472951";"29"
"10/5/2020 12:00:00 AM";"09:00 - 09:59";"06017";"J.P. Heijestraat";"4.86292316";"52.36487565";"15"
"10/5/2020 12:00:00 AM";"09:00 - 09:59";"06019";"Ten Katestraat";"4.86737423";"52.36591988";"26"
