"Datum";"UurgroepOmschrijving (van aankomst)";"AankomstHalteCode";"AankomstHalteNaam";"AankomstLat";"AankomstLon";"AantalReizen"
"6/28/2021 12:00:00 AM";"00:00 - 00:59";"";"Overig";"";"";"4"
"6/28/2021 12:00:00 AM";"01:00 - 01:59";"";"Overig";"";"";"33"
"6/28/2021 12:00:00 AM";"02:00 - 02:59";"";"Overig";"";"";"42"
"6/28/2021 12:00:00 AM";"03:00 - 03:59";"";"Overig";"";"";"23"
"6/28/2021 12:00:00 AM";"04:00 - 04:59";"";"Overig";"";"";"59"
"6/28/2021 12:00:00 AM";"04:00 - 04:59";"00562";"Station Bijlmer ArenA";"4.94736012";"52.31138289";"13"
"6/28/2021 12:00:00 AM";"05:00 - 05:59";"";"Overig";"";"";"252"
"6/28/2021 12:00:00 AM";"05:00 - 05:59";"[[ Onb";"[[ Onbekend ]]";"0.00000000";"0.00000000";"18"
"6/28/2021 12:00:00 AM";"05:00 - 05:59";"04267";"Schiphol Airport/Plaza";"4.76139455";"52.30887344";"60"
"6/28/2021 12:00:00 AM";"05:00 - 05:59";"04274";"Schiphol Airport/Plaza";"4.76104997";"52.30939292";"15"
"6/28/2021 12:00:00 AM";"05:00 - 05:59";"04379";"Knooppunt Schiphol Nrd";"4.79320459";"52.32276196";"47"
"6/28/2021 12:00:00 AM";"05:00 - 05:59";"05029";"Centraal Station";"4.90334975";"52.37900567";"18"
"6/28/2021 12:00:00 AM";"05:00 - 05:59";"BMR";"Station Bijlmer ArenA";"4.94713474";"52.31193030";"26"
"6/28/2021 12:00:00 AM";"05:00 - 05:59";"CS";"Centraal Station";"4.90078150";"52.37749421";"62"
"6/28/2021 12:00:00 AM";"05:00 - 05:59";"ND";"Noord";"4.93123182";"52.40117202";"10"
"6/28/2021 12:00:00 AM";"05:00 - 05:59";"RKN";"Rokin";"4.89229651";"52.36928023";"13"
"6/28/2021 12:00:00 AM";"05:00 - 05:59";"WTC";"Station Zuid";"4.87509853";"52.33908015";"21"
"6/28/2021 12:00:00 AM";"06:00 - 06:59";"";"Overig";"";"";"1578"
"6/28/2021 12:00:00 AM";"06:00 - 06:59";"[[ Onb";"[[ Onbekend ]]";"0.00000000";"0.00000000";"101"
"6/28/2021 12:00:00 AM";"06:00 - 06:59";"00023";"Beukenplein";"4.91809259";"52.35701816";"10"
"6/28/2021 12:00:00 AM";"06:00 - 06:59";"00451";"Paasheuvelweg";"4.95505879";"52.29630278";"11"
"6/28/2021 12:00:00 AM";"06:00 - 06:59";"00453";"Diemen Sniep";"4.96964866";"52.33644962";"42"
"6/28/2021 12:00:00 AM";"06:00 - 06:59";"00491";"Science Park Aer";"4.95218495";"52.35478458";"14"
"6/28/2021 12:00:00 AM";"06:00 - 06:59";"00560";"Station Bijlmer ArenA";"4.94747867";"52.31125750";"15"
"6/28/2021 12:00:00 AM";"06:00 - 06:59";"00561";"Station Bijlmer ArenA";"4.94741931";"52.31132918";"41"
"6/28/2021 12:00:00 AM";"06:00 - 06:59";"00562";"Station Bijlmer ArenA";"4.94736012";"52.31138289";"26"
"6/28/2021 12:00:00 AM";"06:00 - 06:59";"00999";"Vinkenbrug";"4.97831599";"52.33370267";"10"
"6/28/2021 12:00:00 AM";"06:00 - 06:59";"01365";"Atat?rk";"4.89794256";"52.40319625";"17"
"6/28/2021 12:00:00 AM";"06:00 - 06:59";"02311";"Seineweg";"4.81857317";"52.38632242";"43"
"6/28/2021 12:00:00 AM";"06:00 - 06:59";"02361";"Station Sloterdijk";"4.83931858";"52.38833460";"34"
"6/28/2021 12:00:00 AM";"06:00 - 06:59";"02365";"Station Sloterdijk";"4.83873236";"52.38822404";"23"
"6/28/2021 12:00:00 AM";"06:00 - 06:59";"02366";"Station Sloterdijk";"4.83873347";"52.38813416";"17"
"6/28/2021 12:00:00 AM";"06:00 - 06:59";"02368";"Station Sloterdijk";"4.83877999";"52.38793665";"19"
"6/28/2021 12:00:00 AM";"06:00 - 06:59";"02378";"Station Sloterdijk";"4.83809796";"52.38844579";"27"
"6/28/2021 12:00:00 AM";"06:00 - 06:59";"03060";"Bos en Lommerplein";"4.84718407";"52.37815169";"10"
"6/28/2021 12:00:00 AM";"06:00 - 06:59";"03132";"Burg. R?ellstraat";"4.81950345";"52.37676393";"21"
"6/28/2021 12:00:00 AM";"06:00 - 06:59";"04016";"Hoekenes";"4.79854723";"52.35791310";"13"
"6/28/2021 12:00:00 AM";"06:00 - 06:59";"04112";"Johan Huizingalaan";"4.82742878";"52.34923618";"10"
"6/28/2021 12:00:00 AM";"06:00 - 06:59";"04195";"Station Lelylaan";"4.83460082";"52.35788018";"23"
"6/28/2021 12:00:00 AM";"06:00 - 06:59";"04196";"Station Lelylaan";"4.83382251";"52.35790351";"30"
"6/28/2021 12:00:00 AM";"06:00 - 06:59";"04267";"Schiphol Airport/Plaza";"4.76139455";"52.30887344";"26"
"6/28/2021 12:00:00 AM";"06:00 - 06:59";"04274";"Schiphol Airport/Plaza";"4.76104997";"52.30939292";"11"
"6/28/2021 12:00:00 AM";"06:00 - 06:59";"04379";"Knooppunt Schiphol Nrd";"4.79320459";"52.32276196";"27"
"6/28/2021 12:00:00 AM";"06:00 - 06:59";"05011";"Centraal Station";"4.89921803";"52.37810793";"73"
"6/28/2021 12:00:00 AM";"06:00 - 06:59";"05029";"Centraal Station";"4.90334975";"52.37900567";"40"
"6/28/2021 12:00:00 AM";"06:00 - 06:59";"05065";"Dam";"4.89079364";"52.37367792";"12"
"6/28/2021 12:00:00 AM";"06:00 - 06:59";"05066";"Dam";"4.89027056";"52.37318140";"33"
"6/28/2021 12:00:00 AM";"06:00 - 06:59";"05069";"Nieuwezijds Kolk";"4.89373093";"52.37628765";"18"
"6/28/2021 12:00:00 AM";"06:00 - 06:59";"05074";"Westermarkt";"4.88354950";"52.37407874";"16"
"6/28/2021 12:00:00 AM";"06:00 - 06:59";"05097";"Centraal Station";"4.90087651";"52.37954379";"27"
"6/28/2021 12:00:00 AM";"06:00 - 06:59";"05103";"Centraal Station";"4.90127481";"52.37938365";"18"
"6/28/2021 12:00:00 AM";"06:00 - 06:59";"06028";"Elandsgracht";"4.87741694";"52.36974738";"10"
"6/28/2021 12:00:00 AM";"06:00 - 06:59";"06030";"Rozengracht";"4.87590932";"52.37187996";"10"
"6/28/2021 12:00:00 AM";"06:00 - 06:59";"06061";"Leidseplein";"4.88339576";"52.36305015";"15"
"6/28/2021 12:00:00 AM";"06:00 - 06:59";"06063";"Leidseplein";"4.88064547";"52.36476406";"18"
"6/28/2021 12:00:00 AM";"06:00 - 06:59";"06089";"Leidseplein";"4.88085541";"52.36309324";"21"
"6/28/2021 12:00:00 AM";"06:00 - 06:59";"07007";"Museumplein";"4.87950215";"52.35690388";"16"
"6/28/2021 12:00:00 AM";"06:00 - 06:59";"07193";"Station Zuid";"4.87334616";"52.34088808";"12"
"6/28/2021 12:00:00 AM";"06:00 - 06:59";"07270";"Parnassusweg";"4.86874218";"52.33806382";"10"
"6/28/2021 12:00:00 AM";"06:00 - 06:59";"07303";"VU medisch centrum";"4.86097062";"52.33515342";"23"
"6/28/2021 12:00:00 AM";"06:00 - 06:59";"07445";"Amstelveen Stadshart";"4.86751502";"52.30124433";"17"
"6/28/2021 12:00:00 AM";"06:00 - 06:59";"08054";"Weesperplein";"4.90941338";"52.36145933";"14"
"6/28/2021 12:00:00 AM";"06:00 - 06:59";"08057";"Frederiksplein";"4.90024241";"52.35971430";"13"
"6/28/2021 12:00:00 AM";"06:00 - 06:59";"08073";"Vijzelgracht";"4.89227386";"52.35946554";"10"
"6/28/2021 12:00:00 AM";"06:00 - 06:59";"08080";"Spiegelgracht";"4.88691222";"52.36106979";"12"
"6/28/2021 12:00:00 AM";"06:00 - 06:59";"08239";"Rietlandpark";"4.93413567";"52.37296191";"16"
"6/28/2021 12:00:00 AM";"06:00 - 06:59";"08247";"Vennepluimstraat";"4.99057242";"52.35769662";"13"
"6/28/2021 12:00:00 AM";"06:00 - 06:59";"08259";"1e Leeghwaterstraat";"4.93004964";"52.37047459";"11"
"6/28/2021 12:00:00 AM";"06:00 - 06:59";"09016";"Amstelstation";"4.91953925";"52.34649925";"10"
"6/28/2021 12:00:00 AM";"06:00 - 06:59";"ASA";"Amstelstation";"4.91751426";"52.34647326";"110"
"6/28/2021 12:00:00 AM";"06:00 - 06:59";"ASW";"Amstelveenseweg";"4.85798324";"52.33836671";"123"
"6/28/2021 12:00:00 AM";"06:00 - 06:59";"BLW";"Bullewijk";"4.95233581";"52.30642205";"44"
"6/28/2021 12:00:00 AM";"06:00 - 06:59";"BMR";"Station Bijlmer ArenA";"4.94713474";"52.31193030";"147"
"6/28/2021 12:00:00 AM";"06:00 - 06:59";"CLL";"Station Lelylaan";"4.83426589";"52.35766291";"34"
"6/28/2021 12:00:00 AM";"06:00 - 06:59";"CS";"Centraal Station";"4.90078150";"52.37749421";"326"
"6/28/2021 12:00:00 AM";"06:00 - 06:59";"DMZ";"Station Diemen-Zuid";"4.95713273";"52.33042795";"12"
"6/28/2021 12:00:00 AM";"06:00 - 06:59";"DPP";"De Pijp";"4.89101069";"52.35296212";"44"
"6/28/2021 12:00:00 AM";"06:00 - 06:59";"DVD";"Station Duivendrecht";"4.93678429";"52.32325190";"47"
"6/28/2021 12:00:00 AM";"06:00 - 06:59";"EPP";"Europaplein";"4.89138430";"52.34185482";"28"
"6/28/2021 12:00:00 AM";"06:00 - 06:59";"GN";"Gein";"4.98952268";"52.29627089";"14"
"6/28/2021 12:00:00 AM";"06:00 - 06:59";"GZH";"Station Ganzenhoef";"4.97323379";"52.32331315";"16"
"6/28/2021 12:00:00 AM";"06:00 - 06:59";"HDS";"Heemstedestraat";"4.83421208";"52.35255760";"22"
"6/28/2021 12:00:00 AM";"06:00 - 06:59";"HLD";"Station Holendrecht";"4.96021904";"52.29780451";"100"
"6/28/2021 12:00:00 AM";"06:00 - 06:59";"HVW";"Henk Sneevlietweg";"4.83439318";"52.34626699";"60"
"6/28/2021 12:00:00 AM";"06:00 - 06:59";"ITW";"Isolatorweg";"4.85013475";"52.39523277";"27"
"6/28/2021 12:00:00 AM";"06:00 - 06:59";"JLS";"Jan v.Galenstraat";"4.83492461";"52.37196551";"67"
"6/28/2021 12:00:00 AM";"06:00 - 06:59";"MDW";"Van der Madeweg";"4.93048657";"52.32945629";"46"
"6/28/2021 12:00:00 AM";"06:00 - 06:59";"ND";"Noord";"4.93123182";"52.40117202";"60"
"6/28/2021 12:00:00 AM";"06:00 - 06:59";"NDP";"Noorderpark";"4.91789115";"52.38855518";"29"
"6/28/2021 12:00:00 AM";"06:00 - 06:59";"NMT";"Nieuwmarkt";"4.90123885";"52.37194169";"29"
"6/28/2021 12:00:00 AM";"06:00 - 06:59";"OAS";"Overamstel";"4.91815361";"52.33179879";"32"
"6/28/2021 12:00:00 AM";"06:00 - 06:59";"PJW";"Postjesweg";"4.83385543";"52.36468044";"12"
"6/28/2021 12:00:00 AM";"06:00 - 06:59";"RAI";"Station RAI";"4.88982004";"52.33739931";"74"
"6/28/2021 12:00:00 AM";"06:00 - 06:59";"RGB";"Reigersbos";"4.97473728";"52.29566301";"12"
"6/28/2021 12:00:00 AM";"06:00 - 06:59";"RKN";"Rokin";"4.89229651";"52.36928023";"132"
"6/28/2021 12:00:00 AM";"06:00 - 06:59";"SLW";"Spaklerweg";"4.92085640";"52.33986250";"30"
"6/28/2021 12:00:00 AM";"06:00 - 06:59";"STD";"Station Sloterdijk";"4.83878389";"52.38880848";"156"
"6/28/2021 12:00:00 AM";"06:00 - 06:59";"VLN";"Burg.de Vlugtlaan";"4.83809109";"52.37951196";"10"
"6/28/2021 12:00:00 AM";"06:00 - 06:59";"VSW";"Verrijn Stuartweg";"4.96693669";"52.32844093";"26"
"6/28/2021 12:00:00 AM";"06:00 - 06:59";"VZG";"Vijzelgracht";"4.89072870";"52.35980061";"37"
"6/28/2021 12:00:00 AM";"06:00 - 06:59";"WBS";"Wibautstraat";"4.91202993";"52.35428867";"45"
"6/28/2021 12:00:00 AM";"06:00 - 06:59";"WLP";"Waterlooplein";"4.90298171";"52.36697862";"93"
"6/28/2021 12:00:00 AM";"06:00 - 06:59";"WPP";"Weesperplein";"4.90787469";"52.36120146";"76"
"6/28/2021 12:00:00 AM";"06:00 - 06:59";"WTC";"Station Zuid";"4.87509853";"52.33908015";"279"
"6/28/2021 12:00:00 AM";"07:00 - 07:59";"";"Overig";"";"";"2330"
"6/28/2021 12:00:00 AM";"07:00 - 07:59";"[[ Onb";"[[ Onbekend ]]";"0.00000000";"0.00000000";"219"
"6/28/2021 12:00:00 AM";"07:00 - 07:59";"00005";"Muiderpoortstation";"4.93280219";"52.36121887";"13"
"6/28/2021 12:00:00 AM";"07:00 - 07:59";"00008";"Dapperstraat";"4.92977913";"52.36110836";"17"
"6/28/2021 12:00:00 AM";"07:00 - 07:59";"00010";"Dapperstraat";"4.92891486";"52.36092527";"10"
"6/28/2021 12:00:00 AM";"07:00 - 07:59";"00017";"Linnaeusstraat";"4.92573745";"52.36013099";"10"
"6/28/2021 12:00:00 AM";"07:00 - 07:59";"00018";"Diemerknoop";"5.00286153";"52.33537576";"12"
"6/28/2021 12:00:00 AM";"07:00 - 07:59";"00020";"Beukenweg";"4.91674979";"52.35906203";"20"
"6/28/2021 12:00:00 AM";"07:00 - 07:59";"00021";"Beukenweg";"4.91721293";"52.35829991";"31"
"6/28/2021 12:00:00 AM";"07:00 - 07:59";"00023";"Beukenplein";"4.91809259";"52.35701816";"21"
"6/28/2021 12:00:00 AM";"07:00 - 07:59";"00030";"Oostpoort";"4.92694026";"52.35739442";"11"
"6/28/2021 12:00:00 AM";"07:00 - 07:59";"00238";"Anton de Komplein";"4.95413359";"52.31603659";"10"
"6/28/2021 12:00:00 AM";"07:00 - 07:59";"00432";"Diemerbrug";"4.96142958";"52.33824484";"11"
"6/28/2021 12:00:00 AM";"07:00 - 07:59";"00444";"Linnaeusstraat";"4.92490296";"52.35991203";"10"
"6/28/2021 12:00:00 AM";"07:00 - 07:59";"00451";"Paasheuvelweg";"4.95505879";"52.29630278";"12"
"6/28/2021 12:00:00 AM";"07:00 - 07:59";"00453";"Diemen Sniep";"4.96964866";"52.33644962";"44"
"6/28/2021 12:00:00 AM";"07:00 - 07:59";"00515";"Station Duivendrecht";"4.93669692";"52.32318866";"16"
"6/28/2021 12:00:00 AM";"07:00 - 07:59";"00560";"Station Bijlmer ArenA";"4.94747867";"52.31125750";"27"
"6/28/2021 12:00:00 AM";"07:00 - 07:59";"00561";"Station Bijlmer ArenA";"4.94741931";"52.31132918";"57"
"6/28/2021 12:00:00 AM";"07:00 - 07:59";"00562";"Station Bijlmer ArenA";"4.94736012";"52.31138289";"45"
"6/28/2021 12:00:00 AM";"07:00 - 07:59";"00568";"Station Bijlmer ArenA";"4.94762664";"52.31112323";"16"
"6/28/2021 12:00:00 AM";"07:00 - 07:59";"00665";"Station Weesp";"5.04383463";"52.31145059";"10"
"6/28/2021 12:00:00 AM";"07:00 - 07:59";"00999";"Vinkenbrug";"4.97831599";"52.33370267";"11"
"6/28/2021 12:00:00 AM";"07:00 - 07:59";"01076";"Waterlandplein";"4.95247364";"52.39274059";"10"
"6/28/2021 12:00:00 AM";"07:00 - 07:59";"01111";"Rode Kruisstraat";"4.92881363";"52.39488033";"17"
"6/28/2021 12:00:00 AM";"07:00 - 07:59";"01305";"Station Noord";"4.93215715";"52.40264056";"13"
"6/28/2021 12:00:00 AM";"07:00 - 07:59";"01352";"Oosterlengte";"4.92206974";"52.40611555";"10"
"6/28/2021 12:00:00 AM";"07:00 - 07:59";"01365";"Atat?rk";"4.89794256";"52.40319625";"20"
"6/28/2021 12:00:00 AM";"07:00 - 07:59";"01402";"Floraweg";"4.90614362";"52.39899665";"11"
"6/28/2021 12:00:00 AM";"07:00 - 07:59";"01422";"Noorderpark";"4.91956087";"52.38902016";"10"
"6/28/2021 12:00:00 AM";"07:00 - 07:59";"02018";"Koivistokade";"4.87577082";"52.39789874";"13"
"6/28/2021 12:00:00 AM";"07:00 - 07:59";"02103";"Spaarndammerstraat";"4.87765867";"52.39216375";"21"
"6/28/2021 12:00:00 AM";"07:00 - 07:59";"02114";"Haarlemmerplein";"4.88341252";"52.38484542";"29"
"6/28/2021 12:00:00 AM";"07:00 - 07:59";"02156";"Willem de Zwijgerlaan";"4.86425293";"52.37039101";"15"
"6/28/2021 12:00:00 AM";"07:00 - 07:59";"02169";"Wiltzanghlaan";"4.85218893";"52.38206609";"11"
"6/28/2021 12:00:00 AM";"07:00 - 07:59";"02260";"Contactweg";"4.85432952";"52.39215995";"14"
"6/28/2021 12:00:00 AM";"07:00 - 07:59";"02311";"Seineweg";"4.81857317";"52.38632242";"21"
"6/28/2021 12:00:00 AM";"07:00 - 07:59";"02361";"Station Sloterdijk";"4.83931858";"52.38833460";"62"
"6/28/2021 12:00:00 AM";"07:00 - 07:59";"02365";"Station Sloterdijk";"4.83873236";"52.38822404";"11"
"6/28/2021 12:00:00 AM";"07:00 - 07:59";"02368";"Station Sloterdijk";"4.83877999";"52.38793665";"14"
"6/28/2021 12:00:00 AM";"07:00 - 07:59";"02378";"Station Sloterdijk";"4.83809796";"52.38844579";"50"
"6/28/2021 12:00:00 AM";"07:00 - 07:59";"03010";"Witte de Withstraat";"4.85928290";"52.36480554";"12"
"6/28/2021 12:00:00 AM";"07:00 - 07:59";"03055";"Burg. Fockstraat";"4.83108040";"52.37991964";"10"
"6/28/2021 12:00:00 AM";"07:00 - 07:59";"03057";"Anth. Moddermanstraat";"4.81474778";"52.38339197";"11"
"6/28/2021 12:00:00 AM";"07:00 - 07:59";"03061";"Bos en Lommerplein";"4.84523530";"52.37778328";"21"
"6/28/2021 12:00:00 AM";"07:00 - 07:59";"03076";"Jan Tooropstraat";"4.83810313";"52.37142305";"15"
"6/28/2021 12:00:00 AM";"07:00 - 07:59";"03077";"Jan Tooropstraat";"4.83817288";"52.37171997";"13"
"6/28/2021 12:00:00 AM";"07:00 - 07:59";"03129";"Plein '40 - '45";"4.82112672";"52.38075328";"25"
"6/28/2021 12:00:00 AM";"07:00 - 07:59";"03145";"J. Cabeliaustraat";"4.80409638";"52.38246819";"11"
"6/28/2021 12:00:00 AM";"07:00 - 07:59";"03157";"Lambertus Zijlplein";"4.80338637";"52.37726977";"10"
"6/28/2021 12:00:00 AM";"07:00 - 07:59";"03167";"Bos en Lommerplein";"4.84650668";"52.37709704";"24"
"6/28/2021 12:00:00 AM";"07:00 - 07:59";"03168";"Mercatorplein";"4.85152392";"52.37024423";"12"
"6/28/2021 12:00:00 AM";"07:00 - 07:59";"03174";"Burg. R?ellstraat";"4.81863325";"52.37476448";"11"
"6/28/2021 12:00:00 AM";"07:00 - 07:59";"04021";"Osdorpplein West";"4.80322869";"52.35913166";"16"
"6/28/2021 12:00:00 AM";"07:00 - 07:59";"04024";"Baden Powellweg";"4.78782801";"52.36248802";"12"
"6/28/2021 12:00:00 AM";"07:00 - 07:59";"04050";"Meer en Vaart";"4.80994403";"52.35636940";"14"
"6/28/2021 12:00:00 AM";"07:00 - 07:59";"04060";"Derkinderenstraat";"4.83972293";"52.35796689";"12"
"6/28/2021 12:00:00 AM";"07:00 - 07:59";"04063";"Johan Huizingalaan";"4.82626398";"52.35778704";"16"
"6/28/2021 12:00:00 AM";"07:00 - 07:59";"04088";"Louwesweg";"4.82436420";"52.34669608";"13"
"6/28/2021 12:00:00 AM";"07:00 - 07:59";"04112";"Johan Huizingalaan";"4.82742878";"52.34923618";"28"
"6/28/2021 12:00:00 AM";"07:00 - 07:59";"04195";"Station Lelylaan";"4.83460082";"52.35788018";"47"
"6/28/2021 12:00:00 AM";"07:00 - 07:59";"04196";"Station Lelylaan";"4.83382251";"52.35790351";"51"
"6/28/2021 12:00:00 AM";"07:00 - 07:59";"04267";"Schiphol Airport/Plaza";"4.76139455";"52.30887344";"10"
"6/28/2021 12:00:00 AM";"07:00 - 07:59";"04274";"Schiphol Airport/Plaza";"4.76104997";"52.30939292";"22"
"6/28/2021 12:00:00 AM";"07:00 - 07:59";"04379";"Knooppunt Schiphol Nrd";"4.79320459";"52.32276196";"38"
"6/28/2021 12:00:00 AM";"07:00 - 07:59";"04413";"Louis Davidsstraat";"4.80850916";"52.35383682";"14"
"6/28/2021 12:00:00 AM";"07:00 - 07:59";"05011";"Centraal Station";"4.89921803";"52.37810793";"137"
"6/28/2021 12:00:00 AM";"07:00 - 07:59";"05029";"Centraal Station";"4.90334975";"52.37900567";"69"
"6/28/2021 12:00:00 AM";"07:00 - 07:59";"05060";"Koningsplein";"4.88894752";"52.36807981";"10"
"6/28/2021 12:00:00 AM";"07:00 - 07:59";"05064";"Koningsplein";"4.88949610";"52.36760577";"19"
"6/28/2021 12:00:00 AM";"07:00 - 07:59";"05065";"Dam";"4.89079364";"52.37367792";"34"
"6/28/2021 12:00:00 AM";"07:00 - 07:59";"05066";"Dam";"4.89027056";"52.37318140";"35"
"6/28/2021 12:00:00 AM";"07:00 - 07:59";"05069";"Nieuwezijds Kolk";"4.89373093";"52.37628765";"19"
"6/28/2021 12:00:00 AM";"07:00 - 07:59";"05073";"Westermarkt";"4.88453426";"52.37400204";"16"
"6/28/2021 12:00:00 AM";"07:00 - 07:59";"05074";"Westermarkt";"4.88354950";"52.37407874";"19"
"6/28/2021 12:00:00 AM";"07:00 - 07:59";"05077";"Marnixstraat";"4.87615428";"52.37228546";"14"
"6/28/2021 12:00:00 AM";"07:00 - 07:59";"05080";"Buiten Oranjestraat";"4.88782167";"52.38330923";"12"
"6/28/2021 12:00:00 AM";"07:00 - 07:59";"05090";"Westerdoksdijk";"4.89331977";"52.38551629";"11"
"6/28/2021 12:00:00 AM";"07:00 - 07:59";"05097";"Centraal Station";"4.90087651";"52.37954379";"37"
"6/28/2021 12:00:00 AM";"07:00 - 07:59";"05101";"Centraal Station";"4.90105195";"52.37961641";"16"
"6/28/2021 12:00:00 AM";"07:00 - 07:59";"05103";"Centraal Station";"4.90127481";"52.37938365";"28"
"6/28/2021 12:00:00 AM";"07:00 - 07:59";"05104";"Centraal Station";"4.90164343";"52.37925034";"20"
"6/28/2021 12:00:00 AM";"07:00 - 07:59";"05107";"Centraal Station";"4.90195282";"52.37916174";"20"
"6/28/2021 12:00:00 AM";"07:00 - 07:59";"06001";"Surinameplein";"4.85252231";"52.35807034";"21"
"6/28/2021 12:00:00 AM";"07:00 - 07:59";"06002";"Surinameplein";"4.85090753";"52.35807202";"11"
"6/28/2021 12:00:00 AM";"07:00 - 07:59";"06019";"Ten Katestraat";"4.86737423";"52.36591988";"15"
"6/28/2021 12:00:00 AM";"07:00 - 07:59";"06020";"Ten Katestraat";"4.86773990";"52.36603832";"19"
"6/28/2021 12:00:00 AM";"07:00 - 07:59";"06021";"Bilderdijkstraat";"4.87176488";"52.36712545";"13"
"6/28/2021 12:00:00 AM";"07:00 - 07:59";"06023";"Bilderdijkstraat";"4.87254032";"52.36736251";"11"
"6/28/2021 12:00:00 AM";"07:00 - 07:59";"06027";"Elandsgracht";"4.87855189";"52.36808953";"10"
"6/28/2021 12:00:00 AM";"07:00 - 07:59";"06028";"Elandsgracht";"4.87741694";"52.36974738";"13"
"6/28/2021 12:00:00 AM";"07:00 - 07:59";"06029";"Elandsgracht";"4.87684368";"52.36852258";"24"
"6/28/2021 12:00:00 AM";"07:00 - 07:59";"06030";"Rozengracht";"4.87590932";"52.37187996";"10"
"6/28/2021 12:00:00 AM";"07:00 - 07:59";"06034";"Bilderdijkstraat";"4.87082347";"52.37105798";"19"
"6/28/2021 12:00:00 AM";"07:00 - 07:59";"06037";"Bilderdijkstraat";"4.86985701";"52.37082906";"12"
"6/28/2021 12:00:00 AM";"07:00 - 07:59";"06038";"De Clercqstraat";"4.87040279";"52.37061574";"11"
"6/28/2021 12:00:00 AM";"07:00 - 07:59";"06044";"Overtoom";"4.87483191";"52.36345380";"12"
"6/28/2021 12:00:00 AM";"07:00 - 07:59";"06045";"1e Con. Huygensstraat";"4.87399228";"52.36242556";"14"
"6/28/2021 12:00:00 AM";"07:00 - 07:59";"06046";"1e Con. Huygensstraat";"4.87487082";"52.36262709";"16"
"6/28/2021 12:00:00 AM";"07:00 - 07:59";"06048";"J.P. Heijestraat";"4.86585368";"52.36037674";"22"
"6/28/2021 12:00:00 AM";"07:00 - 07:59";"06049";"J.P. Heijestraat";"4.86671778";"52.36055131";"13"
"6/28/2021 12:00:00 AM";"07:00 - 07:59";"06061";"Leidseplein";"4.88339576";"52.36305015";"17"
"6/28/2021 12:00:00 AM";"07:00 - 07:59";"06063";"Leidseplein";"4.88064547";"52.36476406";"16"
"6/28/2021 12:00:00 AM";"07:00 - 07:59";"06074";"Keizersgracht";"4.88624128";"52.36588437";"11"
"6/28/2021 12:00:00 AM";"07:00 - 07:59";"06082";"Rhijnvis Feithstraat";"4.85967683";"52.35883943";"15"
"6/28/2021 12:00:00 AM";"07:00 - 07:59";"06089";"Leidseplein";"4.88085541";"52.36309324";"29"
"6/28/2021 12:00:00 AM";"07:00 - 07:59";"07006";"Museumplein";"4.87980116";"52.35642881";"20"
"6/28/2021 12:00:00 AM";"07:00 - 07:59";"07007";"Museumplein";"4.87950215";"52.35690388";"41"
"6/28/2021 12:00:00 AM";"07:00 - 07:59";"07016";"Roelof Hartplein";"4.88286688";"52.35274795";"12"
"6/28/2021 12:00:00 AM";"07:00 - 07:59";"07027";"Corn. Schuytstraat";"4.87051458";"52.35597520";"11"
"6/28/2021 12:00:00 AM";"07:00 - 07:59";"07031";"Valeriusplein";"4.86374943";"52.35333004";"17"
"6/28/2021 12:00:00 AM";"07:00 - 07:59";"07049";"Hoofddorpplein";"4.84958188";"52.35117239";"13"
"6/28/2021 12:00:00 AM";"07:00 - 07:59";"07050";"Haarlemmermeerstation";"4.85744749";"52.34883508";"20"
"6/28/2021 12:00:00 AM";"07:00 - 07:59";"07084";"Gerrit v.d. Veenstraat";"4.87720177";"52.34886793";"12"
"6/28/2021 12:00:00 AM";"07:00 - 07:59";"07190";"Station Zuid";"4.87352214";"52.34089784";"10"
"6/28/2021 12:00:00 AM";"07:00 - 07:59";"07193";"Station Zuid";"4.87334616";"52.34088808";"30"
"6/28/2021 12:00:00 AM";"07:00 - 07:59";"07268";"Station Zuid";"4.87428608";"52.34082026";"20"
"6/28/2021 12:00:00 AM";"07:00 - 07:59";"07269";"Station Zuid";"4.87374306";"52.34082689";"28"
"6/28/2021 12:00:00 AM";"07:00 - 07:59";"07270";"Parnassusweg";"4.86874218";"52.33806382";"25"
"6/28/2021 12:00:00 AM";"07:00 - 07:59";"07294";"Station Zuid";"4.87327467";"52.34072599";"26"
"6/28/2021 12:00:00 AM";"07:00 - 07:59";"07303";"VU medisch centrum";"4.86097062";"52.33515342";"38"
"6/28/2021 12:00:00 AM";"07:00 - 07:59";"07322";"Van Baerlestraat";"4.87971942";"52.35844171";"11"
"6/28/2021 12:00:00 AM";"07:00 - 07:59";"07339";"Nieuw Herlaer";"4.88985946";"52.32602094";"14"
"6/28/2021 12:00:00 AM";"07:00 - 07:59";"07391";"Kronenburg";"4.87070592";"52.31556694";"11"
"6/28/2021 12:00:00 AM";"07:00 - 07:59";"07419";"Van Boshuizenstraat";"4.86896941";"52.32487971";"26"
"6/28/2021 12:00:00 AM";"07:00 - 07:59";"07439";"Oranjebaan";"4.87179001";"52.30302465";"14"
"6/28/2021 12:00:00 AM";"07:00 - 07:59";"07442";"Zonnestein";"4.87236664";"52.31146674";"10"
"6/28/2021 12:00:00 AM";"07:00 - 07:59";"07453";"Ouderkerkerlaan";"4.86721192";"52.29582332";"17"
"6/28/2021 12:00:00 AM";"07:00 - 07:59";"07482";"Sacharovlaan";"4.83228912";"52.28211984";"27"
"6/28/2021 12:00:00 AM";"07:00 - 07:59";"08007";"Bob Haarmslaan";"4.96921237";"52.36876786";"12"
"6/28/2021 12:00:00 AM";"07:00 - 07:59";"08054";"Weesperplein";"4.90941338";"52.36145933";"16"
"6/28/2021 12:00:00 AM";"07:00 - 07:59";"08057";"Frederiksplein";"4.90024241";"52.35971430";"18"
"6/28/2021 12:00:00 AM";"07:00 - 07:59";"08058";"Veelaan";"4.93961588";"52.36830916";"11"
"6/28/2021 12:00:00 AM";"07:00 - 07:59";"08072";"Vijzelgracht";"4.89159781";"52.35953462";"16"
"6/28/2021 12:00:00 AM";"07:00 - 07:59";"08073";"Vijzelgracht";"4.89227386";"52.35946554";"12"
"6/28/2021 12:00:00 AM";"07:00 - 07:59";"08080";"Spiegelgracht";"4.88691222";"52.36106979";"15"
"6/28/2021 12:00:00 AM";"07:00 - 07:59";"08120";"Insulindeweg";"4.94763926";"52.36469021";"13"
"6/28/2021 12:00:00 AM";"07:00 - 07:59";"08139";"Zuiderzeeweg";"4.96240105";"52.37166461";"16"
"6/28/2021 12:00:00 AM";"07:00 - 07:59";"08195";"Oostenburgergracht";"4.92452709";"52.36780177";"15"
"6/28/2021 12:00:00 AM";"07:00 - 07:59";"08238";"Rietlandpark";"4.93350159";"52.37322013";"12"
"6/28/2021 12:00:00 AM";"07:00 - 07:59";"08239";"Rietlandpark";"4.93413567";"52.37296191";"26"
"6/28/2021 12:00:00 AM";"07:00 - 07:59";"08241";"Zuiderzeeweg";"4.96185517";"52.37193228";"18"
"6/28/2021 12:00:00 AM";"07:00 - 07:59";"08245";"Steigereiland";"4.98012952";"52.36313467";"12"
"6/28/2021 12:00:00 AM";"07:00 - 07:59";"08247";"Vennepluimstraat";"4.99057242";"52.35769662";"17"
"6/28/2021 12:00:00 AM";"07:00 - 07:59";"08249";"Diemerparklaan";"4.99499716";"52.35532962";"12"
"6/28/2021 12:00:00 AM";"07:00 - 07:59";"08255";"Hoogte Kadijk";"4.92483038";"52.36687722";"10"
"6/28/2021 12:00:00 AM";"07:00 - 07:59";"08259";"1e Leeghwaterstraat";"4.93004964";"52.37047459";"12"
"6/28/2021 12:00:00 AM";"07:00 - 07:59";"08262";"IJburg";"5.00486802";"52.35112872";"37"
"6/28/2021 12:00:00 AM";"07:00 - 07:59";"08281";"Vennepluimstraat";"4.99139941";"52.35714215";"10"
"6/28/2021 12:00:00 AM";"07:00 - 07:59";"09013";"Amstelstation";"4.91790223";"52.34725673";"12"
"6/28/2021 12:00:00 AM";"07:00 - 07:59";"09082";"Waalstraat";"4.89974094";"52.34656317";"12"
"6/28/2021 12:00:00 AM";"07:00 - 07:59";"09097";"Van Woustraat";"4.90084070";"52.35468363";"13"
"6/28/2021 12:00:00 AM";"07:00 - 07:59";"09111";"De Pijp";"4.89073444";"52.35272728";"15"
"6/28/2021 12:00:00 AM";"07:00 - 07:59";"09120";"Cornelis Troostplein";"4.89161100";"52.35046604";"13"
"6/28/2021 12:00:00 AM";"07:00 - 07:59";"ASA";"Amstelstation";"4.91751426";"52.34647326";"199"
"6/28/2021 12:00:00 AM";"07:00 - 07:59";"ASW";"Amstelveenseweg";"4.85798324";"52.33836671";"309"
"6/28/2021 12:00:00 AM";"07:00 - 07:59";"BLW";"Bullewijk";"4.95233581";"52.30642205";"67"
"6/28/2021 12:00:00 AM";"07:00 - 07:59";"BMR";"Station Bijlmer ArenA";"4.94713474";"52.31193030";"311"
"6/28/2021 12:00:00 AM";"07:00 - 07:59";"CLL";"Station Lelylaan";"4.83426589";"52.35766291";"85"
"6/28/2021 12:00:00 AM";"07:00 - 07:59";"CS";"Centraal Station";"4.90078150";"52.37749421";"541"
"6/28/2021 12:00:00 AM";"07:00 - 07:59";"DMZ";"Station Diemen-Zuid";"4.95713273";"52.33042795";"36"
"6/28/2021 12:00:00 AM";"07:00 - 07:59";"DPP";"De Pijp";"4.89101069";"52.35296212";"107"
"6/28/2021 12:00:00 AM";"07:00 - 07:59";"DVD";"Station Duivendrecht";"4.93678429";"52.32325190";"97"
"6/28/2021 12:00:00 AM";"07:00 - 07:59";"EPP";"Europaplein";"4.89138430";"52.34185482";"138"
"6/28/2021 12:00:00 AM";"07:00 - 07:59";"GN";"Gein";"4.98952268";"52.29627089";"31"
"6/28/2021 12:00:00 AM";"07:00 - 07:59";"GZH";"Station Ganzenhoef";"4.97323379";"52.32331315";"41"
"6/28/2021 12:00:00 AM";"07:00 - 07:59";"HDS";"Heemstedestraat";"4.83421208";"52.35255760";"74"
"6/28/2021 12:00:00 AM";"07:00 - 07:59";"HLD";"Station Holendrecht";"4.96021904";"52.29780451";"295"
"6/28/2021 12:00:00 AM";"07:00 - 07:59";"HVW";"Henk Sneevlietweg";"4.83439318";"52.34626699";"137"
"6/28/2021 12:00:00 AM";"07:00 - 07:59";"ITW";"Isolatorweg";"4.85013475";"52.39523277";"47"
"6/28/2021 12:00:00 AM";"07:00 - 07:59";"JLS";"Jan v.Galenstraat";"4.83492461";"52.37196551";"172"
"6/28/2021 12:00:00 AM";"07:00 - 07:59";"KEN";"Kraaienneststation";"4.97963450";"52.31632492";"38"
"6/28/2021 12:00:00 AM";"07:00 - 07:59";"MDW";"Van der Madeweg";"4.93048657";"52.32945629";"70"
"6/28/2021 12:00:00 AM";"07:00 - 07:59";"ND";"Noord";"4.93123182";"52.40117202";"128"
"6/28/2021 12:00:00 AM";"07:00 - 07:59";"NDP";"Noorderpark";"4.91789115";"52.38855518";"83"
"6/28/2021 12:00:00 AM";"07:00 - 07:59";"NMT";"Nieuwmarkt";"4.90123885";"52.37194169";"58"
"6/28/2021 12:00:00 AM";"07:00 - 07:59";"OAS";"Overamstel";"4.91815361";"52.33179879";"41"
"6/28/2021 12:00:00 AM";"07:00 - 07:59";"PJW";"Postjesweg";"4.83385543";"52.36468044";"42"
"6/28/2021 12:00:00 AM";"07:00 - 07:59";"RAI";"Station RAI";"4.88982004";"52.33739931";"98"
"6/28/2021 12:00:00 AM";"07:00 - 07:59";"RGB";"Reigersbos";"4.97473728";"52.29566301";"64"
"6/28/2021 12:00:00 AM";"07:00 - 07:59";"RKN";"Rokin";"4.89229651";"52.36928023";"178"
"6/28/2021 12:00:00 AM";"07:00 - 07:59";"SLW";"Spaklerweg";"4.92085640";"52.33986250";"71"
"6/28/2021 12:00:00 AM";"07:00 - 07:59";"STD";"Station Sloterdijk";"4.83878389";"52.38880848";"197"
"6/28/2021 12:00:00 AM";"07:00 - 07:59";"SVT";"Strandvliet";"4.94152820";"52.31825469";"51"
"6/28/2021 12:00:00 AM";"07:00 - 07:59";"VLN";"Burg.de Vlugtlaan";"4.83809109";"52.37951196";"23"
"6/28/2021 12:00:00 AM";"07:00 - 07:59";"VPD";"Venserpolder";"4.94665009";"52.32679428";"21"
"6/28/2021 12:00:00 AM";"07:00 - 07:59";"VSW";"Verrijn Stuartweg";"4.96693669";"52.32844093";"34"
"6/28/2021 12:00:00 AM";"07:00 - 07:59";"VZG";"Vijzelgracht";"4.89072870";"52.35980061";"85"
"6/28/2021 12:00:00 AM";"07:00 - 07:59";"WBS";"Wibautstraat";"4.91202993";"52.35428867";"160"
"6/28/2021 12:00:00 AM";"07:00 - 07:59";"WLP";"Waterlooplein";"4.90298171";"52.36697862";"109"
"6/28/2021 12:00:00 AM";"07:00 - 07:59";"WPP";"Weesperplein";"4.90787469";"52.36120146";"168"
"6/28/2021 12:00:00 AM";"07:00 - 07:59";"WTC";"Station Zuid";"4.87509853";"52.33908015";"574"
"6/28/2021 12:00:00 AM";"08:00 - 08:59";"";"Overig";"";"";"2409"
"6/28/2021 12:00:00 AM";"08:00 - 08:59";"[[ Onb";"[[ Onbekend ]]";"0.00000000";"0.00000000";"402"
"6/28/2021 12:00:00 AM";"08:00 - 08:59";"00005";"Muiderpoortstation";"4.93280219";"52.36121887";"32"
"6/28/2021 12:00:00 AM";"08:00 - 08:59";"00006";"Muiderpoortstation";"4.93368466";"52.36106048";"40"
"6/28/2021 12:00:00 AM";"08:00 - 08:59";"00007";"Muiderpoortstation";"4.93356602";"52.36117686";"15"
"6/28/2021 12:00:00 AM";"08:00 - 08:59";"00008";"Dapperstraat";"4.92977913";"52.36110836";"32"
"6/28/2021 12:00:00 AM";"08:00 - 08:59";"00010";"Dapperstraat";"4.92891486";"52.36092527";"12"
"6/28/2021 12:00:00 AM";"08:00 - 08:59";"00017";"Linnaeusstraat";"4.92573745";"52.36013099";"15"
"6/28/2021 12:00:00 AM";"08:00 - 08:59";"00020";"Beukenweg";"4.91674979";"52.35906203";"25"
"6/28/2021 12:00:00 AM";"08:00 - 08:59";"00021";"Beukenweg";"4.91721293";"52.35829991";"37"
"6/28/2021 12:00:00 AM";"08:00 - 08:59";"00023";"Beukenplein";"4.91809259";"52.35701816";"16"
"6/28/2021 12:00:00 AM";"08:00 - 08:59";"00029";"Oostpoort";"4.92719316";"52.35707185";"76"
"6/28/2021 12:00:00 AM";"08:00 - 08:59";"00030";"Oostpoort";"4.92694026";"52.35739442";"53"
"6/28/2021 12:00:00 AM";"08:00 - 08:59";"00039";"Hogeweg";"4.93084015";"52.35358075";"16"
"6/28/2021 12:00:00 AM";"08:00 - 08:59";"00053";"Kruislaan";"4.93967974";"52.34742196";"14"
"6/28/2021 12:00:00 AM";"08:00 - 08:59";"00059";"Radioweg";"4.93945830";"52.35337100";"15"
"6/28/2021 12:00:00 AM";"08:00 - 08:59";"00070";"Kruislaan";"4.93993910";"52.34789929";"11"
"6/28/2021 12:00:00 AM";"08:00 - 08:59";"00114";"Dennenrode";"4.95213839";"52.32209601";"16"
"6/28/2021 12:00:00 AM";"08:00 - 08:59";"00116";"Station Ganzenhoef";"4.97272915";"52.32237665";"17"
"6/28/2021 12:00:00 AM";"08:00 - 08:59";"00128";"Geerdinkhof";"4.98077720";"52.32287193";"13"
"6/28/2021 12:00:00 AM";"08:00 - 08:59";"00134";"Koornhorst";"4.98400929";"52.31907218";"28"
"6/28/2021 12:00:00 AM";"08:00 - 08:59";"00135";"Koornhorst";"4.98396309";"52.31931470";"11"
"6/28/2021 12:00:00 AM";"08:00 - 08:59";"00141";"Kraaienneststation";"4.97868390";"52.31603403";"18"
"6/28/2021 12:00:00 AM";"08:00 - 08:59";"00144";"Kikkenstein";"4.97237050";"52.31680298";"15"
"6/28/2021 12:00:00 AM";"08:00 - 08:59";"00145";"Kikkenstein";"4.97271326";"52.31621998";"13"
"6/28/2021 12:00:00 AM";"08:00 - 08:59";"00150";"Tulastraat";"4.96535973";"52.31994189";"60"
"6/28/2021 12:00:00 AM";"08:00 - 08:59";"00151";"Tulastraat";"4.96584458";"52.31985374";"30"
"6/28/2021 12:00:00 AM";"08:00 - 08:59";"00152";"Florijn";"4.95859163";"52.31758973";"18"
"6/28/2021 12:00:00 AM";"08:00 - 08:59";"00157";"Dolingadreef";"4.94847023";"52.31925132";"11"
"6/28/2021 12:00:00 AM";"08:00 - 08:59";"00158";"Dolingadreef";"4.94901581";"52.31895674";"27"
"6/28/2021 12:00:00 AM";"08:00 - 08:59";"00167";"Hogevecht";"4.95956435";"52.30947729";"14"
"6/28/2021 12:00:00 AM";"08:00 - 08:59";"00179";"Kelbergen";"4.97179997";"52.31351146";"14"
"6/28/2021 12:00:00 AM";"08:00 - 08:59";"00180";"Kelbergen";"4.97143303";"52.31354612";"19"
"6/28/2021 12:00:00 AM";"08:00 - 08:59";"00197";"Annie Romeinplein";"4.97162041";"52.32173463";"10"
"6/28/2021 12:00:00 AM";"08:00 - 08:59";"00205";"Station Holendrecht";"4.95865657";"52.29716971";"20"
"6/28/2021 12:00:00 AM";"08:00 - 08:59";"00238";"Anton de Komplein";"4.95413359";"52.31603659";"24"
"6/28/2021 12:00:00 AM";"08:00 - 08:59";"00239";"Anton de Komplein";"4.95597669";"52.31652866";"23"
"6/28/2021 12:00:00 AM";"08:00 - 08:59";"00330";"Middenweg";"4.93455629";"52.35044932";"10"
"6/28/2021 12:00:00 AM";"08:00 - 08:59";"00331";"Station Reigersbos";"4.97350466";"52.29737537";"10"
"6/28/2021 12:00:00 AM";"08:00 - 08:59";"00341";"Woudrichemstraat";"4.98882309";"52.29418337";"20"
"6/28/2021 12:00:00 AM";"08:00 - 08:59";"00351";"Dostojevskisingel";"4.94525272";"52.32275356";"35"
"6/28/2021 12:00:00 AM";"08:00 - 08:59";"00432";"Diemerbrug";"4.96142958";"52.33824484";"17"
"6/28/2021 12:00:00 AM";"08:00 - 08:59";"00434";"Bijlmerplein";"4.95032022";"52.31457553";"13"
"6/28/2021 12:00:00 AM";"08:00 - 08:59";"00441";"Muiderpoortstation";"4.93254137";"52.36088532";"21"
"6/28/2021 12:00:00 AM";"08:00 - 08:59";"00444";"Linnaeusstraat";"4.92490296";"52.35991203";"45"
"6/28/2021 12:00:00 AM";"08:00 - 08:59";"00453";"Diemen Sniep";"4.96964866";"52.33644962";"15"
"6/28/2021 12:00:00 AM";"08:00 - 08:59";"00491";"Science Park Aer";"4.95218495";"52.35478458";"24"
"6/28/2021 12:00:00 AM";"08:00 - 08:59";"00505";"Arent Krijtsstraat";"4.95469645";"52.33956859";"15"
"6/28/2021 12:00:00 AM";"08:00 - 08:59";"00515";"Station Duivendrecht";"4.93669692";"52.32318866";"13"
"6/28/2021 12:00:00 AM";"08:00 - 08:59";"00518";"Foppingadreef";"4.94967889";"52.31268573";"16"
"6/28/2021 12:00:00 AM";"08:00 - 08:59";"00529";"Station Science Park";"4.94782063";"52.35230583";"11"
"6/28/2021 12:00:00 AM";"08:00 - 08:59";"00538";"Station Science Park";"4.94808393";"52.35239669";"40"
"6/28/2021 12:00:00 AM";"08:00 - 08:59";"00560";"Station Bijlmer ArenA";"4.94747867";"52.31125750";"31"
"6/28/2021 12:00:00 AM";"08:00 - 08:59";"00561";"Station Bijlmer ArenA";"4.94741931";"52.31132918";"58"
"6/28/2021 12:00:00 AM";"08:00 - 08:59";"00562";"Station Bijlmer ArenA";"4.94736012";"52.31138289";"34"
"6/28/2021 12:00:00 AM";"08:00 - 08:59";"00568";"Station Bijlmer ArenA";"4.94762664";"52.31112323";"11"
"6/28/2021 12:00:00 AM";"08:00 - 08:59";"00603";"V. Houten Ind.park";"5.03580865";"52.30648376";"25"
"6/28/2021 12:00:00 AM";"08:00 - 08:59";"00665";"Station Weesp";"5.04383463";"52.31145059";"16"
"6/28/2021 12:00:00 AM";"08:00 - 08:59";"01076";"Waterlandplein";"4.95247364";"52.39274059";"18"
"6/28/2021 12:00:00 AM";"08:00 - 08:59";"01077";"Dijkmanshuizenstraat";"4.95440778";"52.39627083";"12"
"6/28/2021 12:00:00 AM";"08:00 - 08:59";"01078";"Dijkmanshuizenstraat";"4.95475323";"52.39549915";"16"
"6/28/2021 12:00:00 AM";"08:00 - 08:59";"01110";"Rode Kruisstraat";"4.92847908";"52.39455548";"49"
"6/28/2021 12:00:00 AM";"08:00 - 08:59";"01111";"Rode Kruisstraat";"4.92881363";"52.39488033";"79"
"6/28/2021 12:00:00 AM";"08:00 - 08:59";"01116";"Merelstraat";"4.92492850";"52.38986809";"12"
"6/28/2021 12:00:00 AM";"08:00 - 08:59";"01117";"Merelstraat";"4.92505977";"52.38995848";"13"
"6/28/2021 12:00:00 AM";"08:00 - 08:59";"01141";"Mosplein";"4.91273108";"52.39304643";"10"
"6/28/2021 12:00:00 AM";"08:00 - 08:59";"01155";"Mosplein";"4.91358361";"52.39300490";"12"
"6/28/2021 12:00:00 AM";"08:00 - 08:59";"01166";"Barkpad";"4.91174689";"52.40262332";"12"
"6/28/2021 12:00:00 AM";"08:00 - 08:59";"01189";"Pinksterbloemstraat";"4.91221693";"52.39852684";"25"
"6/28/2021 12:00:00 AM";"08:00 - 08:59";"01191";"Pinksterbloemstraat";"4.91203754";"52.39881372";"19"
"6/28/2021 12:00:00 AM";"08:00 - 08:59";"01212";"Oostzanerdijk";"4.88149588";"52.42023965";"56"
"6/28/2021 12:00:00 AM";"08:00 - 08:59";"01237";"Beemsterstraat";"4.95210741";"52.39712521";"24"
"6/28/2021 12:00:00 AM";"08:00 - 08:59";"01305";"Station Noord";"4.93215715";"52.40264056";"11"
"6/28/2021 12:00:00 AM";"08:00 - 08:59";"01316";"Station Noord";"4.93336820";"52.40204304";"19"
"6/28/2021 12:00:00 AM";"08:00 - 08:59";"01347";"Nageljongenstraat";"4.89978361";"52.40815603";"10"
"6/28/2021 12:00:00 AM";"08:00 - 08:59";"01359";"Molenwijk";"4.89361832";"52.41807082";"12"
"6/28/2021 12:00:00 AM";"08:00 - 08:59";"01363";"Buikslotermeerplein";"4.93968364";"52.39943369";"11"
"6/28/2021 12:00:00 AM";"08:00 - 08:59";"01364";"Buikslotermeerplein";"4.93887054";"52.39992493";"13"
"6/28/2021 12:00:00 AM";"08:00 - 08:59";"01365";"Atat?rk";"4.89794256";"52.40319625";"28"
"6/28/2021 12:00:00 AM";"08:00 - 08:59";"01402";"Floraweg";"4.90614362";"52.39899665";"32"
"6/28/2021 12:00:00 AM";"08:00 - 08:59";"01407";"Floraweg";"4.90766473";"52.39828381";"11"
"6/28/2021 12:00:00 AM";"08:00 - 08:59";"01422";"Noorderpark";"4.91956087";"52.38902016";"34"
"6/28/2021 12:00:00 AM";"08:00 - 08:59";"01423";"Noorderpark";"4.91921998";"52.38930641";"10"
"6/28/2021 12:00:00 AM";"08:00 - 08:59";"01443";"Volendammerweg";"4.95697086";"52.39255928";"14"
"6/28/2021 12:00:00 AM";"08:00 - 08:59";"02018";"Koivistokade";"4.87577082";"52.39789874";"20"
"6/28/2021 12:00:00 AM";"08:00 - 08:59";"02019";"Koivistokade";"4.87537403";"52.39790601";"37"
"6/28/2021 12:00:00 AM";"08:00 - 08:59";"02064";"Kabelweg";"4.84827817";"52.39205168";"17"
"6/28/2021 12:00:00 AM";"08:00 - 08:59";"02099";"Zaanstraat";"4.86990824";"52.39287613";"13"
"6/28/2021 12:00:00 AM";"08:00 - 08:59";"02103";"Spaarndammerstraat";"4.87765867";"52.39216375";"22"
"6/28/2021 12:00:00 AM";"08:00 - 08:59";"02113";"Haarlemmerplein";"4.88371739";"52.38516129";"19"
"6/28/2021 12:00:00 AM";"08:00 - 08:59";"02114";"Haarlemmerplein";"4.88341252";"52.38484542";"41"
"6/28/2021 12:00:00 AM";"08:00 - 08:59";"02130";"Hugo de Grootplein";"4.87259092";"52.37439113";"16"
"6/28/2021 12:00:00 AM";"08:00 - 08:59";"02132";"Fred. Hendrikplants.";"4.87543499";"52.37862768";"17"
"6/28/2021 12:00:00 AM";"08:00 - 08:59";"02142";"V.d. Hoopstraat";"4.87031312";"52.38335094";"12"
"6/28/2021 12:00:00 AM";"08:00 - 08:59";"02151";"De Wittenkade";"4.87695310";"52.38326290";"11"
"6/28/2021 12:00:00 AM";"08:00 - 08:59";"02155";"Willem de Zwijgerlaan";"4.86360306";"52.37071170";"17"
"6/28/2021 12:00:00 AM";"08:00 - 08:59";"02156";"Willem de Zwijgerlaan";"4.86425293";"52.37039101";"13"
"6/28/2021 12:00:00 AM";"08:00 - 08:59";"02157";"Adm. de Ruijterweg";"4.86009910";"52.37148707";"25"
"6/28/2021 12:00:00 AM";"08:00 - 08:59";"02158";"Adm. de Ruijterweg";"4.86096776";"52.37129320";"22"
"6/28/2021 12:00:00 AM";"08:00 - 08:59";"02159";"Jan Evertsenstraat";"4.85943407";"52.37184362";"10"
"6/28/2021 12:00:00 AM";"08:00 - 08:59";"02160";"Haparandaweg";"4.87389760";"52.39471799";"33"
"6/28/2021 12:00:00 AM";"08:00 - 08:59";"02167";"Bos en Lommerweg";"4.85380049";"52.38118358";"23"
"6/28/2021 12:00:00 AM";"08:00 - 08:59";"02170";"Spaarndammerstraat";"4.87723089";"52.39231470";"15"
"6/28/2021 12:00:00 AM";"08:00 - 08:59";"02171";"Wiltzanghlaan";"4.85060722";"52.38290378";"11"
"6/28/2021 12:00:00 AM";"08:00 - 08:59";"02172";"Molenwerf";"4.84552895";"52.38620612";"15"
"6/28/2021 12:00:00 AM";"08:00 - 08:59";"02182";"Markthallen";"4.86695146";"52.37567869";"41"
"6/28/2021 12:00:00 AM";"08:00 - 08:59";"02183";"Markthallen";"4.86667150";"52.37575835";"16"
"6/28/2021 12:00:00 AM";"08:00 - 08:59";"02184";"Jan v.Galenstraat";"4.86033817";"52.37484954";"13"
"6/28/2021 12:00:00 AM";"08:00 - 08:59";"02193";"Marnixplein";"4.87844490";"52.37741832";"16"
"6/28/2021 12:00:00 AM";"08:00 - 08:59";"02222";"Jan van Galenstraat";"4.85874763";"52.37399761";"25"
"6/28/2021 12:00:00 AM";"08:00 - 08:59";"02259";"Contactweg";"4.85657970";"52.39195435";"12"
"6/28/2021 12:00:00 AM";"08:00 - 08:59";"02260";"Contactweg";"4.85432952";"52.39215995";"17"
"6/28/2021 12:00:00 AM";"08:00 - 08:59";"02301";"Fred. Hendrikplants.";"4.87521585";"52.37852787";"25"
"6/28/2021 12:00:00 AM";"08:00 - 08:59";"02302";"Fred. Hendrikplants.";"4.87549415";"52.37859198";"19"
"6/28/2021 12:00:00 AM";"08:00 - 08:59";"02309";"Plesostraat";"4.82645527";"52.38795084";"15"
"6/28/2021 12:00:00 AM";"08:00 - 08:59";"02320";"Van Hallstraat";"4.86782303";"52.38527240";"13"
"6/28/2021 12:00:00 AM";"08:00 - 08:59";"02321";"Van Hallstraat";"4.86864429";"52.38538386";"16"
"6/28/2021 12:00:00 AM";"08:00 - 08:59";"02361";"Station Sloterdijk";"4.83931858";"52.38833460";"72"
"6/28/2021 12:00:00 AM";"08:00 - 08:59";"02365";"Station Sloterdijk";"4.83873236";"52.38822404";"23"
"6/28/2021 12:00:00 AM";"08:00 - 08:59";"02366";"Station Sloterdijk";"4.83873347";"52.38813416";"28"
"6/28/2021 12:00:00 AM";"08:00 - 08:59";"02367";"Station Sloterdijk";"4.83876429";"52.38801747";"36"
"6/28/2021 12:00:00 AM";"08:00 - 08:59";"02368";"Station Sloterdijk";"4.83877999";"52.38793665";"24"
"6/28/2021 12:00:00 AM";"08:00 - 08:59";"02378";"Station Sloterdijk";"4.83809796";"52.38844579";"64"
"6/28/2021 12:00:00 AM";"08:00 - 08:59";"03009";"Witte de Withstraat";"4.85851970";"52.36478416";"30"
"6/28/2021 12:00:00 AM";"08:00 - 08:59";"03010";"Witte de Withstraat";"4.85928290";"52.36480554";"31"
"6/28/2021 12:00:00 AM";"08:00 - 08:59";"03022";"Mercatorplein";"4.85070310";"52.37012367";"12"
"6/28/2021 12:00:00 AM";"08:00 - 08:59";"03023";"Marco Polostraat";"4.85520189";"52.37088096";"45"
"6/28/2021 12:00:00 AM";"08:00 - 08:59";"03034";"Erasmusgracht";"4.84691117";"52.37644278";"14"
"6/28/2021 12:00:00 AM";"08:00 - 08:59";"03052";"Burg. Eliasstraat";"4.82565009";"52.38077481";"26"
"6/28/2021 12:00:00 AM";"08:00 - 08:59";"03055";"Burg. Fockstraat";"4.83108040";"52.37991964";"12"
"6/28/2021 12:00:00 AM";"08:00 - 08:59";"03060";"Bos en Lommerplein";"4.84718407";"52.37815169";"20"
"6/28/2021 12:00:00 AM";"08:00 - 08:59";"03061";"Bos en Lommerplein";"4.84523530";"52.37778328";"41"
"6/28/2021 12:00:00 AM";"08:00 - 08:59";"03076";"Jan Tooropstraat";"4.83810313";"52.37142305";"31"
"6/28/2021 12:00:00 AM";"08:00 - 08:59";"03087";"Plein '40 - '45";"4.82063128";"52.38159575";"25"
"6/28/2021 12:00:00 AM";"08:00 - 08:59";"03090";"Slotermeerlaan";"4.81728149";"52.37596234";"25"
"6/28/2021 12:00:00 AM";"08:00 - 08:59";"03097";"Burg. v. Leeuwenlaan";"4.81182601";"52.37651117";"17"
"6/28/2021 12:00:00 AM";"08:00 - 08:59";"03099";"Dr. H. Colijnstraat";"4.80672448";"52.37693566";"11"
"6/28/2021 12:00:00 AM";"08:00 - 08:59";"03101";"Lambertus Zijlplein";"4.80300456";"52.37726788";"10"
"6/28/2021 12:00:00 AM";"08:00 - 08:59";"03117";"Sam van Houtenstraat";"4.79790430";"52.37868964";"13"
"6/28/2021 12:00:00 AM";"08:00 - 08:59";"03129";"Plein '40 - '45";"4.82112672";"52.38075328";"64"
"6/28/2021 12:00:00 AM";"08:00 - 08:59";"03130";"Plein '40 - '45";"4.82267774";"52.38121007";"25"
"6/28/2021 12:00:00 AM";"08:00 - 08:59";"03132";"Burg. R?ellstraat";"4.81950345";"52.37676393";"24"
"6/28/2021 12:00:00 AM";"08:00 - 08:59";"03135";"Ookmeerweg";"4.80431836";"52.36558127";"33"
"6/28/2021 12:00:00 AM";"08:00 - 08:59";"03136";"Ookmeerweg";"4.80419536";"52.36600309";"12"
"6/28/2021 12:00:00 AM";"08:00 - 08:59";"03157";"Lambertus Zijlplein";"4.80338637";"52.37726977";"18"
"6/28/2021 12:00:00 AM";"08:00 - 08:59";"03163";"Burg.de Vlugtlaan";"4.83793812";"52.37881920";"12"
"6/28/2021 12:00:00 AM";"08:00 - 08:59";"03167";"Bos en Lommerplein";"4.84650668";"52.37709704";"31"
"6/28/2021 12:00:00 AM";"08:00 - 08:59";"03169";"Jan v.Galenstraat";"4.83601291";"52.37301316";"16"
"6/28/2021 12:00:00 AM";"08:00 - 08:59";"03170";"Jan v.Galenstraat";"4.83495277";"52.37324190";"15"
"6/28/2021 12:00:00 AM";"08:00 - 08:59";"03171";"Burg. Rendorpstraat";"4.82768433";"52.37436719";"33"
"6/28/2021 12:00:00 AM";"08:00 - 08:59";"03172";"Burg. Rendorpstraat";"4.82691962";"52.37445346";"35"
"6/28/2021 12:00:00 AM";"08:00 - 08:59";"03174";"Burg. R?ellstraat";"4.81863325";"52.37476448";"14"
"6/28/2021 12:00:00 AM";"08:00 - 08:59";"03178";"Mercatorplein";"4.84991664";"52.37080317";"12"
"6/28/2021 12:00:00 AM";"08:00 - 08:59";"03179";"Adm. Helfrichstraat";"4.84386882";"52.36944538";"12"
"6/28/2021 12:00:00 AM";"08:00 - 08:59";"03181";"Jan Voermanstraat";"4.83788946";"52.36970540";"28"
"6/28/2021 12:00:00 AM";"08:00 - 08:59";"03182";"Jan Voermanstraat";"4.83852226";"52.36959149";"13"
"6/28/2021 12:00:00 AM";"08:00 - 08:59";"03197";"W. Schoutenstraat";"4.85238084";"52.36737202";"14"
"6/28/2021 12:00:00 AM";"08:00 - 08:59";"03198";"W. Schoutenstraat";"4.85259061";"52.36702245";"13"
"6/28/2021 12:00:00 AM";"08:00 - 08:59";"04008";"Dijkgraafplein";"4.78646982";"52.35545267";"10"
"6/28/2021 12:00:00 AM";"08:00 - 08:59";"04012";"Baden Powellweg";"4.79137362";"52.35646612";"34"
"6/28/2021 12:00:00 AM";"08:00 - 08:59";"04016";"Hoekenes";"4.79854723";"52.35791310";"20"
"6/28/2021 12:00:00 AM";"08:00 - 08:59";"04021";"Osdorpplein West";"4.80322869";"52.35913166";"20"
"6/28/2021 12:00:00 AM";"08:00 - 08:59";"04049";"Meer en Vaart";"4.81058859";"52.35647140";"12"
"6/28/2021 12:00:00 AM";"08:00 - 08:59";"04050";"Meer en Vaart";"4.80994403";"52.35636940";"36"
"6/28/2021 12:00:00 AM";"08:00 - 08:59";"04060";"Derkinderenstraat";"4.83972293";"52.35796689";"25"
"6/28/2021 12:00:00 AM";"08:00 - 08:59";"04061";"Derkinderenstraat";"4.84014895";"52.35794190";"29"
"6/28/2021 12:00:00 AM";"08:00 - 08:59";"04062";"Johan Huizingalaan";"4.82582327";"52.35781191";"14"
"6/28/2021 12:00:00 AM";"08:00 - 08:59";"04063";"Johan Huizingalaan";"4.82626398";"52.35778704";"17"
"6/28/2021 12:00:00 AM";"08:00 - 08:59";"04064";"Osdorpplein Oost";"4.80806527";"52.35860717";"13"
"6/28/2021 12:00:00 AM";"08:00 - 08:59";"04065";"Osdorpplein Oost";"4.80773259";"52.35935153";"27"
"6/28/2021 12:00:00 AM";"08:00 - 08:59";"04088";"Louwesweg";"4.82436420";"52.34669608";"30"
"6/28/2021 12:00:00 AM";"08:00 - 08:59";"04110";"Westlandgracht";"4.84581964";"52.35156868";"16"
"6/28/2021 12:00:00 AM";"08:00 - 08:59";"04112";"Johan Huizingalaan";"4.82742878";"52.34923618";"36"
"6/28/2021 12:00:00 AM";"08:00 - 08:59";"04129";"Derkinderenstraat";"4.83926482";"52.36415734";"20"
"6/28/2021 12:00:00 AM";"08:00 - 08:59";"04148";"Louis Davidsstraat";"4.80952552";"52.35356316";"45"
"6/28/2021 12:00:00 AM";"08:00 - 08:59";"04195";"Station Lelylaan";"4.83460082";"52.35788018";"89"
"6/28/2021 12:00:00 AM";"08:00 - 08:59";"04196";"Station Lelylaan";"4.83382251";"52.35790351";"84"
"6/28/2021 12:00:00 AM";"08:00 - 08:59";"04274";"Schiphol Airport/Plaza";"4.76104997";"52.30939292";"16"
"6/28/2021 12:00:00 AM";"08:00 - 08:59";"04277";"Laan v.Vlaanderen";"4.81642720";"52.34648730";"12"
"6/28/2021 12:00:00 AM";"08:00 - 08:59";"04279";"Centrum Nieuw Sloten";"4.81104244";"52.34638930";"19"
"6/28/2021 12:00:00 AM";"08:00 - 08:59";"04379";"Knooppunt Schiphol Nrd";"4.79320459";"52.32276196";"44"
"6/28/2021 12:00:00 AM";"08:00 - 08:59";"04402";"Matterhorn";"4.77477998";"52.35372103";"15"
"6/28/2021 12:00:00 AM";"08:00 - 08:59";"04403";"Pilatus";"4.77696371";"52.35289644";"10"
"6/28/2021 12:00:00 AM";"08:00 - 08:59";"04407";"Ecuplein";"4.78817670";"52.34970912";"13"
"6/28/2021 12:00:00 AM";"08:00 - 08:59";"04409";"Baden Powellweg";"4.79441281";"52.35092691";"25"
"6/28/2021 12:00:00 AM";"08:00 - 08:59";"04411";"Hoekenes";"4.80183430";"52.35243785";"13"
"6/28/2021 12:00:00 AM";"08:00 - 08:59";"04413";"Louis Davidsstraat";"4.80850916";"52.35383682";"74"
"6/28/2021 12:00:00 AM";"08:00 - 08:59";"04414";"Louis Davidsstraat";"4.80910976";"52.35392963";"19"
"6/28/2021 12:00:00 AM";"08:00 - 08:59";"05011";"Centraal Station";"4.89921803";"52.37810793";"185"
"6/28/2021 12:00:00 AM";"08:00 - 08:59";"05029";"Centraal Station";"4.90334975";"52.37900567";"169"
"6/28/2021 12:00:00 AM";"08:00 - 08:59";"05031";"Dam";"4.89348394";"52.37341055";"15"
"6/28/2021 12:00:00 AM";"08:00 - 08:59";"05032";"Dam";"4.89549360";"52.37492885";"18"
"6/28/2021 12:00:00 AM";"08:00 - 08:59";"05035";"Rokin";"4.89210433";"52.36939627";"12"
"6/28/2021 12:00:00 AM";"08:00 - 08:59";"05036";"Rokin";"4.89230478";"52.36985548";"17"
"6/28/2021 12:00:00 AM";"08:00 - 08:59";"05046";"Rembrandtplein";"4.89627976";"52.36625897";"16"
"6/28/2021 12:00:00 AM";"08:00 - 08:59";"05047";"Rembrandtplein";"4.89702882";"52.36623511";"38"
"6/28/2021 12:00:00 AM";"08:00 - 08:59";"05060";"Koningsplein";"4.88894752";"52.36807981";"14"
"6/28/2021 12:00:00 AM";"08:00 - 08:59";"05064";"Koningsplein";"4.88949610";"52.36760577";"35"
"6/28/2021 12:00:00 AM";"08:00 - 08:59";"05065";"Dam";"4.89079364";"52.37367792";"46"
"6/28/2021 12:00:00 AM";"08:00 - 08:59";"05066";"Dam";"4.89027056";"52.37318140";"62"
"6/28/2021 12:00:00 AM";"08:00 - 08:59";"05069";"Nieuwezijds Kolk";"4.89373093";"52.37628765";"37"
"6/28/2021 12:00:00 AM";"08:00 - 08:59";"05070";"Nieuwezijds Kolk";"4.89284106";"52.37575366";"30"
"6/28/2021 12:00:00 AM";"08:00 - 08:59";"05073";"Westermarkt";"4.88453426";"52.37400204";"46"
"6/28/2021 12:00:00 AM";"08:00 - 08:59";"05074";"Westermarkt";"4.88354950";"52.37407874";"105"
"6/28/2021 12:00:00 AM";"08:00 - 08:59";"05077";"Marnixstraat";"4.87615428";"52.37228546";"28"
"6/28/2021 12:00:00 AM";"08:00 - 08:59";"05079";"Buiten Oranjestraat";"4.88805879";"52.38312149";"10"
"6/28/2021 12:00:00 AM";"08:00 - 08:59";"05080";"Buiten Oranjestraat";"4.88782167";"52.38330923";"17"
"6/28/2021 12:00:00 AM";"08:00 - 08:59";"05081";"Buiten Brouwersstraat";"4.89157253";"52.38150947";"11"
"6/28/2021 12:00:00 AM";"08:00 - 08:59";"05082";"Buiten Brouwersstraat";"4.89129168";"52.38167008";"18"
"6/28/2021 12:00:00 AM";"08:00 - 08:59";"05090";"Westerdoksdijk";"4.89331977";"52.38551629";"14"
"6/28/2021 12:00:00 AM";"08:00 - 08:59";"05092";"Barentszplein";"4.89160204";"52.38938281";"19"
"6/28/2021 12:00:00 AM";"08:00 - 08:59";"05097";"Centraal Station";"4.90087651";"52.37954379";"40"
"6/28/2021 12:00:00 AM";"08:00 - 08:59";"05101";"Centraal Station";"4.90105195";"52.37961641";"17"
"6/28/2021 12:00:00 AM";"08:00 - 08:59";"05103";"Centraal Station";"4.90127481";"52.37938365";"25"
"6/28/2021 12:00:00 AM";"08:00 - 08:59";"05104";"Centraal Station";"4.90164343";"52.37925034";"14"
"6/28/2021 12:00:00 AM";"08:00 - 08:59";"05106";"Centraal Station";"4.90229030";"52.37919008";"14"
"6/28/2021 12:00:00 AM";"08:00 - 08:59";"05107";"Centraal Station";"4.90195282";"52.37916174";"12"
"6/28/2021 12:00:00 AM";"08:00 - 08:59";"05154";"Marnixstraat";"4.87536375";"52.37207533";"14"
"6/28/2021 12:00:00 AM";"08:00 - 08:59";"06001";"Surinameplein";"4.85252231";"52.35807034";"49"
"6/28/2021 12:00:00 AM";"08:00 - 08:59";"06002";"Surinameplein";"4.85090753";"52.35807202";"18"
"6/28/2021 12:00:00 AM";"08:00 - 08:59";"06010";"Corantijnstraat";"4.85326125";"52.36131825";"10"
"6/28/2021 12:00:00 AM";"08:00 - 08:59";"06015";"Postjesweg";"4.85316124";"52.36352879";"16"
"6/28/2021 12:00:00 AM";"08:00 - 08:59";"06016";"J.P. Heijestraat";"4.86239635";"52.36472951";"30"
"6/28/2021 12:00:00 AM";"08:00 - 08:59";"06017";"J.P. Heijestraat";"4.86292317";"52.36487565";"21"
"6/28/2021 12:00:00 AM";"08:00 - 08:59";"06019";"Ten Katestraat";"4.86737423";"52.36591988";"30"
"6/28/2021 12:00:00 AM";"08:00 - 08:59";"06020";"Ten Katestraat";"4.86773990";"52.36603832";"35"
"6/28/2021 12:00:00 AM";"08:00 - 08:59";"06021";"Bilderdijkstraat";"4.87176488";"52.36712545";"65"
"6/28/2021 12:00:00 AM";"08:00 - 08:59";"06023";"Bilderdijkstraat";"4.87254032";"52.36736251";"26"
"6/28/2021 12:00:00 AM";"08:00 - 08:59";"06024";"Kinkerstraat";"4.87230885";"52.36706491";"13"
"6/28/2021 12:00:00 AM";"08:00 - 08:59";"06025";"Kinkerstraat";"4.87201094";"52.36743211";"12"
"6/28/2021 12:00:00 AM";"08:00 - 08:59";"06027";"Elandsgracht";"4.87855189";"52.36808953";"15"
"6/28/2021 12:00:00 AM";"08:00 - 08:59";"06028";"Elandsgracht";"4.87741694";"52.36974738";"37"
"6/28/2021 12:00:00 AM";"08:00 - 08:59";"06029";"Elandsgracht";"4.87684368";"52.36852258";"81"
"6/28/2021 12:00:00 AM";"08:00 - 08:59";"06034";"Bilderdijkstraat";"4.87082347";"52.37105798";"22"
"6/28/2021 12:00:00 AM";"08:00 - 08:59";"06037";"Bilderdijkstraat";"4.86985701";"52.37082906";"26"
"6/28/2021 12:00:00 AM";"08:00 - 08:59";"06043";"Overtoom";"4.87510145";"52.36299659";"15"
"6/28/2021 12:00:00 AM";"08:00 - 08:59";"06044";"Overtoom";"4.87483191";"52.36345380";"13"
"6/28/2021 12:00:00 AM";"08:00 - 08:59";"06045";"1e Con. Huygensstraat";"4.87399228";"52.36242556";"29"
"6/28/2021 12:00:00 AM";"08:00 - 08:59";"06046";"1e Con. Huygensstraat";"4.87487082";"52.36262709";"40"
"6/28/2021 12:00:00 AM";"08:00 - 08:59";"06048";"J.P. Heijestraat";"4.86585368";"52.36037674";"22"
"6/28/2021 12:00:00 AM";"08:00 - 08:59";"06049";"J.P. Heijestraat";"4.86671778";"52.36055131";"27"
"6/28/2021 12:00:00 AM";"08:00 - 08:59";"06059";"Spiegelgracht";"4.88762090";"52.36071327";"29"
"6/28/2021 12:00:00 AM";"08:00 - 08:59";"06061";"Leidseplein";"4.88339576";"52.36305015";"49"
"6/28/2021 12:00:00 AM";"08:00 - 08:59";"06063";"Leidseplein";"4.88064547";"52.36476406";"37"
"6/28/2021 12:00:00 AM";"08:00 - 08:59";"06067";"Leidseplein";"4.88301434";"52.36431580";"13"
"6/28/2021 12:00:00 AM";"08:00 - 08:59";"06072";"Prinsengracht";"4.88428435";"52.36495933";"23"
"6/28/2021 12:00:00 AM";"08:00 - 08:59";"06073";"Keizersgracht";"4.88666521";"52.36604795";"19"
"6/28/2021 12:00:00 AM";"08:00 - 08:59";"06074";"Keizersgracht";"4.88624128";"52.36588437";"21"
"6/28/2021 12:00:00 AM";"08:00 - 08:59";"06081";"Rhijnvis Feithstraat";"4.86039355";"52.35905833";"12"
"6/28/2021 12:00:00 AM";"08:00 - 08:59";"06082";"Rhijnvis Feithstraat";"4.85967683";"52.35883943";"15"
"6/28/2021 12:00:00 AM";"08:00 - 08:59";"06089";"Leidseplein";"4.88085541";"52.36309324";"83"
"6/28/2021 12:00:00 AM";"08:00 - 08:59";"06114";"Hoofdweg";"4.85444451";"52.36425359";"24"
"6/28/2021 12:00:00 AM";"08:00 - 08:59";"06115";"Postjesweg";"4.85319014";"52.36478720";"15"
"6/28/2021 12:00:00 AM";"08:00 - 08:59";"07002";"Van Baerlestraat";"4.87836936";"52.35839997";"22"
"6/28/2021 12:00:00 AM";"08:00 - 08:59";"07006";"Museumplein";"4.87980116";"52.35642881";"37"
"6/28/2021 12:00:00 AM";"08:00 - 08:59";"07007";"Museumplein";"4.87950215";"52.35690388";"89"
"6/28/2021 12:00:00 AM";"08:00 - 08:59";"07015";"Roelof Hartplein";"4.88206971";"52.35314900";"16"
"6/28/2021 12:00:00 AM";"08:00 - 08:59";"07016";"Roelof Hartplein";"4.88286688";"52.35274795";"28"
"6/28/2021 12:00:00 AM";"08:00 - 08:59";"07021";"Kastelenstraat";"4.87955984";"52.32619291";"10"
"6/28/2021 12:00:00 AM";"08:00 - 08:59";"07027";"Corn. Schuytstraat";"4.87051458";"52.35597520";"19"
"6/28/2021 12:00:00 AM";"08:00 - 08:59";"07028";"Corn. Schuytstraat";"4.87088070";"52.35604870";"15"
"6/28/2021 12:00:00 AM";"08:00 - 08:59";"07031";"Valeriusplein";"4.86374943";"52.35333004";"23"
"6/28/2021 12:00:00 AM";"08:00 - 08:59";"07032";"Valeriusplein";"4.86326678";"52.35318410";"28"
"6/28/2021 12:00:00 AM";"08:00 - 08:59";"07033";"Amstelveenseweg";"4.85695925";"52.35161911";"15"
"6/28/2021 12:00:00 AM";"08:00 - 08:59";"07034";"Amstelveenseweg";"4.85596467";"52.35132704";"17"
"6/28/2021 12:00:00 AM";"08:00 - 08:59";"07035";"Zeilstraat";"4.85672894";"52.35124059";"16"
"6/28/2021 12:00:00 AM";"08:00 - 08:59";"07048";"Hoofddorpplein";"4.85010578";"52.35154327";"18"
"6/28/2021 12:00:00 AM";"08:00 - 08:59";"07049";"Hoofddorpplein";"4.84958188";"52.35117239";"31"
"6/28/2021 12:00:00 AM";"08:00 - 08:59";"07050";"Haarlemmermeerstation";"4.85744749";"52.34883508";"33"
"6/28/2021 12:00:00 AM";"08:00 - 08:59";"07083";"Gerrit v.d. Veenstraat";"4.87735929";"52.34921014";"55"
"6/28/2021 12:00:00 AM";"08:00 - 08:59";"07084";"Gerrit v.d. Veenstraat";"4.87720177";"52.34886793";"29"
"6/28/2021 12:00:00 AM";"08:00 - 08:59";"07088";"Stadionweg";"4.87687497";"52.34665553";"15"
"6/28/2021 12:00:00 AM";"08:00 - 08:59";"07097";"Olympiaplein";"4.86582821";"52.34630180";"19"
"6/28/2021 12:00:00 AM";"08:00 - 08:59";"07098";"Olympiaplein";"4.86659057";"52.34636807";"18"
"6/28/2021 12:00:00 AM";"08:00 - 08:59";"07108";"Olympiaweg";"4.85873730";"52.34528169";"10"
"6/28/2021 12:00:00 AM";"08:00 - 08:59";"07116";"Haarlemmermeerstation";"4.85760410";"52.34924023";"30"
"6/28/2021 12:00:00 AM";"08:00 - 08:59";"07120";"Olympiaweg";"4.85834130";"52.34526195";"18"
"6/28/2021 12:00:00 AM";"08:00 - 08:59";"07130";"Pr. Irenestraat";"4.86819699";"52.34202504";"22"
"6/28/2021 12:00:00 AM";"08:00 - 08:59";"07131";"Pr. Irenestraat";"4.86833196";"52.34303226";"11"
"6/28/2021 12:00:00 AM";"08:00 - 08:59";"07157";"Van Heenvlietlaan";"4.88302129";"52.32494043";"13"
"6/28/2021 12:00:00 AM";"08:00 - 08:59";"07186";"Pr. Irenestraat";"4.87677483";"52.34260161";"15"
"6/28/2021 12:00:00 AM";"08:00 - 08:59";"07190";"Station Zuid";"4.87352214";"52.34089784";"20"
"6/28/2021 12:00:00 AM";"08:00 - 08:59";"07193";"Station Zuid";"4.87334616";"52.34088808";"46"
"6/28/2021 12:00:00 AM";"08:00 - 08:59";"07202";"Olympisch stadion";"4.85684420";"52.34405088";"11"
"6/28/2021 12:00:00 AM";"08:00 - 08:59";"07207";"IJsbaanpad";"4.85756146";"52.34051291";"10"
"6/28/2021 12:00:00 AM";"08:00 - 08:59";"07260";"Station RAI";"4.89077724";"52.33708876";"16"
"6/28/2021 12:00:00 AM";"08:00 - 08:59";"07268";"Station Zuid";"4.87428608";"52.34082026";"34"
"6/28/2021 12:00:00 AM";"08:00 - 08:59";"07269";"Station Zuid";"4.87374306";"52.34082689";"72"
"6/28/2021 12:00:00 AM";"08:00 - 08:59";"07270";"Parnassusweg";"4.86874218";"52.33806382";"40"
"6/28/2021 12:00:00 AM";"08:00 - 08:59";"07294";"Station Zuid";"4.87327467";"52.34072599";"22"
"6/28/2021 12:00:00 AM";"08:00 - 08:59";"07300";"Gelderlandplein Oost";"4.87937562";"52.33075792";"11"
"6/28/2021 12:00:00 AM";"08:00 - 08:59";"07303";"VU medisch centrum";"4.86097062";"52.33515342";"33"
"6/28/2021 12:00:00 AM";"08:00 - 08:59";"07310";"Apollolaan";"4.88211179";"52.34816097";"11"
"6/28/2021 12:00:00 AM";"08:00 - 08:59";"07321";"Van Baerlestraat";"4.87895796";"52.35827667";"19"
"6/28/2021 12:00:00 AM";"08:00 - 08:59";"07322";"Van Baerlestraat";"4.87971942";"52.35844171";"28"
"6/28/2021 12:00:00 AM";"08:00 - 08:59";"07323";"Rijksmuseum";"4.88355043";"52.35977029";"37"
"6/28/2021 12:00:00 AM";"08:00 - 08:59";"07324";"Rijksmuseum";"4.88332565";"52.36017378";"23"
"6/28/2021 12:00:00 AM";"08:00 - 08:59";"07391";"Kronenburg";"4.87070592";"52.31556694";"27"
"6/28/2021 12:00:00 AM";"08:00 - 08:59";"07418";"Van Boshuizenstraat";"4.86902148";"52.32544617";"11"
"6/28/2021 12:00:00 AM";"08:00 - 08:59";"07419";"Van Boshuizenstraat";"4.86896941";"52.32487971";"101"
"6/28/2021 12:00:00 AM";"08:00 - 08:59";"07423";"Uilenstede";"4.86910951";"52.32167168";"18"
"6/28/2021 12:00:00 AM";"08:00 - 08:59";"07438";"Oranjebaan";"4.87217918";"52.30360157";"14"
"6/28/2021 12:00:00 AM";"08:00 - 08:59";"07439";"Oranjebaan";"4.87179001";"52.30302465";"31"
"6/28/2021 12:00:00 AM";"08:00 - 08:59";"07442";"Zonnestein";"4.87236664";"52.31146674";"14"
"6/28/2021 12:00:00 AM";"08:00 - 08:59";"07445";"Amstelveen Stadshart";"4.86751502";"52.30124433";"22"
"6/28/2021 12:00:00 AM";"08:00 - 08:59";"07448";"A.J. Ernststraat";"4.86887597";"52.33288743";"24"
"6/28/2021 12:00:00 AM";"08:00 - 08:59";"07449";"A.J. Ernststraat";"4.86879476";"52.33230287";"20"
"6/28/2021 12:00:00 AM";"08:00 - 08:59";"07453";"Ouderkerkerlaan";"4.86721192";"52.29582332";"28"
"6/28/2021 12:00:00 AM";"08:00 - 08:59";"07457";"Sportlaan";"4.86336804";"52.28987436";"10"
"6/28/2021 12:00:00 AM";"08:00 - 08:59";"07473";"Meent";"4.85693861";"52.28084883";"27"
"6/28/2021 12:00:00 AM";"08:00 - 08:59";"07481";"Poortwachter";"4.84496524";"52.28332911";"14"
"6/28/2021 12:00:00 AM";"08:00 - 08:59";"07482";"Sacharovlaan";"4.83228912";"52.28211984";"18"
"6/28/2021 12:00:00 AM";"08:00 - 08:59";"08007";"Bob Haarmslaan";"4.96921237";"52.36876786";"48"
"6/28/2021 12:00:00 AM";"08:00 - 08:59";"08009";"Bob Haarmslaan";"4.96859205";"52.36915214";"44"
"6/28/2021 12:00:00 AM";"08:00 - 08:59";"08016";"Wittenburgergracht";"4.91969400";"52.36942754";"21"
"6/28/2021 12:00:00 AM";"08:00 - 08:59";"08043";"Artis";"4.91141423";"52.36653646";"15"
"6/28/2021 12:00:00 AM";"08:00 - 08:59";"08051";"K. 's-Gravesandestr.";"4.91366120";"52.36235720";"25"
"6/28/2021 12:00:00 AM";"08:00 - 08:59";"08052";"K. 's-Gravesandestr.";"4.91550720";"52.36271509";"14"
"6/28/2021 12:00:00 AM";"08:00 - 08:59";"08053";"Weesperplein";"4.90655690";"52.36088154";"23"
"6/28/2021 12:00:00 AM";"08:00 - 08:59";"08054";"Weesperplein";"4.90941338";"52.36145933";"53"
"6/28/2021 12:00:00 AM";"08:00 - 08:59";"08057";"Frederiksplein";"4.90024241";"52.35971430";"41"
"6/28/2021 12:00:00 AM";"08:00 - 08:59";"08058";"Veelaan";"4.93961588";"52.36830916";"15"
"6/28/2021 12:00:00 AM";"08:00 - 08:59";"08059";"Veelaan";"4.93944523";"52.36776026";"14"
"6/28/2021 12:00:00 AM";"08:00 - 08:59";"08066";"Frederiksplein";"4.89751569";"52.35937050";"24"
"6/28/2021 12:00:00 AM";"08:00 - 08:59";"08072";"Vijzelgracht";"4.89159781";"52.35953462";"37"
"6/28/2021 12:00:00 AM";"08:00 - 08:59";"08073";"Vijzelgracht";"4.89227386";"52.35946554";"33"
"6/28/2021 12:00:00 AM";"08:00 - 08:59";"08080";"Spiegelgracht";"4.88691222";"52.36106979";"46"
"6/28/2021 12:00:00 AM";"08:00 - 08:59";"08094";"Wijttenbachstraat";"4.92547668";"52.35979743";"10"
"6/28/2021 12:00:00 AM";"08:00 - 08:59";"08113";"Javaplein";"4.93949828";"52.36395867";"16"
"6/28/2021 12:00:00 AM";"08:00 - 08:59";"08120";"Insulindeweg";"4.94763926";"52.36469021";"24"
"6/28/2021 12:00:00 AM";"08:00 - 08:59";"08121";"Soembawastraat";"4.94391980";"52.36224967";"26"
"6/28/2021 12:00:00 AM";"08:00 - 08:59";"08124";"Soembawastraat";"4.94346569";"52.36214910";"31"
"6/28/2021 12:00:00 AM";"08:00 - 08:59";"08129";"Molukkenstraat";"4.93861286";"52.36150167";"31"
"6/28/2021 12:00:00 AM";"08:00 - 08:59";"08132";"Valentijnkade";"4.94079607";"52.35900236";"17"
"6/28/2021 12:00:00 AM";"08:00 - 08:59";"08138";"Zuiderzeeweg";"4.96218432";"52.37129534";"27"
"6/28/2021 12:00:00 AM";"08:00 - 08:59";"08139";"Zuiderzeeweg";"4.96240105";"52.37166461";"23"
"6/28/2021 12:00:00 AM";"08:00 - 08:59";"08190";"Molukkenstraat";"4.93934614";"52.36157635";"14"
"6/28/2021 12:00:00 AM";"08:00 - 08:59";"08195";"Oostenburgergracht";"4.92452709";"52.36780177";"15"
"6/28/2021 12:00:00 AM";"08:00 - 08:59";"08219";"Borneolaan";"4.93862058";"52.37090283";"11"
"6/28/2021 12:00:00 AM";"08:00 - 08:59";"08235";"Muziekgeb. Bimhuis";"4.91290020";"52.37723779";"19"
"6/28/2021 12:00:00 AM";"08:00 - 08:59";"08237";"Kattenburgerstraat";"4.92126795";"52.37614755";"28"
"6/28/2021 12:00:00 AM";"08:00 - 08:59";"08238";"Rietlandpark";"4.93350159";"52.37322013";"40"
"6/28/2021 12:00:00 AM";"08:00 - 08:59";"08239";"Rietlandpark";"4.93413567";"52.37296191";"59"
"6/28/2021 12:00:00 AM";"08:00 - 08:59";"08241";"Zuiderzeeweg";"4.96185517";"52.37193228";"18"
"6/28/2021 12:00:00 AM";"08:00 - 08:59";"08244";"Steigereiland";"4.98083725";"52.36280456";"12"
"6/28/2021 12:00:00 AM";"08:00 - 08:59";"08245";"Steigereiland";"4.98012952";"52.36313467";"56"
"6/28/2021 12:00:00 AM";"08:00 - 08:59";"08247";"Vennepluimstraat";"4.99057242";"52.35769662";"32"
"6/28/2021 12:00:00 AM";"08:00 - 08:59";"08249";"Diemerparklaan";"4.99499716";"52.35532962";"37"
"6/28/2021 12:00:00 AM";"08:00 - 08:59";"08251";"Lumi?restraat";"4.99942127";"52.35298044";"17"
"6/28/2021 12:00:00 AM";"08:00 - 08:59";"08255";"Hoogte Kadijk";"4.92483038";"52.36687722";"17"
"6/28/2021 12:00:00 AM";"08:00 - 08:59";"08257";"1e Coehoornstraat";"4.92618328";"52.36808685";"18"
"6/28/2021 12:00:00 AM";"08:00 - 08:59";"08259";"1e Leeghwaterstraat";"4.93004964";"52.37047459";"24"
"6/28/2021 12:00:00 AM";"08:00 - 08:59";"08261";"Rietlandpark";"4.93481067";"52.37300943";"16"
"6/28/2021 12:00:00 AM";"08:00 - 08:59";"08262";"IJburg";"5.00486802";"52.35112872";"103"
"6/28/2021 12:00:00 AM";"08:00 - 08:59";"08270";"Diemerparklaan";"4.99472994";"52.35567027";"15"
"6/28/2021 12:00:00 AM";"08:00 - 08:59";"08286";"Lumierestraat";"4.99915409";"52.35332109";"14"
"6/28/2021 12:00:00 AM";"08:00 - 08:59";"08300";"P.Oosterhuisstraat";"5.00693059";"52.35193526";"25"
"6/28/2021 12:00:00 AM";"08:00 - 08:59";"09003";"Dintelstraat";"4.89289498";"52.34192405";"27"
"6/28/2021 12:00:00 AM";"08:00 - 08:59";"09004";"Europaplein";"4.89216887";"52.33992574";"15"
"6/28/2021 12:00:00 AM";"08:00 - 08:59";"09013";"Amstelstation";"4.91790223";"52.34725673";"21"
"6/28/2021 12:00:00 AM";"08:00 - 08:59";"09015";"Amstelstation";"4.91940405";"52.34679531";"13"
"6/28/2021 12:00:00 AM";"08:00 - 08:59";"09016";"Amstelstation";"4.91953925";"52.34649925";"17"
"6/28/2021 12:00:00 AM";"08:00 - 08:59";"09026";"Amstelstation";"4.91874992";"52.34619953";"10"
"6/28/2021 12:00:00 AM";"08:00 - 08:59";"09028";"Amstelstation";"4.91867673";"52.34618127";"10"
"6/28/2021 12:00:00 AM";"08:00 - 08:59";"09048";"Victorieplein";"4.90511195";"52.34659416";"10"
"6/28/2021 12:00:00 AM";"08:00 - 08:59";"09049";"Victorieplein";"4.90570139";"52.34637186";"30"
"6/28/2021 12:00:00 AM";"08:00 - 08:59";"09051";"Victorieplein";"4.90653699";"52.34645615";"21"
"6/28/2021 12:00:00 AM";"08:00 - 08:59";"09064";"Pres. Kennedylaan";"4.90174037";"52.34087315";"17"
"6/28/2021 12:00:00 AM";"08:00 - 08:59";"09065";"Pres. Kennedylaan";"4.90190089";"52.34095470";"16"
"6/28/2021 12:00:00 AM";"08:00 - 08:59";"09082";"Waalstraat";"4.89974094";"52.34656317";"22"
"6/28/2021 12:00:00 AM";"08:00 - 08:59";"09083";"Waalstraat";"4.90032528";"52.34680824";"27"
"6/28/2021 12:00:00 AM";"08:00 - 08:59";"09088";"Amstelkade";"4.90406932";"52.34934914";"10"
"6/28/2021 12:00:00 AM";"08:00 - 08:59";"09096";"Van Woustraat";"4.90163035";"52.35495650";"16"
"6/28/2021 12:00:00 AM";"08:00 - 08:59";"09097";"Van Woustraat";"4.90084070";"52.35468363";"33"
"6/28/2021 12:00:00 AM";"08:00 - 08:59";"09108";"2e v.d.Helststraat";"4.89423729";"52.35319131";"14"
"6/28/2021 12:00:00 AM";"08:00 - 08:59";"09109";"2e v.d.Helststraat";"4.89488170";"52.35331982";"14"
"6/28/2021 12:00:00 AM";"08:00 - 08:59";"09111";"De Pijp";"4.89073444";"52.35272728";"25"
"6/28/2021 12:00:00 AM";"08:00 - 08:59";"09114";"De Pijp";"4.88948829";"52.35259622";"21"
"6/28/2021 12:00:00 AM";"08:00 - 08:59";"09120";"Cornelis Troostplein";"4.89161100";"52.35046604";"12"
"6/28/2021 12:00:00 AM";"08:00 - 08:59";"09139";"Amsteldijk";"4.91124086";"52.34711329";"10"
"6/28/2021 12:00:00 AM";"08:00 - 08:59";"09176";"James Wattstraat";"4.92329155";"52.35116068";"27"
"6/28/2021 12:00:00 AM";"08:00 - 08:59";"ASA";"Amstelstation";"4.91751426";"52.34647326";"455"
"6/28/2021 12:00:00 AM";"08:00 - 08:59";"ASW";"Amstelveenseweg";"4.85798324";"52.33836671";"404"
"6/28/2021 12:00:00 AM";"08:00 - 08:59";"BLW";"Bullewijk";"4.95233581";"52.30642205";"155"
"6/28/2021 12:00:00 AM";"08:00 - 08:59";"BMR";"Station Bijlmer ArenA";"4.94713474";"52.31193030";"567"
"6/28/2021 12:00:00 AM";"08:00 - 08:59";"CLL";"Station Lelylaan";"4.83426589";"52.35766291";"178"
"6/28/2021 12:00:00 AM";"08:00 - 08:59";"CS";"Centraal Station";"4.90078150";"52.37749421";"803"
"6/28/2021 12:00:00 AM";"08:00 - 08:59";"DMZ";"Station Diemen-Zuid";"4.95713273";"52.33042795";"60"
"6/28/2021 12:00:00 AM";"08:00 - 08:59";"DPP";"De Pijp";"4.89101069";"52.35296212";"285"
"6/28/2021 12:00:00 AM";"08:00 - 08:59";"DVD";"Station Duivendrecht";"4.93678429";"52.32325190";"87"
"6/28/2021 12:00:00 AM";"08:00 - 08:59";"EPP";"Europaplein";"4.89138430";"52.34185482";"362"
"6/28/2021 12:00:00 AM";"08:00 - 08:59";"GN";"Gein";"4.98952268";"52.29627089";"89"
"6/28/2021 12:00:00 AM";"08:00 - 08:59";"GPP";"Gaasperplas";"4.98468551";"52.31080575";"28"
"6/28/2021 12:00:00 AM";"08:00 - 08:59";"GZH";"Station Ganzenhoef";"4.97323379";"52.32331315";"69"
"6/28/2021 12:00:00 AM";"08:00 - 08:59";"HDS";"Heemstedestraat";"4.83421208";"52.35255760";"121"
"6/28/2021 12:00:00 AM";"08:00 - 08:59";"HLD";"Station Holendrecht";"4.96021904";"52.29780451";"499"
"6/28/2021 12:00:00 AM";"08:00 - 08:59";"HVW";"Henk Sneevlietweg";"4.83439318";"52.34626699";"388"
"6/28/2021 12:00:00 AM";"08:00 - 08:59";"ITW";"Isolatorweg";"4.85013475";"52.39523277";"197"
"6/28/2021 12:00:00 AM";"08:00 - 08:59";"JLS";"Jan v.Galenstraat";"4.83492461";"52.37196551";"365"
"6/28/2021 12:00:00 AM";"08:00 - 08:59";"KEN";"Kraaienneststation";"4.97963450";"52.31632492";"48"
"6/28/2021 12:00:00 AM";"08:00 - 08:59";"MDW";"Van der Madeweg";"4.93048657";"52.32945629";"142"
"6/28/2021 12:00:00 AM";"08:00 - 08:59";"ND";"Noord";"4.93123182";"52.40117202";"235"
"6/28/2021 12:00:00 AM";"08:00 - 08:59";"NDP";"Noorderpark";"4.91789115";"52.38855518";"241"
"6/28/2021 12:00:00 AM";"08:00 - 08:59";"NMT";"Nieuwmarkt";"4.90123885";"52.37194169";"136"
"6/28/2021 12:00:00 AM";"08:00 - 08:59";"OAS";"Overamstel";"4.91815361";"52.33179879";"179"
"6/28/2021 12:00:00 AM";"08:00 - 08:59";"PJW";"Postjesweg";"4.83385543";"52.36468044";"160"
"6/28/2021 12:00:00 AM";"08:00 - 08:59";"RAI";"Station RAI";"4.88982004";"52.33739931";"347"
"6/28/2021 12:00:00 AM";"08:00 - 08:59";"RGB";"Reigersbos";"4.97473728";"52.29566301";"189"
"6/28/2021 12:00:00 AM";"08:00 - 08:59";"RKN";"Rokin";"4.89229651";"52.36928023";"382"
"6/28/2021 12:00:00 AM";"08:00 - 08:59";"SLW";"Spaklerweg";"4.92085640";"52.33986250";"143"
"6/28/2021 12:00:00 AM";"08:00 - 08:59";"STD";"Station Sloterdijk";"4.83878389";"52.38880848";"337"
"6/28/2021 12:00:00 AM";"08:00 - 08:59";"SVT";"Strandvliet";"4.94152820";"52.31825469";"145"
"6/28/2021 12:00:00 AM";"08:00 - 08:59";"VLN";"Burg.de Vlugtlaan";"4.83809109";"52.37951196";"53"
"6/28/2021 12:00:00 AM";"08:00 - 08:59";"VPD";"Venserpolder";"4.94665009";"52.32679428";"97"
"6/28/2021 12:00:00 AM";"08:00 - 08:59";"VSW";"Verrijn Stuartweg";"4.96693669";"52.32844093";"47"
"6/28/2021 12:00:00 AM";"08:00 - 08:59";"VZG";"Vijzelgracht";"4.89072870";"52.35980061";"307"
"6/28/2021 12:00:00 AM";"08:00 - 08:59";"WBS";"Wibautstraat";"4.91202993";"52.35428867";"196"
"6/28/2021 12:00:00 AM";"08:00 - 08:59";"WLP";"Waterlooplein";"4.90298171";"52.36697862";"293"
"6/28/2021 12:00:00 AM";"08:00 - 08:59";"WPP";"Weesperplein";"4.90787469";"52.36120146";"403"
"6/28/2021 12:00:00 AM";"08:00 - 08:59";"WTC";"Station Zuid";"4.87509853";"52.33908015";"1201"
"6/28/2021 12:00:00 AM";"09:00 - 09:59";"";"Overig";"";"";"2324"
"6/28/2021 12:00:00 AM";"09:00 - 09:59";"[[ Onb";"[[ Onbekend ]]";"0.00000000";"0.00000000";"439"
"6/28/2021 12:00:00 AM";"09:00 - 09:59";"00001";"Muiderpoortstation";"4.93287450";"52.36132700";"11"
"6/28/2021 12:00:00 AM";"09:00 - 09:59";"00005";"Muiderpoortstation";"4.93280219";"52.36121887";"30"
"6/28/2021 12:00:00 AM";"09:00 - 09:59";"00006";"Muiderpoortstation";"4.93368466";"52.36106048";"11"
"6/28/2021 12:00:00 AM";"09:00 - 09:59";"00007";"Muiderpoortstation";"4.93356602";"52.36117686";"12"
"6/28/2021 12:00:00 AM";"09:00 - 09:59";"00008";"Dapperstraat";"4.92977913";"52.36110836";"35"
"6/28/2021 12:00:00 AM";"09:00 - 09:59";"00010";"Dapperstraat";"4.92891486";"52.36092527";"24"
"6/28/2021 12:00:00 AM";"09:00 - 09:59";"00020";"Beukenweg";"4.91674979";"52.35906203";"22"
"6/28/2021 12:00:00 AM";"09:00 - 09:59";"00021";"Beukenweg";"4.91721293";"52.35829991";"36"
"6/28/2021 12:00:00 AM";"09:00 - 09:59";"00023";"Beukenplein";"4.91809259";"52.35701816";"18"
"6/28/2021 12:00:00 AM";"09:00 - 09:59";"00029";"Oostpoort";"4.92719316";"52.35707185";"50"
"6/28/2021 12:00:00 AM";"09:00 - 09:59";"00030";"Oostpoort";"4.92694026";"52.35739442";"20"
"6/28/2021 12:00:00 AM";"09:00 - 09:59";"00040";"Hogeweg";"4.93135765";"52.35321425";"10"
"6/28/2021 12:00:00 AM";"09:00 - 09:59";"00070";"Kruislaan";"4.93993910";"52.34789929";"14"
"6/28/2021 12:00:00 AM";"09:00 - 09:59";"00114";"Dennenrode";"4.95213839";"52.32209601";"10"
"6/28/2021 12:00:00 AM";"09:00 - 09:59";"00116";"Station Ganzenhoef";"4.97272915";"52.32237665";"13"
"6/28/2021 12:00:00 AM";"09:00 - 09:59";"00141";"Kraaienneststation";"4.97868390";"52.31603403";"16"
"6/28/2021 12:00:00 AM";"09:00 - 09:59";"00150";"Tulastraat";"4.96535973";"52.31994189";"22"
"6/28/2021 12:00:00 AM";"09:00 - 09:59";"00151";"Tulastraat";"4.96584458";"52.31985374";"26"
"6/28/2021 12:00:00 AM";"09:00 - 09:59";"00152";"Florijn";"4.95859163";"52.31758973";"11"
"6/28/2021 12:00:00 AM";"09:00 - 09:59";"00197";"Annie Romeinplein";"4.97162041";"52.32173463";"23"
"6/28/2021 12:00:00 AM";"09:00 - 09:59";"00199";"Station Ganzenhoef";"4.97329456";"52.32308866";"11"
"6/28/2021 12:00:00 AM";"09:00 - 09:59";"00238";"Anton de Komplein";"4.95413359";"52.31603659";"33"
"6/28/2021 12:00:00 AM";"09:00 - 09:59";"00239";"Anton de Komplein";"4.95597669";"52.31652866";"19"
"6/28/2021 12:00:00 AM";"09:00 - 09:59";"00331";"Station Reigersbos";"4.97350466";"52.29737537";"12"
"6/28/2021 12:00:00 AM";"09:00 - 09:59";"00351";"Dostojevskisingel";"4.94525272";"52.32275356";"24"
"6/28/2021 12:00:00 AM";"09:00 - 09:59";"00432";"Diemerbrug";"4.96142958";"52.33824484";"15"
"6/28/2021 12:00:00 AM";"09:00 - 09:59";"00441";"Muiderpoortstation";"4.93254137";"52.36088532";"12"
"6/28/2021 12:00:00 AM";"09:00 - 09:59";"00444";"Linnaeusstraat";"4.92490296";"52.35991203";"35"
"6/28/2021 12:00:00 AM";"09:00 - 09:59";"00453";"Diemen Sniep";"4.96964866";"52.33644962";"10"
"6/28/2021 12:00:00 AM";"09:00 - 09:59";"00464";"Hogeschool InHolland";"4.95958754";"52.32687769";"10"
"6/28/2021 12:00:00 AM";"09:00 - 09:59";"00491";"Science Park Aer";"4.95218495";"52.35478458";"20"
"6/28/2021 12:00:00 AM";"09:00 - 09:59";"00505";"Arent Krijtsstraat";"4.95469645";"52.33956859";"15"
"6/28/2021 12:00:00 AM";"09:00 - 09:59";"00518";"Foppingadreef";"4.94967889";"52.31268573";"15"
"6/28/2021 12:00:00 AM";"09:00 - 09:59";"00538";"Station Science Park";"4.94808393";"52.35239669";"25"
"6/28/2021 12:00:00 AM";"09:00 - 09:59";"00560";"Station Bijlmer ArenA";"4.94747867";"52.31125750";"27"
"6/28/2021 12:00:00 AM";"09:00 - 09:59";"00561";"Station Bijlmer ArenA";"4.94741931";"52.31132918";"28"
"6/28/2021 12:00:00 AM";"09:00 - 09:59";"00562";"Station Bijlmer ArenA";"4.94736012";"52.31138289";"16"
"6/28/2021 12:00:00 AM";"09:00 - 09:59";"00985";"Winkelcentrum";"4.96422695";"52.34186794";"12"
"6/28/2021 12:00:00 AM";"09:00 - 09:59";"01076";"Waterlandplein";"4.95247364";"52.39274059";"14"
"6/28/2021 12:00:00 AM";"09:00 - 09:59";"01110";"Rode Kruisstraat";"4.92847908";"52.39455548";"27"
"6/28/2021 12:00:00 AM";"09:00 - 09:59";"01111";"Rode Kruisstraat";"4.92881363";"52.39488033";"50"
"6/28/2021 12:00:00 AM";"09:00 - 09:59";"01116";"Merelstraat";"4.92492850";"52.38986809";"10"
"6/28/2021 12:00:00 AM";"09:00 - 09:59";"01237";"Beemsterstraat";"4.95210741";"52.39712521";"12"
"6/28/2021 12:00:00 AM";"09:00 - 09:59";"01278";"Statenjachtstraat";"4.91380643";"52.40790731";"12"
"6/28/2021 12:00:00 AM";"09:00 - 09:59";"01305";"Station Noord";"4.93215715";"52.40264056";"26"
"6/28/2021 12:00:00 AM";"09:00 - 09:59";"01316";"Station Noord";"4.93336820";"52.40204304";"22"
"6/28/2021 12:00:00 AM";"09:00 - 09:59";"01352";"Oosterlengte";"4.92206974";"52.40611555";"11"
"6/28/2021 12:00:00 AM";"09:00 - 09:59";"01363";"Buikslotermeerplein";"4.93968364";"52.39943369";"13"
"6/28/2021 12:00:00 AM";"09:00 - 09:59";"01365";"Atat?rk";"4.89794256";"52.40319625";"16"
"6/28/2021 12:00:00 AM";"09:00 - 09:59";"01402";"Floraweg";"4.90614362";"52.39899665";"24"
"6/28/2021 12:00:00 AM";"09:00 - 09:59";"01414";"Olof Palmeplein";"4.94012168";"52.39679298";"11"
"6/28/2021 12:00:00 AM";"09:00 - 09:59";"01422";"Noorderpark";"4.91956087";"52.38902016";"17"
"6/28/2021 12:00:00 AM";"09:00 - 09:59";"02018";"Koivistokade";"4.87577082";"52.39789874";"32"
"6/28/2021 12:00:00 AM";"09:00 - 09:59";"02019";"Koivistokade";"4.87537403";"52.39790601";"10"
"6/28/2021 12:00:00 AM";"09:00 - 09:59";"02064";"Kabelweg";"4.84827817";"52.39205168";"12"
"6/28/2021 12:00:00 AM";"09:00 - 09:59";"02103";"Spaarndammerstraat";"4.87765867";"52.39216375";"30"
"6/28/2021 12:00:00 AM";"09:00 - 09:59";"02113";"Haarlemmerplein";"4.88371739";"52.38516129";"35"
"6/28/2021 12:00:00 AM";"09:00 - 09:59";"02114";"Haarlemmerplein";"4.88341252";"52.38484542";"24"
"6/28/2021 12:00:00 AM";"09:00 - 09:59";"02130";"Hugo de Grootplein";"4.87259092";"52.37439113";"18"
"6/28/2021 12:00:00 AM";"09:00 - 09:59";"02132";"Fred. Hendrikplants.";"4.87543499";"52.37862768";"56"
"6/28/2021 12:00:00 AM";"09:00 - 09:59";"02133";"Fred. Hendrikplants.";"4.87521709";"52.37842002";"13"
"6/28/2021 12:00:00 AM";"09:00 - 09:59";"02140";"Van Beuningenplein";"4.87111633";"52.38122436";"11"
"6/28/2021 12:00:00 AM";"09:00 - 09:59";"02145";"Van Hallstraat";"4.86990682";"52.38418503";"14"
"6/28/2021 12:00:00 AM";"09:00 - 09:59";"02153";"Nassaukade";"4.87920791";"52.38132226";"14"
"6/28/2021 12:00:00 AM";"09:00 - 09:59";"02155";"Willem de Zwijgerlaan";"4.86360306";"52.37071170";"31"
"6/28/2021 12:00:00 AM";"09:00 - 09:59";"02156";"Willem de Zwijgerlaan";"4.86425293";"52.37039101";"18"
"6/28/2021 12:00:00 AM";"09:00 - 09:59";"02157";"Adm. de Ruijterweg";"4.86009910";"52.37148707";"17"
"6/28/2021 12:00:00 AM";"09:00 - 09:59";"02158";"Adm. de Ruijterweg";"4.86096776";"52.37129320";"19"
"6/28/2021 12:00:00 AM";"09:00 - 09:59";"02160";"Haparandaweg";"4.87389760";"52.39471799";"14"
"6/28/2021 12:00:00 AM";"09:00 - 09:59";"02167";"Bos en Lommerweg";"4.85380049";"52.38118358";"21"
"6/28/2021 12:00:00 AM";"09:00 - 09:59";"02169";"Wiltzanghlaan";"4.85218893";"52.38206609";"10"
"6/28/2021 12:00:00 AM";"09:00 - 09:59";"02170";"Spaarndammerstraat";"4.87723089";"52.39231470";"15"
"6/28/2021 12:00:00 AM";"09:00 - 09:59";"02182";"Markthallen";"4.86695146";"52.37567869";"12"
"6/28/2021 12:00:00 AM";"09:00 - 09:59";"02183";"Markthallen";"4.86667150";"52.37575835";"10"
"6/28/2021 12:00:00 AM";"09:00 - 09:59";"02193";"Marnixplein";"4.87844490";"52.37741832";"58"
"6/28/2021 12:00:00 AM";"09:00 - 09:59";"02222";"Jan van Galenstraat";"4.85874763";"52.37399761";"19"
"6/28/2021 12:00:00 AM";"09:00 - 09:59";"02259";"Contactweg";"4.85657970";"52.39195435";"41"
"6/28/2021 12:00:00 AM";"09:00 - 09:59";"02260";"Contactweg";"4.85432952";"52.39215995";"15"
"6/28/2021 12:00:00 AM";"09:00 - 09:59";"02301";"Fred. Hendrikplants.";"4.87521585";"52.37852787";"23"
"6/28/2021 12:00:00 AM";"09:00 - 09:59";"02302";"Fred. Hendrikplants.";"4.87549415";"52.37859198";"46"
"6/28/2021 12:00:00 AM";"09:00 - 09:59";"02310";"Plesostraat";"4.82849791";"52.38788859";"27"
"6/28/2021 12:00:00 AM";"09:00 - 09:59";"02318";"Solebaystraat";"4.85482536";"52.38512481";"11"
"6/28/2021 12:00:00 AM";"09:00 - 09:59";"02321";"Van Hallstraat";"4.86864429";"52.38538386";"26"
"6/28/2021 12:00:00 AM";"09:00 - 09:59";"02361";"Station Sloterdijk";"4.83931858";"52.38833460";"39"
"6/28/2021 12:00:00 AM";"09:00 - 09:59";"02365";"Station Sloterdijk";"4.83873236";"52.38822404";"34"
"6/28/2021 12:00:00 AM";"09:00 - 09:59";"02366";"Station Sloterdijk";"4.83873347";"52.38813416";"17"
"6/28/2021 12:00:00 AM";"09:00 - 09:59";"02367";"Station Sloterdijk";"4.83876429";"52.38801747";"10"
"6/28/2021 12:00:00 AM";"09:00 - 09:59";"02368";"Station Sloterdijk";"4.83877999";"52.38793665";"12"
"6/28/2021 12:00:00 AM";"09:00 - 09:59";"02378";"Station Sloterdijk";"4.83809796";"52.38844579";"40"
"6/28/2021 12:00:00 AM";"09:00 - 09:59";"03009";"Witte de Withstraat";"4.85851970";"52.36478416";"29"
"6/28/2021 12:00:00 AM";"09:00 - 09:59";"03010";"Witte de Withstraat";"4.85928290";"52.36480554";"18"
"6/28/2021 12:00:00 AM";"09:00 - 09:59";"03022";"Mercatorplein";"4.85070310";"52.37012367";"16"
"6/28/2021 12:00:00 AM";"09:00 - 09:59";"03024";"Marco Polostraat";"4.85546532";"52.37095405";"12"
"6/28/2021 12:00:00 AM";"09:00 - 09:59";"03028";"Jan van Galenstraat";"4.84921138";"52.37204926";"10"
"6/28/2021 12:00:00 AM";"09:00 - 09:59";"03034";"Erasmusgracht";"4.84691117";"52.37644278";"12"
"6/28/2021 12:00:00 AM";"09:00 - 09:59";"03052";"Burg. Eliasstraat";"4.82565009";"52.38077481";"15"
"6/28/2021 12:00:00 AM";"09:00 - 09:59";"03055";"Burg. Fockstraat";"4.83108040";"52.37991964";"10"
"6/28/2021 12:00:00 AM";"09:00 - 09:59";"03060";"Bos en Lommerplein";"4.84718407";"52.37815169";"21"
"6/28/2021 12:00:00 AM";"09:00 - 09:59";"03061";"Bos en Lommerplein";"4.84523530";"52.37778328";"34"
"6/28/2021 12:00:00 AM";"09:00 - 09:59";"03076";"Jan Tooropstraat";"4.83810313";"52.37142305";"30"
"6/28/2021 12:00:00 AM";"09:00 - 09:59";"03097";"Burg. v. Leeuwenlaan";"4.81182601";"52.37651117";"12"
"6/28/2021 12:00:00 AM";"09:00 - 09:59";"03101";"Lambertus Zijlplein";"4.80300456";"52.37726788";"22"
"6/28/2021 12:00:00 AM";"09:00 - 09:59";"03121";"Aalbersestraat";"4.79774249";"52.38202329";"43"
"6/28/2021 12:00:00 AM";"09:00 - 09:59";"03129";"Plein '40 - '45";"4.82112672";"52.38075328";"38"
"6/28/2021 12:00:00 AM";"09:00 - 09:59";"03135";"Ookmeerweg";"4.80431836";"52.36558127";"11"
"6/28/2021 12:00:00 AM";"09:00 - 09:59";"03145";"J. Cabeliaustraat";"4.80409638";"52.38246819";"11"
"6/28/2021 12:00:00 AM";"09:00 - 09:59";"03150";"Mercatorplein";"4.85011339";"52.37031872";"10"
"6/28/2021 12:00:00 AM";"09:00 - 09:59";"03157";"Lambertus Zijlplein";"4.80338637";"52.37726977";"17"
"6/28/2021 12:00:00 AM";"09:00 - 09:59";"03163";"Burg.de Vlugtlaan";"4.83793812";"52.37881920";"10"
"6/28/2021 12:00:00 AM";"09:00 - 09:59";"03167";"Bos en Lommerplein";"4.84650668";"52.37709704";"39"
"6/28/2021 12:00:00 AM";"09:00 - 09:59";"03168";"Mercatorplein";"4.85152392";"52.37024423";"20"
"6/28/2021 12:00:00 AM";"09:00 - 09:59";"03169";"Jan v.Galenstraat";"4.83601291";"52.37301316";"12"
"6/28/2021 12:00:00 AM";"09:00 - 09:59";"03171";"Burg. Rendorpstraat";"4.82768433";"52.37436719";"10"
"6/28/2021 12:00:00 AM";"09:00 - 09:59";"03172";"Burg. Rendorpstraat";"4.82691962";"52.37445346";"11"
"6/28/2021 12:00:00 AM";"09:00 - 09:59";"03178";"Mercatorplein";"4.84991664";"52.37080317";"21"
"6/28/2021 12:00:00 AM";"09:00 - 09:59";"03179";"Adm. Helfrichstraat";"4.84386882";"52.36944538";"10"
"6/28/2021 12:00:00 AM";"09:00 - 09:59";"03181";"Jan Voermanstraat";"4.83788946";"52.36970540";"14"
"6/28/2021 12:00:00 AM";"09:00 - 09:59";"03198";"W. Schoutenstraat";"4.85259061";"52.36702245";"14"
"6/28/2021 12:00:00 AM";"09:00 - 09:59";"04008";"Dijkgraafplein";"4.78646982";"52.35545267";"14"
"6/28/2021 12:00:00 AM";"09:00 - 09:59";"04009";"Dijkgraafplein";"4.78689401";"52.35556268";"12"
"6/28/2021 12:00:00 AM";"09:00 - 09:59";"04012";"Baden Powellweg";"4.79137362";"52.35646612";"22"
"6/28/2021 12:00:00 AM";"09:00 - 09:59";"04016";"Hoekenes";"4.79854723";"52.35791310";"17"
"6/28/2021 12:00:00 AM";"09:00 - 09:59";"04021";"Osdorpplein West";"4.80322869";"52.35913166";"36"
"6/28/2021 12:00:00 AM";"09:00 - 09:59";"04049";"Meer en Vaart";"4.81058859";"52.35647140";"10"
"6/28/2021 12:00:00 AM";"09:00 - 09:59";"04050";"Meer en Vaart";"4.80994403";"52.35636940";"29"
"6/28/2021 12:00:00 AM";"09:00 - 09:59";"04060";"Derkinderenstraat";"4.83972293";"52.35796689";"10"
"6/28/2021 12:00:00 AM";"09:00 - 09:59";"04061";"Derkinderenstraat";"4.84014895";"52.35794190";"19"
"6/28/2021 12:00:00 AM";"09:00 - 09:59";"04062";"Johan Huizingalaan";"4.82582327";"52.35781191";"14"
"6/28/2021 12:00:00 AM";"09:00 - 09:59";"04063";"Johan Huizingalaan";"4.82626398";"52.35778704";"11"
"6/28/2021 12:00:00 AM";"09:00 - 09:59";"04065";"Osdorpplein Oost";"4.80773259";"52.35935153";"20"
"6/28/2021 12:00:00 AM";"09:00 - 09:59";"04088";"Louwesweg";"4.82436420";"52.34669608";"13"
"6/28/2021 12:00:00 AM";"09:00 - 09:59";"04110";"Westlandgracht";"4.84581964";"52.35156868";"11"
"6/28/2021 12:00:00 AM";"09:00 - 09:59";"04112";"Johan Huizingalaan";"4.82742878";"52.34923618";"23"
"6/28/2021 12:00:00 AM";"09:00 - 09:59";"04148";"Louis Davidsstraat";"4.80952552";"52.35356316";"22"
"6/28/2021 12:00:00 AM";"09:00 - 09:59";"04195";"Station Lelylaan";"4.83460082";"52.35788018";"43"
"6/28/2021 12:00:00 AM";"09:00 - 09:59";"04196";"Station Lelylaan";"4.83382251";"52.35790351";"40"
"6/28/2021 12:00:00 AM";"09:00 - 09:59";"04279";"Centrum Nieuw Sloten";"4.81104244";"52.34638930";"11"
"6/28/2021 12:00:00 AM";"09:00 - 09:59";"04379";"Knooppunt Schiphol Nrd";"4.79320459";"52.32276196";"24"
"6/28/2021 12:00:00 AM";"09:00 - 09:59";"04407";"Ecuplein";"4.78817670";"52.34970912";"16"
"6/28/2021 12:00:00 AM";"09:00 - 09:59";"04409";"Baden Powellweg";"4.79441281";"52.35092691";"32"
"6/28/2021 12:00:00 AM";"09:00 - 09:59";"04411";"Hoekenes";"4.80183430";"52.35243785";"23"
"6/28/2021 12:00:00 AM";"09:00 - 09:59";"04413";"Louis Davidsstraat";"4.80850916";"52.35383682";"46"
"6/28/2021 12:00:00 AM";"09:00 - 09:59";"05011";"Centraal Station";"4.89921803";"52.37810793";"183"
"6/28/2021 12:00:00 AM";"09:00 - 09:59";"05029";"Centraal Station";"4.90334975";"52.37900567";"80"
"6/28/2021 12:00:00 AM";"09:00 - 09:59";"05031";"Dam";"4.89348394";"52.37341055";"16"
"6/28/2021 12:00:00 AM";"09:00 - 09:59";"05032";"Dam";"4.89549360";"52.37492885";"30"
"6/28/2021 12:00:00 AM";"09:00 - 09:59";"05035";"Rokin";"4.89210433";"52.36939627";"12"
"6/28/2021 12:00:00 AM";"09:00 - 09:59";"05036";"Rokin";"4.89230478";"52.36985548";"62"
"6/28/2021 12:00:00 AM";"09:00 - 09:59";"05046";"Rembrandtplein";"4.89627976";"52.36625897";"26"
"6/28/2021 12:00:00 AM";"09:00 - 09:59";"05047";"Rembrandtplein";"4.89702882";"52.36623511";"46"
"6/28/2021 12:00:00 AM";"09:00 - 09:59";"05052";"Waterlooplein";"4.90234715";"52.36727262";"14"
"6/28/2021 12:00:00 AM";"09:00 - 09:59";"05060";"Koningsplein";"4.88894752";"52.36807981";"24"
"6/28/2021 12:00:00 AM";"09:00 - 09:59";"05064";"Koningsplein";"4.88949610";"52.36760577";"38"
"6/28/2021 12:00:00 AM";"09:00 - 09:59";"05065";"Dam";"4.89079364";"52.37367792";"53"
"6/28/2021 12:00:00 AM";"09:00 - 09:59";"05066";"Dam";"4.89027056";"52.37318140";"95"
"6/28/2021 12:00:00 AM";"09:00 - 09:59";"05069";"Nieuwezijds Kolk";"4.89373093";"52.37628765";"68"
"6/28/2021 12:00:00 AM";"09:00 - 09:59";"05070";"Nieuwezijds Kolk";"4.89284106";"52.37575366";"15"
"6/28/2021 12:00:00 AM";"09:00 - 09:59";"05073";"Westermarkt";"4.88453426";"52.37400204";"39"
"6/28/2021 12:00:00 AM";"09:00 - 09:59";"05074";"Westermarkt";"4.88354950";"52.37407874";"79"
"6/28/2021 12:00:00 AM";"09:00 - 09:59";"05077";"Marnixstraat";"4.87615428";"52.37228546";"31"
"6/28/2021 12:00:00 AM";"09:00 - 09:59";"05080";"Buiten Oranjestraat";"4.88782167";"52.38330923";"26"
"6/28/2021 12:00:00 AM";"09:00 - 09:59";"05082";"Buiten Brouwersstraat";"4.89129168";"52.38167008";"11"
"6/28/2021 12:00:00 AM";"09:00 - 09:59";"05097";"Centraal Station";"4.90087651";"52.37954379";"39"
"6/28/2021 12:00:00 AM";"09:00 - 09:59";"05101";"Centraal Station";"4.90105195";"52.37961641";"13"
"6/28/2021 12:00:00 AM";"09:00 - 09:59";"05103";"Centraal Station";"4.90127481";"52.37938365";"21"
"6/28/2021 12:00:00 AM";"09:00 - 09:59";"05104";"Centraal Station";"4.90164343";"52.37925034";"21"
"6/28/2021 12:00:00 AM";"09:00 - 09:59";"05106";"Centraal Station";"4.90229030";"52.37919008";"18"
"6/28/2021 12:00:00 AM";"09:00 - 09:59";"05107";"Centraal Station";"4.90195282";"52.37916174";"19"
"6/28/2021 12:00:00 AM";"09:00 - 09:59";"05138";"Dam";"4.89130900";"52.37355425";"16"
"6/28/2021 12:00:00 AM";"09:00 - 09:59";"05154";"Marnixstraat";"4.87536375";"52.37207533";"13"
"6/28/2021 12:00:00 AM";"09:00 - 09:59";"06001";"Surinameplein";"4.85252231";"52.35807034";"39"
"6/28/2021 12:00:00 AM";"09:00 - 09:59";"06002";"Surinameplein";"4.85090753";"52.35807202";"17"
"6/28/2021 12:00:00 AM";"09:00 - 09:59";"06015";"Postjesweg";"4.85316124";"52.36352879";"10"
"6/28/2021 12:00:00 AM";"09:00 - 09:59";"06016";"J.P. Heijestraat";"4.86239635";"52.36472951";"15"
"6/28/2021 12:00:00 AM";"09:00 - 09:59";"06017";"J.P. Heijestraat";"4.86292317";"52.36487565";"27"
"6/28/2021 12:00:00 AM";"09:00 - 09:59";"06019";"Ten Katestraat";"4.86737423";"52.36591988";"29"
"6/28/2021 12:00:00 AM";"09:00 - 09:59";"06020";"Ten Katestraat";"4.86773990";"52.36603832";"70"
"6/28/2021 12:00:00 AM";"09:00 - 09:59";"06021";"Bilderdijkstraat";"4.87176488";"52.36712545";"46"
"6/28/2021 12:00:00 AM";"09:00 - 09:59";"06023";"Bilderdijkstraat";"4.87254032";"52.36736251";"35"
"6/28/2021 12:00:00 AM";"09:00 - 09:59";"06024";"Kinkerstraat";"4.87230885";"52.36706491";"17"
"6/28/2021 12:00:00 AM";"09:00 - 09:59";"06025";"Kinkerstraat";"4.87201094";"52.36743211";"11"
"6/28/2021 12:00:00 AM";"09:00 - 09:59";"06027";"Elandsgracht";"4.87855189";"52.36808953";"23"
"6/28/2021 12:00:00 AM";"09:00 - 09:59";"06028";"Elandsgracht";"4.87741694";"52.36974738";"36"
"6/28/2021 12:00:00 AM";"09:00 - 09:59";"06029";"Elandsgracht";"4.87684368";"52.36852258";"65"
"6/28/2021 12:00:00 AM";"09:00 - 09:59";"06030";"Rozengracht";"4.87590932";"52.37187996";"21"
"6/28/2021 12:00:00 AM";"09:00 - 09:59";"06034";"Bilderdijkstraat";"4.87082347";"52.37105798";"15"
"6/28/2021 12:00:00 AM";"09:00 - 09:59";"06037";"Bilderdijkstraat";"4.86985701";"52.37082906";"25"
"6/28/2021 12:00:00 AM";"09:00 - 09:59";"06043";"Overtoom";"4.87510145";"52.36299659";"17"
"6/28/2021 12:00:00 AM";"09:00 - 09:59";"06044";"Overtoom";"4.87483191";"52.36345380";"24"
"6/28/2021 12:00:00 AM";"09:00 - 09:59";"06045";"1e Con. Huygensstraat";"4.87399228";"52.36242556";"39"
"6/28/2021 12:00:00 AM";"09:00 - 09:59";"06046";"1e Con. Huygensstraat";"4.87487082";"52.36262709";"63"
"6/28/2021 12:00:00 AM";"09:00 - 09:59";"06048";"J.P. Heijestraat";"4.86585368";"52.36037674";"27"
"6/28/2021 12:00:00 AM";"09:00 - 09:59";"06049";"J.P. Heijestraat";"4.86671778";"52.36055131";"14"
"6/28/2021 12:00:00 AM";"09:00 - 09:59";"06059";"Spiegelgracht";"4.88762090";"52.36071327";"17"
"6/28/2021 12:00:00 AM";"09:00 - 09:59";"06061";"Leidseplein";"4.88339576";"52.36305015";"55"
"6/28/2021 12:00:00 AM";"09:00 - 09:59";"06063";"Leidseplein";"4.88064547";"52.36476406";"35"
"6/28/2021 12:00:00 AM";"09:00 - 09:59";"06072";"Prinsengracht";"4.88428435";"52.36495933";"38"
"6/28/2021 12:00:00 AM";"09:00 - 09:59";"06073";"Keizersgracht";"4.88666521";"52.36604795";"17"
"6/28/2021 12:00:00 AM";"09:00 - 09:59";"06074";"Keizersgracht";"4.88624128";"52.36588437";"26"
"6/28/2021 12:00:00 AM";"09:00 - 09:59";"06081";"Rhijnvis Feithstraat";"4.86039355";"52.35905833";"22"
"6/28/2021 12:00:00 AM";"09:00 - 09:59";"06082";"Rhijnvis Feithstraat";"4.85967683";"52.35883943";"15"
"6/28/2021 12:00:00 AM";"09:00 - 09:59";"06089";"Leidseplein";"4.88085541";"52.36309324";"68"
"6/28/2021 12:00:00 AM";"09:00 - 09:59";"06114";"Hoofdweg";"4.85444451";"52.36425359";"14"
"6/28/2021 12:00:00 AM";"09:00 - 09:59";"06115";"Postjesweg";"4.85319014";"52.36478720";"16"
"6/28/2021 12:00:00 AM";"09:00 - 09:59";"07002";"Van Baerlestraat";"4.87836936";"52.35839997";"10"
"6/28/2021 12:00:00 AM";"09:00 - 09:59";"07003";"Van Baerlestraat";"4.87808541";"52.35883915";"10"
"6/28/2021 12:00:00 AM";"09:00 - 09:59";"07006";"Museumplein";"4.87980116";"52.35642881";"51"
"6/28/2021 12:00:00 AM";"09:00 - 09:59";"07007";"Museumplein";"4.87950215";"52.35690388";"113"
"6/28/2021 12:00:00 AM";"09:00 - 09:59";"07014";"Kastelenstraat";"4.87944660";"52.32583291";"11"
"6/28/2021 12:00:00 AM";"09:00 - 09:59";"07015";"Roelof Hartplein";"4.88206971";"52.35314900";"23"
"6/28/2021 12:00:00 AM";"09:00 - 09:59";"07016";"Roelof Hartplein";"4.88286688";"52.35274795";"34"
"6/28/2021 12:00:00 AM";"09:00 - 09:59";"07017";"Roelof Hartplein";"4.88206086";"52.35263666";"17"
"6/28/2021 12:00:00 AM";"09:00 - 09:59";"07027";"Corn. Schuytstraat";"4.87051458";"52.35597520";"26"
"6/28/2021 12:00:00 AM";"09:00 - 09:59";"07028";"Corn. Schuytstraat";"4.87088070";"52.35604870";"14"
"6/28/2021 12:00:00 AM";"09:00 - 09:59";"07031";"Valeriusplein";"4.86374943";"52.35333004";"24"
"6/28/2021 12:00:00 AM";"09:00 - 09:59";"07032";"Valeriusplein";"4.86326678";"52.35318410";"11"
"6/28/2021 12:00:00 AM";"09:00 - 09:59";"07033";"Amstelveenseweg";"4.85695925";"52.35161911";"12"
"6/28/2021 12:00:00 AM";"09:00 - 09:59";"07034";"Amstelveenseweg";"4.85596467";"52.35132704";"10"
"6/28/2021 12:00:00 AM";"09:00 - 09:59";"07035";"Zeilstraat";"4.85672894";"52.35124059";"10"
"6/28/2021 12:00:00 AM";"09:00 - 09:59";"07046";"Hoofddorpplein";"4.85048172";"52.35201234";"13"
"6/28/2021 12:00:00 AM";"09:00 - 09:59";"07048";"Hoofddorpplein";"4.85010578";"52.35154327";"11"
"6/28/2021 12:00:00 AM";"09:00 - 09:59";"07049";"Hoofddorpplein";"4.84958188";"52.35117239";"23"
"6/28/2021 12:00:00 AM";"09:00 - 09:59";"07050";"Haarlemmermeerstation";"4.85744749";"52.34883508";"16"
"6/28/2021 12:00:00 AM";"09:00 - 09:59";"07083";"Gerrit v.d. Veenstraat";"4.87735929";"52.34921014";"22"
"6/28/2021 12:00:00 AM";"09:00 - 09:59";"07084";"Gerrit v.d. Veenstraat";"4.87720177";"52.34886793";"16"
"6/28/2021 12:00:00 AM";"09:00 - 09:59";"07097";"Olympiaplein";"4.86582821";"52.34630180";"12"
"6/28/2021 12:00:00 AM";"09:00 - 09:59";"07098";"Olympiaplein";"4.86659057";"52.34636807";"15"
"6/28/2021 12:00:00 AM";"09:00 - 09:59";"07108";"Olympiaweg";"4.85873730";"52.34528169";"11"
"6/28/2021 12:00:00 AM";"09:00 - 09:59";"07116";"Haarlemmermeerstation";"4.85760410";"52.34924023";"11"
"6/28/2021 12:00:00 AM";"09:00 - 09:59";"07133";"De Boelelaan";"4.86754589";"52.33496677";"11"
"6/28/2021 12:00:00 AM";"09:00 - 09:59";"07193";"Station Zuid";"4.87334616";"52.34088808";"26"
"6/28/2021 12:00:00 AM";"09:00 - 09:59";"07202";"Olympisch stadion";"4.85684420";"52.34405088";"15"
"6/28/2021 12:00:00 AM";"09:00 - 09:59";"07268";"Station Zuid";"4.87428608";"52.34082026";"17"
"6/28/2021 12:00:00 AM";"09:00 - 09:59";"07269";"Station Zuid";"4.87374306";"52.34082689";"28"
"6/28/2021 12:00:00 AM";"09:00 - 09:59";"07270";"Parnassusweg";"4.86874218";"52.33806382";"31"
"6/28/2021 12:00:00 AM";"09:00 - 09:59";"07294";"Station Zuid";"4.87327467";"52.34072599";"13"
"6/28/2021 12:00:00 AM";"09:00 - 09:59";"07303";"VU medisch centrum";"4.86097062";"52.33515342";"32"
"6/28/2021 12:00:00 AM";"09:00 - 09:59";"07307";"Beethovenstraat";"4.87820649";"52.34700280";"10"
"6/28/2021 12:00:00 AM";"09:00 - 09:59";"07309";"Apollolaan";"4.88187688";"52.34816896";"10"
"6/28/2021 12:00:00 AM";"09:00 - 09:59";"07321";"Van Baerlestraat";"4.87895796";"52.35827667";"25"
"6/28/2021 12:00:00 AM";"09:00 - 09:59";"07322";"Van Baerlestraat";"4.87971942";"52.35844171";"43"
"6/28/2021 12:00:00 AM";"09:00 - 09:59";"07323";"Rijksmuseum";"4.88355043";"52.35977029";"61"
"6/28/2021 12:00:00 AM";"09:00 - 09:59";"07324";"Rijksmuseum";"4.88332565";"52.36017378";"39"
"6/28/2021 12:00:00 AM";"09:00 - 09:59";"07391";"Kronenburg";"4.87070592";"52.31556694";"13"
"6/28/2021 12:00:00 AM";"09:00 - 09:59";"07418";"Van Boshuizenstraat";"4.86902148";"52.32544617";"12"
"6/28/2021 12:00:00 AM";"09:00 - 09:59";"07419";"Van Boshuizenstraat";"4.86896941";"52.32487971";"43"
"6/28/2021 12:00:00 AM";"09:00 - 09:59";"07423";"Uilenstede";"4.86910951";"52.32167168";"15"
"6/28/2021 12:00:00 AM";"09:00 - 09:59";"07439";"Oranjebaan";"4.87179001";"52.30302465";"12"
"6/28/2021 12:00:00 AM";"09:00 - 09:59";"07442";"Zonnestein";"4.87236664";"52.31146674";"14"
"6/28/2021 12:00:00 AM";"09:00 - 09:59";"07445";"Amstelveen Stadshart";"4.86751502";"52.30124433";"15"
"6/28/2021 12:00:00 AM";"09:00 - 09:59";"07448";"A.J. Ernststraat";"4.86887597";"52.33288743";"23"
"6/28/2021 12:00:00 AM";"09:00 - 09:59";"07449";"A.J. Ernststraat";"4.86879476";"52.33230287";"14"
"6/28/2021 12:00:00 AM";"09:00 - 09:59";"07453";"Ouderkerkerlaan";"4.86721192";"52.29582332";"10"
"6/28/2021 12:00:00 AM";"09:00 - 09:59";"07457";"Sportlaan";"4.86336804";"52.28987436";"11"
"6/28/2021 12:00:00 AM";"09:00 - 09:59";"07473";"Meent";"4.85693861";"52.28084883";"12"
"6/28/2021 12:00:00 AM";"09:00 - 09:59";"07482";"Sacharovlaan";"4.83228912";"52.28211984";"18"
"6/28/2021 12:00:00 AM";"09:00 - 09:59";"08007";"Bob Haarmslaan";"4.96921237";"52.36876786";"22"
"6/28/2021 12:00:00 AM";"09:00 - 09:59";"08009";"Bob Haarmslaan";"4.96859205";"52.36915214";"14"
"6/28/2021 12:00:00 AM";"09:00 - 09:59";"08014";"Azartplein";"4.93735640";"52.37682991";"15"
"6/28/2021 12:00:00 AM";"09:00 - 09:59";"08016";"Wittenburgergracht";"4.91969400";"52.36942754";"10"
"6/28/2021 12:00:00 AM";"09:00 - 09:59";"08042";"Artis";"4.91080977";"52.36676771";"17"
"6/28/2021 12:00:00 AM";"09:00 - 09:59";"08043";"Artis";"4.91141423";"52.36653646";"50"
"6/28/2021 12:00:00 AM";"09:00 - 09:59";"08051";"K. 's-Gravesandestr.";"4.91366120";"52.36235720";"16"
"6/28/2021 12:00:00 AM";"09:00 - 09:59";"08052";"K. 's-Gravesandestr.";"4.91550720";"52.36271509";"12"
"6/28/2021 12:00:00 AM";"09:00 - 09:59";"08053";"Weesperplein";"4.90655690";"52.36088154";"24"
"6/28/2021 12:00:00 AM";"09:00 - 09:59";"08054";"Weesperplein";"4.90941338";"52.36145933";"38"
"6/28/2021 12:00:00 AM";"09:00 - 09:59";"08057";"Frederiksplein";"4.90024241";"52.35971430";"44"
"6/28/2021 12:00:00 AM";"09:00 - 09:59";"08058";"Veelaan";"4.93961588";"52.36830916";"19"
"6/28/2021 12:00:00 AM";"09:00 - 09:59";"08059";"Veelaan";"4.93944523";"52.36776026";"12"
"6/28/2021 12:00:00 AM";"09:00 - 09:59";"08066";"Frederiksplein";"4.89751569";"52.35937050";"34"
"6/28/2021 12:00:00 AM";"09:00 - 09:59";"08072";"Vijzelgracht";"4.89159781";"52.35953462";"26"
"6/28/2021 12:00:00 AM";"09:00 - 09:59";"08073";"Vijzelgracht";"4.89227386";"52.35946554";"33"
"6/28/2021 12:00:00 AM";"09:00 - 09:59";"08080";"Spiegelgracht";"4.88691222";"52.36106979";"55"
"6/28/2021 12:00:00 AM";"09:00 - 09:59";"08095";"Alexanderplein";"4.91969863";"52.36341478";"14"
"6/28/2021 12:00:00 AM";"09:00 - 09:59";"08098";"1e v.Swindenstraat";"4.92386708";"52.36210997";"10"
"6/28/2021 12:00:00 AM";"09:00 - 09:59";"08114";"Javaplein";"4.93955537";"52.36412066";"12"
"6/28/2021 12:00:00 AM";"09:00 - 09:59";"08120";"Insulindeweg";"4.94763926";"52.36469021";"14"
"6/28/2021 12:00:00 AM";"09:00 - 09:59";"08121";"Soembawastraat";"4.94391980";"52.36224967";"10"
"6/28/2021 12:00:00 AM";"09:00 - 09:59";"08124";"Soembawastraat";"4.94346569";"52.36214910";"19"
"6/28/2021 12:00:00 AM";"09:00 - 09:59";"08129";"Molukkenstraat";"4.93861286";"52.36150167";"19"
"6/28/2021 12:00:00 AM";"09:00 - 09:59";"08138";"Zuiderzeeweg";"4.96218432";"52.37129534";"11"
"6/28/2021 12:00:00 AM";"09:00 - 09:59";"08139";"Zuiderzeeweg";"4.96240105";"52.37166461";"16"
"6/28/2021 12:00:00 AM";"09:00 - 09:59";"08190";"Molukkenstraat";"4.93934614";"52.36157635";"13"
"6/28/2021 12:00:00 AM";"09:00 - 09:59";"08219";"Borneolaan";"4.93862058";"52.37090283";"11"
"6/28/2021 12:00:00 AM";"09:00 - 09:59";"08233";"C. van Eesterenlaan";"4.93812487";"52.37345346";"19"
"6/28/2021 12:00:00 AM";"09:00 - 09:59";"08234";"Muziekgeb. Bimhuis";"4.91316454";"52.37723884";"10"
"6/28/2021 12:00:00 AM";"09:00 - 09:59";"08235";"Muziekgeb. Bimhuis";"4.91290020";"52.37723779";"28"
"6/28/2021 12:00:00 AM";"09:00 - 09:59";"08236";"Kattenburgerstraat";"4.92203232";"52.37607865";"11"
"6/28/2021 12:00:00 AM";"09:00 - 09:59";"08237";"Kattenburgerstraat";"4.92126795";"52.37614755";"39"
"6/28/2021 12:00:00 AM";"09:00 - 09:59";"08238";"Rietlandpark";"4.93350159";"52.37322013";"19"
"6/28/2021 12:00:00 AM";"09:00 - 09:59";"08239";"Rietlandpark";"4.93413567";"52.37296191";"38"
"6/28/2021 12:00:00 AM";"09:00 - 09:59";"08241";"Zuiderzeeweg";"4.96185517";"52.37193228";"28"
"6/28/2021 12:00:00 AM";"09:00 - 09:59";"08245";"Steigereiland";"4.98012952";"52.36313467";"36"
"6/28/2021 12:00:00 AM";"09:00 - 09:59";"08246";"Vennepluimstraat";"4.99104399";"52.35749148";"11"
"6/28/2021 12:00:00 AM";"09:00 - 09:59";"08247";"Vennepluimstraat";"4.99057242";"52.35769662";"50"
"6/28/2021 12:00:00 AM";"09:00 - 09:59";"08249";"Diemerparklaan";"4.99499716";"52.35532962";"19"
"6/28/2021 12:00:00 AM";"09:00 - 09:59";"08251";"Lumi?restraat";"4.99942127";"52.35298044";"21"
"6/28/2021 12:00:00 AM";"09:00 - 09:59";"08255";"Hoogte Kadijk";"4.92483038";"52.36687722";"25"
"6/28/2021 12:00:00 AM";"09:00 - 09:59";"08262";"IJburg";"5.00486802";"52.35112872";"68"
"6/28/2021 12:00:00 AM";"09:00 - 09:59";"08281";"Vennepluimstraat";"4.99139941";"52.35714215";"19"
"6/28/2021 12:00:00 AM";"09:00 - 09:59";"08300";"P.Oosterhuisstraat";"5.00693059";"52.35193526";"32"
"6/28/2021 12:00:00 AM";"09:00 - 09:59";"09003";"Dintelstraat";"4.89289498";"52.34192405";"21"
"6/28/2021 12:00:00 AM";"09:00 - 09:59";"09013";"Amstelstation";"4.91790223";"52.34725673";"16"
"6/28/2021 12:00:00 AM";"09:00 - 09:59";"09015";"Amstelstation";"4.91940405";"52.34679531";"11"
"6/28/2021 12:00:00 AM";"09:00 - 09:59";"09016";"Amstelstation";"4.91953925";"52.34649925";"14"
"6/28/2021 12:00:00 AM";"09:00 - 09:59";"09026";"Amstelstation";"4.91874992";"52.34619953";"10"
"6/28/2021 12:00:00 AM";"09:00 - 09:59";"09027";"Wibautstraat";"4.90986831";"52.35738074";"10"
"6/28/2021 12:00:00 AM";"09:00 - 09:59";"09049";"Victorieplein";"4.90570139";"52.34637186";"21"
"6/28/2021 12:00:00 AM";"09:00 - 09:59";"09051";"Victorieplein";"4.90653699";"52.34645615";"16"
"6/28/2021 12:00:00 AM";"09:00 - 09:59";"09060";"Waalstraat";"4.90103893";"52.34462715";"10"
"6/28/2021 12:00:00 AM";"09:00 - 09:59";"09070";"Scheldestraat";"4.88952142";"52.34702395";"27"
"6/28/2021 12:00:00 AM";"09:00 - 09:59";"09073";"Scheldeplein";"4.89113518";"52.34445124";"19"
"6/28/2021 12:00:00 AM";"09:00 - 09:59";"09078";"Maasstraat";"4.89476308";"52.34681220";"10"
"6/28/2021 12:00:00 AM";"09:00 - 09:59";"09090";"Lutmastraat";"4.90331220";"52.35148513";"12"
"6/28/2021 12:00:00 AM";"09:00 - 09:59";"09096";"Van Woustraat";"4.90163035";"52.35495650";"12"
