"Datum";"UurgroepOmschrijving (van aankomst)";"AankomstHalteCode";"AankomstHalteNaam";"AankomstLat";"AankomstLon";"AantalReizen"
"11/15/2021 12:00:00 AM";"00:00 - 00:59";"";"Overig";"";"";"2"
"11/15/2021 12:00:00 AM";"01:00 - 01:59";"";"Overig";"";"";"28"
"11/15/2021 12:00:00 AM";"02:00 - 02:59";"";"Overig";"";"";"21"
"11/15/2021 12:00:00 AM";"03:00 - 03:59";"";"Overig";"";"";"29"
"11/15/2021 12:00:00 AM";"04:00 - 04:59";"";"Overig";"";"";"39"
"11/15/2021 12:00:00 AM";"04:00 - 04:59";"[[ Onb";"[[ Onbekend ]]";"0.00000000";"0.00000000";"27"
"11/15/2021 12:00:00 AM";"04:00 - 04:59";"00562";"Station Bijlmer ArenA";"4.94736012";"52.31138289";"20"
"11/15/2021 12:00:00 AM";"04:00 - 04:59";"00566";"Station Bijlmer ArenA";"4.94709342";"52.31166052";"24"
"11/15/2021 12:00:00 AM";"04:00 - 04:59";"05100";"Centraal Station";"4.90068332";"52.37974972";"16"
"11/15/2021 12:00:00 AM";"05:00 - 05:59";"";"Overig";"";"";"259"
"11/15/2021 12:00:00 AM";"05:00 - 05:59";"[[ Onb";"[[ Onbekend ]]";"0.00000000";"0.00000000";"30"
"11/15/2021 12:00:00 AM";"05:00 - 05:59";"00562";"Station Bijlmer ArenA";"4.94736012";"52.31138289";"18"
"11/15/2021 12:00:00 AM";"05:00 - 05:59";"02365";"Station Sloterdijk";"4.83873236";"52.38822404";"13"
"11/15/2021 12:00:00 AM";"05:00 - 05:59";"04267";"Schiphol Airport/Plaza";"4.76139455";"52.30887344";"99"
"11/15/2021 12:00:00 AM";"05:00 - 05:59";"04274";"Schiphol Airport/Plaza";"4.76104997";"52.30939292";"31"
"11/15/2021 12:00:00 AM";"05:00 - 05:59";"04300";"Knooppunt Schiphol Nrd";"4.79292928";"52.32250892";"15"
"11/15/2021 12:00:00 AM";"05:00 - 05:59";"04379";"Knooppunt Schiphol Nrd";"4.79320459";"52.32276196";"34"
"11/15/2021 12:00:00 AM";"05:00 - 05:59";"05022";"Centraal Station";"4.90104337";"52.37771998";"19"
"11/15/2021 12:00:00 AM";"05:00 - 05:59";"05100";"Centraal Station";"4.90068332";"52.37974972";"26"
"11/15/2021 12:00:00 AM";"05:00 - 05:59";"BMR";"Station Bijlmer ArenA";"4.94713474";"52.31193030";"38"
"11/15/2021 12:00:00 AM";"05:00 - 05:59";"CS";"Centraal Station";"4.90078150";"52.37749421";"71"
"11/15/2021 12:00:00 AM";"05:00 - 05:59";"RKN";"Rokin";"4.89229651";"52.36928023";"19"
"11/15/2021 12:00:00 AM";"05:00 - 05:59";"WTC";"Station Zuid";"4.87509853";"52.33908015";"32"
"11/15/2021 12:00:00 AM";"06:00 - 06:59";"";"Overig";"";"";"1610"
"11/15/2021 12:00:00 AM";"06:00 - 06:59";"[[ Onb";"[[ Onbekend ]]";"0.00000000";"0.00000000";"120"
"11/15/2021 12:00:00 AM";"06:00 - 06:59";"00023";"Beukenplein";"4.91809259";"52.35701816";"17"
"11/15/2021 12:00:00 AM";"06:00 - 06:59";"00453";"Diemen Sniep";"4.96964866";"52.33644962";"46"
"11/15/2021 12:00:00 AM";"06:00 - 06:59";"00506";"Science Park Terra";"4.95831008";"52.35434856";"11"
"11/15/2021 12:00:00 AM";"06:00 - 06:59";"00518";"Foppingadreef";"4.94967889";"52.31268573";"10"
"11/15/2021 12:00:00 AM";"06:00 - 06:59";"00560";"Station Bijlmer ArenA";"4.94747867";"52.31125750";"12"
"11/15/2021 12:00:00 AM";"06:00 - 06:59";"00561";"Station Bijlmer ArenA";"4.94741931";"52.31132918";"58"
"11/15/2021 12:00:00 AM";"06:00 - 06:59";"00562";"Station Bijlmer ArenA";"4.94736012";"52.31138289";"41"
"11/15/2021 12:00:00 AM";"06:00 - 06:59";"01365";"Atat?rk";"4.89794256";"52.40319625";"12"
"11/15/2021 12:00:00 AM";"06:00 - 06:59";"02010";"Koivistokade";"4.87631267";"52.39805387";"13"
"11/15/2021 12:00:00 AM";"06:00 - 06:59";"02066";"La Guardiaweg";"4.84008244";"52.39190625";"10"
"11/15/2021 12:00:00 AM";"06:00 - 06:59";"02311";"Seineweg";"4.81857317";"52.38632242";"45"
"11/15/2021 12:00:00 AM";"06:00 - 06:59";"02361";"Station Sloterdijk";"4.83931858";"52.38833460";"41"
"11/15/2021 12:00:00 AM";"06:00 - 06:59";"02365";"Station Sloterdijk";"4.83873236";"52.38822404";"21"
"11/15/2021 12:00:00 AM";"06:00 - 06:59";"02366";"Station Sloterdijk";"4.83873347";"52.38813416";"17"
"11/15/2021 12:00:00 AM";"06:00 - 06:59";"02368";"Station Sloterdijk";"4.83877999";"52.38793665";"20"
"11/15/2021 12:00:00 AM";"06:00 - 06:59";"02378";"Station Sloterdijk";"4.83809796";"52.38844579";"20"
"11/15/2021 12:00:00 AM";"06:00 - 06:59";"03076";"Jan Tooropstraat";"4.83810313";"52.37142305";"11"
"11/15/2021 12:00:00 AM";"06:00 - 06:59";"03129";"Plein '40 - '45";"4.82112672";"52.38075328";"11"
"11/15/2021 12:00:00 AM";"06:00 - 06:59";"04016";"Hoekenes";"4.79854723";"52.35791310";"13"
"11/15/2021 12:00:00 AM";"06:00 - 06:59";"04112";"Johan Huizingalaan";"4.82742878";"52.34923618";"21"
"11/15/2021 12:00:00 AM";"06:00 - 06:59";"04195";"Station Lelylaan";"4.83460082";"52.35788018";"34"
"11/15/2021 12:00:00 AM";"06:00 - 06:59";"04196";"Station Lelylaan";"4.83382251";"52.35790351";"24"
"11/15/2021 12:00:00 AM";"06:00 - 06:59";"04267";"Schiphol Airport/Plaza";"4.76139455";"52.30887344";"33"
"11/15/2021 12:00:00 AM";"06:00 - 06:59";"04274";"Schiphol Airport/Plaza";"4.76104997";"52.30939292";"24"
"11/15/2021 12:00:00 AM";"06:00 - 06:59";"04379";"Knooppunt Schiphol Nrd";"4.79320459";"52.32276196";"41"
"11/15/2021 12:00:00 AM";"06:00 - 06:59";"05011";"Centraal Station";"4.89921803";"52.37810793";"98"
"11/15/2021 12:00:00 AM";"06:00 - 06:59";"05022";"Centraal Station";"4.90104337";"52.37771998";"96"
"11/15/2021 12:00:00 AM";"06:00 - 06:59";"05031";"Dam";"4.89348394";"52.37341055";"11"
"11/15/2021 12:00:00 AM";"06:00 - 06:59";"05060";"Koningsplein";"4.88894752";"52.36807981";"11"
"11/15/2021 12:00:00 AM";"06:00 - 06:59";"05065";"Dam";"4.89079364";"52.37367792";"13"
"11/15/2021 12:00:00 AM";"06:00 - 06:59";"05066";"Dam";"4.89027056";"52.37318140";"41"
"11/15/2021 12:00:00 AM";"06:00 - 06:59";"05069";"Nieuwezijds Kolk";"4.89373093";"52.37628765";"15"
"11/15/2021 12:00:00 AM";"06:00 - 06:59";"05074";"Westermarkt";"4.88354950";"52.37407874";"15"
"11/15/2021 12:00:00 AM";"06:00 - 06:59";"05097";"Centraal Station";"4.90087651";"52.37954379";"43"
"11/15/2021 12:00:00 AM";"06:00 - 06:59";"05101";"Centraal Station";"4.90105195";"52.37961641";"26"
"11/15/2021 12:00:00 AM";"06:00 - 06:59";"05103";"Centraal Station";"4.90127481";"52.37938365";"20"
"11/15/2021 12:00:00 AM";"06:00 - 06:59";"06027";"Elandsgracht";"4.87855189";"52.36808953";"15"
"11/15/2021 12:00:00 AM";"06:00 - 06:59";"06061";"Leidseplein";"4.88339576";"52.36305015";"22"
"11/15/2021 12:00:00 AM";"06:00 - 06:59";"06063";"Leidseplein";"4.88064547";"52.36476406";"26"
"11/15/2021 12:00:00 AM";"06:00 - 06:59";"06089";"Leidseplein";"4.88085541";"52.36309324";"14"
"11/15/2021 12:00:00 AM";"06:00 - 06:59";"07001";"Concertgebouw";"4.87950215";"52.35690388";"18"
"11/15/2021 12:00:00 AM";"06:00 - 06:59";"07193";"Station Zuid";"4.87334616";"52.34088808";"12"
"11/15/2021 12:00:00 AM";"06:00 - 06:59";"07269";"Station Zuid";"4.87374306";"52.34082689";"34"
"11/15/2021 12:00:00 AM";"06:00 - 06:59";"07294";"Station Zuid";"4.87327467";"52.34072599";"11"
"11/15/2021 12:00:00 AM";"06:00 - 06:59";"07303";"VU medisch centrum";"4.86097062";"52.33515342";"26"
"11/15/2021 12:00:00 AM";"06:00 - 06:59";"08072";"Vijzelgracht";"4.89159781";"52.35953462";"10"
"11/15/2021 12:00:00 AM";"06:00 - 06:59";"08073";"Vijzelgracht";"4.89227386";"52.35946554";"11"
"11/15/2021 12:00:00 AM";"06:00 - 06:59";"08080";"Spiegelgracht";"4.88691222";"52.36106979";"15"
"11/15/2021 12:00:00 AM";"06:00 - 06:59";"08095";"Alexanderplein";"4.91969863";"52.36341478";"12"
"11/15/2021 12:00:00 AM";"06:00 - 06:59";"08096";"Alexanderplein";"4.91931589";"52.36351213";"16"
"11/15/2021 12:00:00 AM";"06:00 - 06:59";"08239";"Rietlandpark";"4.93413567";"52.37296191";"14"
"11/15/2021 12:00:00 AM";"06:00 - 06:59";"08262";"IJburg";"5.00486802";"52.35112872";"11"
"11/15/2021 12:00:00 AM";"06:00 - 06:59";"09016";"Amstelstation";"4.91953925";"52.34649925";"11"
"11/15/2021 12:00:00 AM";"06:00 - 06:59";"ASA";"Amstelstation";"4.91751426";"52.34647326";"134"
"11/15/2021 12:00:00 AM";"06:00 - 06:59";"ASW";"Amstelveenseweg";"4.85798324";"52.33836671";"137"
"11/15/2021 12:00:00 AM";"06:00 - 06:59";"BLW";"Bullewijk";"4.95233581";"52.30642205";"49"
"11/15/2021 12:00:00 AM";"06:00 - 06:59";"BMR";"Station Bijlmer ArenA";"4.94713474";"52.31193030";"193"
"11/15/2021 12:00:00 AM";"06:00 - 06:59";"CLL";"Station Lelylaan";"4.83426589";"52.35766291";"42"
"11/15/2021 12:00:00 AM";"06:00 - 06:59";"CS";"Centraal Station";"4.90078150";"52.37749421";"413"
"11/15/2021 12:00:00 AM";"06:00 - 06:59";"DMZ";"Station Diemen-Zuid";"4.95713273";"52.33042795";"23"
"11/15/2021 12:00:00 AM";"06:00 - 06:59";"DPP";"De Pijp";"4.89101069";"52.35296212";"44"
"11/15/2021 12:00:00 AM";"06:00 - 06:59";"DVD";"Station Duivendrecht";"4.93678429";"52.32325190";"43"
"11/15/2021 12:00:00 AM";"06:00 - 06:59";"EPP";"Europaplein";"4.89138430";"52.34185482";"42"
"11/15/2021 12:00:00 AM";"06:00 - 06:59";"GZH";"Station Ganzenhoef";"4.97323379";"52.32331315";"15"
"11/15/2021 12:00:00 AM";"06:00 - 06:59";"HDS";"Heemstedestraat";"4.83421208";"52.35255760";"20"
"11/15/2021 12:00:00 AM";"06:00 - 06:59";"HLD";"Station Holendrecht";"4.96021904";"52.29780451";"77"
"11/15/2021 12:00:00 AM";"06:00 - 06:59";"HVW";"Henk Sneevlietweg";"4.83439318";"52.34626699";"52"
"11/15/2021 12:00:00 AM";"06:00 - 06:59";"ITW";"Isolatorweg";"4.85013475";"52.39523277";"20"
"11/15/2021 12:00:00 AM";"06:00 - 06:59";"JLS";"Jan v.Galenstraat";"4.83492461";"52.37196551";"66"
"11/15/2021 12:00:00 AM";"06:00 - 06:59";"MDW";"Van der Madeweg";"4.93048657";"52.32945629";"39"
"11/15/2021 12:00:00 AM";"06:00 - 06:59";"ND";"Noord";"4.93123182";"52.40117202";"64"
"11/15/2021 12:00:00 AM";"06:00 - 06:59";"NDP";"Noorderpark";"4.91789115";"52.38855518";"31"
"11/15/2021 12:00:00 AM";"06:00 - 06:59";"NMT";"Nieuwmarkt";"4.90123885";"52.37194169";"50"
"11/15/2021 12:00:00 AM";"06:00 - 06:59";"OAS";"Overamstel";"4.91815361";"52.33179879";"52"
"11/15/2021 12:00:00 AM";"06:00 - 06:59";"RAI";"Station RAI";"4.88982004";"52.33739931";"64"
"11/15/2021 12:00:00 AM";"06:00 - 06:59";"RGB";"Reigersbos";"4.97473728";"52.29566301";"20"
"11/15/2021 12:00:00 AM";"06:00 - 06:59";"RKN";"Rokin";"4.89229651";"52.36928023";"150"
"11/15/2021 12:00:00 AM";"06:00 - 06:59";"SLW";"Spaklerweg";"4.92085640";"52.33986250";"39"
"11/15/2021 12:00:00 AM";"06:00 - 06:59";"STD";"Station Sloterdijk";"4.83878389";"52.38880848";"145"
"11/15/2021 12:00:00 AM";"06:00 - 06:59";"VSW";"Verrijn Stuartweg";"4.96693669";"52.32844093";"20"
"11/15/2021 12:00:00 AM";"06:00 - 06:59";"VZG";"Vijzelgracht";"4.89072870";"52.35980061";"49"
"11/15/2021 12:00:00 AM";"06:00 - 06:59";"WBS";"Wibautstraat";"4.91202993";"52.35428867";"66"
"11/15/2021 12:00:00 AM";"06:00 - 06:59";"WLP";"Waterlooplein";"4.90298171";"52.36697862";"93"
"11/15/2021 12:00:00 AM";"06:00 - 06:59";"WPP";"Weesperplein";"4.90787469";"52.36120146";"92"
"11/15/2021 12:00:00 AM";"06:00 - 06:59";"WTC";"Station Zuid";"4.87509853";"52.33908015";"310"
"11/15/2021 12:00:00 AM";"07:00 - 07:59";"";"Overig";"";"";"2234"
"11/15/2021 12:00:00 AM";"07:00 - 07:59";"[[ Onb";"[[ Onbekend ]]";"0.00000000";"0.00000000";"343"
"11/15/2021 12:00:00 AM";"07:00 - 07:59";"00001";"Muiderpoortstation";"4.93287450";"52.36132700";"10"
"11/15/2021 12:00:00 AM";"07:00 - 07:59";"00005";"Muiderpoortstation";"4.93280219";"52.36121887";"27"
"11/15/2021 12:00:00 AM";"07:00 - 07:59";"00006";"Muiderpoortstation";"4.93368466";"52.36106048";"14"
"11/15/2021 12:00:00 AM";"07:00 - 07:59";"00007";"Muiderpoortstation";"4.93356602";"52.36117686";"10"
"11/15/2021 12:00:00 AM";"07:00 - 07:59";"00008";"Dapperstraat";"4.92977913";"52.36110836";"20"
"11/15/2021 12:00:00 AM";"07:00 - 07:59";"00017";"Linnaeusstraat";"4.92573745";"52.36013099";"12"
"11/15/2021 12:00:00 AM";"07:00 - 07:59";"00018";"Diemerknoop";"5.00286153";"52.33537576";"15"
"11/15/2021 12:00:00 AM";"07:00 - 07:59";"00019";"Diemerknoop";"5.00296377";"52.33543002";"14"
"11/15/2021 12:00:00 AM";"07:00 - 07:59";"00020";"Beukenweg";"4.91674979";"52.35906203";"37"
"11/15/2021 12:00:00 AM";"07:00 - 07:59";"00021";"Beukenweg";"4.91721293";"52.35829991";"26"
"11/15/2021 12:00:00 AM";"07:00 - 07:59";"00023";"Beukenplein";"4.91809259";"52.35701816";"30"
"11/15/2021 12:00:00 AM";"07:00 - 07:59";"00029";"Oostpoort";"4.92719316";"52.35707185";"35"
"11/15/2021 12:00:00 AM";"07:00 - 07:59";"00030";"Oostpoort";"4.92694026";"52.35739442";"14"
"11/15/2021 12:00:00 AM";"07:00 - 07:59";"00046";"Fizeaustraat";"4.92463808";"52.34589015";"10"
"11/15/2021 12:00:00 AM";"07:00 - 07:59";"00065";"Hugo de Vrieslaan";"4.93487340";"52.35101676";"10"
"11/15/2021 12:00:00 AM";"07:00 - 07:59";"00152";"Florijn";"4.95859163";"52.31758973";"12"
"11/15/2021 12:00:00 AM";"07:00 - 07:59";"00178";"Nelson Mandelapark";"4.96403676";"52.31101231";"10"
"11/15/2021 12:00:00 AM";"07:00 - 07:59";"00179";"Kelbergen";"4.97179997";"52.31351146";"20"
"11/15/2021 12:00:00 AM";"07:00 - 07:59";"00205";"Station Holendrecht";"4.95865657";"52.29716971";"25"
"11/15/2021 12:00:00 AM";"07:00 - 07:59";"00250";"Station Diemen Zuid";"4.95668889";"52.33081280";"12"
"11/15/2021 12:00:00 AM";"07:00 - 07:59";"00351";"Dostojevskisingel";"4.94525272";"52.32275356";"12"
"11/15/2021 12:00:00 AM";"07:00 - 07:59";"00434";"Bijlmerplein";"4.95032022";"52.31457553";"10"
"11/15/2021 12:00:00 AM";"07:00 - 07:59";"00441";"Muiderpoortstation";"4.93254137";"52.36088532";"11"
"11/15/2021 12:00:00 AM";"07:00 - 07:59";"00453";"Diemen Sniep";"4.96964866";"52.33644962";"54"
"11/15/2021 12:00:00 AM";"07:00 - 07:59";"00505";"Arent Krijtsstraat";"4.95469645";"52.33956859";"12"
"11/15/2021 12:00:00 AM";"07:00 - 07:59";"00506";"Science Park Terra";"4.95831008";"52.35434856";"12"
"11/15/2021 12:00:00 AM";"07:00 - 07:59";"00515";"Station Duivendrecht";"4.93669692";"52.32318866";"12"
"11/15/2021 12:00:00 AM";"07:00 - 07:59";"00518";"Foppingadreef";"4.94967889";"52.31268573";"11"
"11/15/2021 12:00:00 AM";"07:00 - 07:59";"00560";"Station Bijlmer ArenA";"4.94747867";"52.31125750";"41"
"11/15/2021 12:00:00 AM";"07:00 - 07:59";"00561";"Station Bijlmer ArenA";"4.94741931";"52.31132918";"56"
"11/15/2021 12:00:00 AM";"07:00 - 07:59";"00562";"Station Bijlmer ArenA";"4.94736012";"52.31138289";"65"
"11/15/2021 12:00:00 AM";"07:00 - 07:59";"00568";"Station Bijlmer ArenA";"4.94762664";"52.31112323";"15"
"11/15/2021 12:00:00 AM";"07:00 - 07:59";"00665";"Station Weesp";"5.04383463";"52.31145059";"14"
"11/15/2021 12:00:00 AM";"07:00 - 07:59";"00999";"Vinkenbrug";"4.97831599";"52.33370267";"17"
"11/15/2021 12:00:00 AM";"07:00 - 07:59";"01111";"Rode Kruisstraat";"4.92881363";"52.39488033";"25"
"11/15/2021 12:00:00 AM";"07:00 - 07:59";"01316";"Station Noord";"4.93336820";"52.40204304";"12"
"11/15/2021 12:00:00 AM";"07:00 - 07:59";"01352";"Oosterlengte";"4.92206974";"52.40611555";"16"
"11/15/2021 12:00:00 AM";"07:00 - 07:59";"01365";"Atat?rk";"4.89794256";"52.40319625";"21"
"11/15/2021 12:00:00 AM";"07:00 - 07:59";"01402";"Floraweg";"4.90614362";"52.39899665";"12"
"11/15/2021 12:00:00 AM";"07:00 - 07:59";"01422";"Noorderpark";"4.91956087";"52.38902016";"15"
"11/15/2021 12:00:00 AM";"07:00 - 07:59";"02010";"Koivistokade";"4.87631267";"52.39805387";"17"
"11/15/2021 12:00:00 AM";"07:00 - 07:59";"02064";"Kabelweg";"4.84827817";"52.39205168";"16"
"11/15/2021 12:00:00 AM";"07:00 - 07:59";"02066";"La Guardiaweg";"4.84008244";"52.39190625";"10"
"11/15/2021 12:00:00 AM";"07:00 - 07:59";"02099";"Zaanstraat";"4.86990824";"52.39287613";"17"
"11/15/2021 12:00:00 AM";"07:00 - 07:59";"02103";"Spaarndammerstraat";"4.87765867";"52.39216375";"20"
"11/15/2021 12:00:00 AM";"07:00 - 07:59";"02113";"Haarlemmerplein";"4.88371739";"52.38516129";"11"
"11/15/2021 12:00:00 AM";"07:00 - 07:59";"02114";"Haarlemmerplein";"4.88341252";"52.38484542";"25"
"11/15/2021 12:00:00 AM";"07:00 - 07:59";"02156";"Willem de Zwijgerlaan";"4.86425293";"52.37039101";"11"
"11/15/2021 12:00:00 AM";"07:00 - 07:59";"02158";"Adm. de Ruijterweg";"4.86096776";"52.37129320";"13"
"11/15/2021 12:00:00 AM";"07:00 - 07:59";"02168";"Haparandaweg";"4.87311908";"52.39470562";"19"
"11/15/2021 12:00:00 AM";"07:00 - 07:59";"02170";"Spaarndammerstraat";"4.87723089";"52.39231470";"13"
"11/15/2021 12:00:00 AM";"07:00 - 07:59";"02201";"Abberdaan";"4.78087947";"52.39180671";"16"
"11/15/2021 12:00:00 AM";"07:00 - 07:59";"02260";"Contactweg";"4.85432952";"52.39215995";"11"
"11/15/2021 12:00:00 AM";"07:00 - 07:59";"02301";"Fred. Hendrikplants.";"4.87521585";"52.37852787";"12"
"11/15/2021 12:00:00 AM";"07:00 - 07:59";"02311";"Seineweg";"4.81857317";"52.38632242";"17"
"11/15/2021 12:00:00 AM";"07:00 - 07:59";"02361";"Station Sloterdijk";"4.83931858";"52.38833460";"77"
"11/15/2021 12:00:00 AM";"07:00 - 07:59";"02365";"Station Sloterdijk";"4.83873236";"52.38822404";"30"
"11/15/2021 12:00:00 AM";"07:00 - 07:59";"02366";"Station Sloterdijk";"4.83873347";"52.38813416";"23"
"11/15/2021 12:00:00 AM";"07:00 - 07:59";"02367";"Station Sloterdijk";"4.83876429";"52.38801747";"31"
"11/15/2021 12:00:00 AM";"07:00 - 07:59";"02368";"Station Sloterdijk";"4.83877999";"52.38793665";"21"
"11/15/2021 12:00:00 AM";"07:00 - 07:59";"02370";"Station Sloterdijk";"4.83879745";"52.38771204";"21"
"11/15/2021 12:00:00 AM";"07:00 - 07:59";"02378";"Station Sloterdijk";"4.83809796";"52.38844579";"47"
"11/15/2021 12:00:00 AM";"07:00 - 07:59";"03010";"Witte de Withstraat";"4.85928290";"52.36480554";"12"
"11/15/2021 12:00:00 AM";"07:00 - 07:59";"03028";"Jan van Galenstraat";"4.84921138";"52.37204926";"10"
"11/15/2021 12:00:00 AM";"07:00 - 07:59";"03060";"Bos en Lommerplein";"4.84718407";"52.37815169";"18"
"11/15/2021 12:00:00 AM";"07:00 - 07:59";"03061";"Bos en Lommerplein";"4.84523530";"52.37778328";"24"
"11/15/2021 12:00:00 AM";"07:00 - 07:59";"03076";"Jan Tooropstraat";"4.83810313";"52.37142305";"24"
"11/15/2021 12:00:00 AM";"07:00 - 07:59";"03077";"Jan Tooropstraat";"4.83817288";"52.37171997";"13"
"11/15/2021 12:00:00 AM";"07:00 - 07:59";"03087";"Plein '40 - '45";"4.82063128";"52.38159575";"19"
"11/15/2021 12:00:00 AM";"07:00 - 07:59";"03129";"Plein '40 - '45";"4.82112672";"52.38075328";"20"
"11/15/2021 12:00:00 AM";"07:00 - 07:59";"03135";"Ookmeerweg";"4.80431836";"52.36558127";"10"
"11/15/2021 12:00:00 AM";"07:00 - 07:59";"03145";"J. Cabeliaustraat";"4.80409638";"52.38246819";"19"
"11/15/2021 12:00:00 AM";"07:00 - 07:59";"03150";"Mercatorplein";"4.85011339";"52.37031872";"12"
"11/15/2021 12:00:00 AM";"07:00 - 07:59";"03157";"Lambertus Zijlplein";"4.80338637";"52.37726977";"11"
"11/15/2021 12:00:00 AM";"07:00 - 07:59";"03167";"Bos en Lommerplein";"4.84650668";"52.37709704";"20"
"11/15/2021 12:00:00 AM";"07:00 - 07:59";"03181";"Jan Voermanstraat";"4.83788946";"52.36970540";"12"
"11/15/2021 12:00:00 AM";"07:00 - 07:59";"04012";"Baden Powellweg";"4.79137362";"52.35646612";"10"
"11/15/2021 12:00:00 AM";"07:00 - 07:59";"04050";"Meer en Vaart";"4.80994403";"52.35636940";"13"
"11/15/2021 12:00:00 AM";"07:00 - 07:59";"04061";"Derkinderenstraat";"4.84014895";"52.35794190";"13"
"11/15/2021 12:00:00 AM";"07:00 - 07:59";"04088";"Louwesweg";"4.82436420";"52.34669608";"17"
"11/15/2021 12:00:00 AM";"07:00 - 07:59";"04112";"Johan Huizingalaan";"4.82742878";"52.34923618";"33"
"11/15/2021 12:00:00 AM";"07:00 - 07:59";"04195";"Station Lelylaan";"4.83460082";"52.35788018";"64"
"11/15/2021 12:00:00 AM";"07:00 - 07:59";"04196";"Station Lelylaan";"4.83382251";"52.35790351";"84"
"11/15/2021 12:00:00 AM";"07:00 - 07:59";"04267";"Schiphol Airport/Plaza";"4.76139455";"52.30887344";"12"
"11/15/2021 12:00:00 AM";"07:00 - 07:59";"04274";"Schiphol Airport/Plaza";"4.76104997";"52.30939292";"24"
"11/15/2021 12:00:00 AM";"07:00 - 07:59";"04379";"Knooppunt Schiphol Nrd";"4.79320459";"52.32276196";"57"
"11/15/2021 12:00:00 AM";"07:00 - 07:59";"04402";"Matterhorn";"4.77477998";"52.35372103";"25"
"11/15/2021 12:00:00 AM";"07:00 - 07:59";"04411";"Hoekenes";"4.80183430";"52.35243785";"16"
"11/15/2021 12:00:00 AM";"07:00 - 07:59";"04413";"Louis Davidsstraat";"4.80850916";"52.35383682";"11"
"11/15/2021 12:00:00 AM";"07:00 - 07:59";"05011";"Centraal Station";"4.89921803";"52.37810793";"182"
"11/15/2021 12:00:00 AM";"07:00 - 07:59";"05022";"Centraal Station";"4.90104337";"52.37771998";"212"
"11/15/2021 12:00:00 AM";"07:00 - 07:59";"05032";"Dam";"4.89549360";"52.37492885";"13"
"11/15/2021 12:00:00 AM";"07:00 - 07:59";"05047";"Rembrandtplein";"4.89702882";"52.36623511";"14"
"11/15/2021 12:00:00 AM";"07:00 - 07:59";"05060";"Koningsplein";"4.88894752";"52.36807981";"16"
"11/15/2021 12:00:00 AM";"07:00 - 07:59";"05064";"Koningsplein";"4.88949610";"52.36760577";"29"
"11/15/2021 12:00:00 AM";"07:00 - 07:59";"05065";"Dam";"4.89079364";"52.37367792";"39"
"11/15/2021 12:00:00 AM";"07:00 - 07:59";"05066";"Dam";"4.89027056";"52.37318140";"50"
"11/15/2021 12:00:00 AM";"07:00 - 07:59";"05069";"Nieuwezijds Kolk";"4.89373093";"52.37628765";"22"
"11/15/2021 12:00:00 AM";"07:00 - 07:59";"05070";"Nieuwezijds Kolk";"4.89284106";"52.37575366";"13"
"11/15/2021 12:00:00 AM";"07:00 - 07:59";"05073";"Westermarkt";"4.88453426";"52.37400204";"22"
"11/15/2021 12:00:00 AM";"07:00 - 07:59";"05074";"Westermarkt";"4.88354950";"52.37407874";"25"
"11/15/2021 12:00:00 AM";"07:00 - 07:59";"05077";"Marnixstraat";"4.87615428";"52.37228546";"26"
"11/15/2021 12:00:00 AM";"07:00 - 07:59";"05080";"Buiten Oranjestraat";"4.88782167";"52.38330923";"11"
"11/15/2021 12:00:00 AM";"07:00 - 07:59";"05090";"Westerdoksdijk";"4.89331977";"52.38551629";"12"
"11/15/2021 12:00:00 AM";"07:00 - 07:59";"05097";"Centraal Station";"4.90087651";"52.37954379";"57"
"11/15/2021 12:00:00 AM";"07:00 - 07:59";"05101";"Centraal Station";"4.90105195";"52.37961641";"33"
"11/15/2021 12:00:00 AM";"07:00 - 07:59";"05103";"Centraal Station";"4.90127481";"52.37938365";"39"
"11/15/2021 12:00:00 AM";"07:00 - 07:59";"05105";"Centraal Station";"4.90187762";"52.37932321";"22"
"11/15/2021 12:00:00 AM";"07:00 - 07:59";"05106";"Centraal Station";"4.90229030";"52.37919008";"16"
"11/15/2021 12:00:00 AM";"07:00 - 07:59";"05107";"Centraal Station";"4.90195282";"52.37916174";"37"
"11/15/2021 12:00:00 AM";"07:00 - 07:59";"06001";"Surinameplein";"4.85252231";"52.35807034";"26"
"11/15/2021 12:00:00 AM";"07:00 - 07:59";"06002";"Surinameplein";"4.85090753";"52.35807202";"12"
"11/15/2021 12:00:00 AM";"07:00 - 07:59";"06015";"Postjesweg";"4.85316124";"52.36352879";"11"
"11/15/2021 12:00:00 AM";"07:00 - 07:59";"06017";"J.P. Heijestraat";"4.86292317";"52.36487565";"12"
"11/15/2021 12:00:00 AM";"07:00 - 07:59";"06020";"Ten Katestraat";"4.86773990";"52.36603832";"24"
"11/15/2021 12:00:00 AM";"07:00 - 07:59";"06021";"Bilderdijkstraat";"4.87176488";"52.36712545";"23"
"11/15/2021 12:00:00 AM";"07:00 - 07:59";"06027";"Elandsgracht";"4.87855189";"52.36808953";"16"
"11/15/2021 12:00:00 AM";"07:00 - 07:59";"06028";"Elandsgracht";"4.87741694";"52.36974738";"35"
"11/15/2021 12:00:00 AM";"07:00 - 07:59";"06029";"Elandsgracht";"4.87684368";"52.36852258";"24"
"11/15/2021 12:00:00 AM";"07:00 - 07:59";"06034";"Bilderdijkstraat";"4.87082347";"52.37105798";"17"
"11/15/2021 12:00:00 AM";"07:00 - 07:59";"06037";"Bilderdijkstraat";"4.86985701";"52.37082906";"26"
"11/15/2021 12:00:00 AM";"07:00 - 07:59";"06046";"1e Con. Huygensstraat";"4.87487082";"52.36262709";"18"
"11/15/2021 12:00:00 AM";"07:00 - 07:59";"06048";"J.P. Heijestraat";"4.86585368";"52.36037674";"14"
"11/15/2021 12:00:00 AM";"07:00 - 07:59";"06059";"Spiegelgracht";"4.88762090";"52.36071327";"11"
"11/15/2021 12:00:00 AM";"07:00 - 07:59";"06061";"Leidseplein";"4.88339576";"52.36305015";"23"
"11/15/2021 12:00:00 AM";"07:00 - 07:59";"06063";"Leidseplein";"4.88064547";"52.36476406";"21"
"11/15/2021 12:00:00 AM";"07:00 - 07:59";"06074";"Keizersgracht";"4.88624128";"52.36588437";"11"
"11/15/2021 12:00:00 AM";"07:00 - 07:59";"06081";"Rhijnvis Feithstraat";"4.86039355";"52.35905833";"10"
"11/15/2021 12:00:00 AM";"07:00 - 07:59";"06082";"Rhijnvis Feithstraat";"4.85967683";"52.35883943";"18"
"11/15/2021 12:00:00 AM";"07:00 - 07:59";"06089";"Leidseplein";"4.88085541";"52.36309324";"48"
"11/15/2021 12:00:00 AM";"07:00 - 07:59";"06114";"Hoofdweg";"4.85444451";"52.36425359";"14"
"11/15/2021 12:00:00 AM";"07:00 - 07:59";"07000";"Concertgebouw";"4.87980116";"52.35642881";"16"
"11/15/2021 12:00:00 AM";"07:00 - 07:59";"07001";"Concertgebouw";"4.87950215";"52.35690388";"42"
"11/15/2021 12:00:00 AM";"07:00 - 07:59";"07016";"Roelof Hartplein";"4.88286688";"52.35274795";"16"
"11/15/2021 12:00:00 AM";"07:00 - 07:59";"07021";"Kastelenstraat";"4.87955984";"52.32619291";"11"
"11/15/2021 12:00:00 AM";"07:00 - 07:59";"07028";"Corn. Schuytstraat";"4.87088070";"52.35604870";"14"
"11/15/2021 12:00:00 AM";"07:00 - 07:59";"07031";"Valeriusplein";"4.86374943";"52.35333004";"13"
"11/15/2021 12:00:00 AM";"07:00 - 07:59";"07032";"Valeriusplein";"4.86326678";"52.35318410";"12"
"11/15/2021 12:00:00 AM";"07:00 - 07:59";"07033";"Amstelveenseweg";"4.85695925";"52.35161911";"13"
"11/15/2021 12:00:00 AM";"07:00 - 07:59";"07049";"Hoofddorpplein";"4.84958188";"52.35117239";"16"
"11/15/2021 12:00:00 AM";"07:00 - 07:59";"07050";"Haarlemmermeerstation";"4.85744749";"52.34883508";"24"
"11/15/2021 12:00:00 AM";"07:00 - 07:59";"07083";"Gerrit v.d. Veenstraat";"4.87735929";"52.34921014";"11"
"11/15/2021 12:00:00 AM";"07:00 - 07:59";"07084";"Gerrit v.d. Veenstraat";"4.87720177";"52.34886793";"15"
"11/15/2021 12:00:00 AM";"07:00 - 07:59";"07097";"Olympiaplein";"4.86582821";"52.34630180";"13"
"11/15/2021 12:00:00 AM";"07:00 - 07:59";"07116";"Haarlemmermeerstation";"4.85760410";"52.34924023";"16"
"11/15/2021 12:00:00 AM";"07:00 - 07:59";"07190";"Station Zuid";"4.87352214";"52.34089784";"13"
"11/15/2021 12:00:00 AM";"07:00 - 07:59";"07193";"Station Zuid";"4.87334616";"52.34088808";"22"
"11/15/2021 12:00:00 AM";"07:00 - 07:59";"07202";"Olympisch stadion";"4.85684420";"52.34405088";"15"
"11/15/2021 12:00:00 AM";"07:00 - 07:59";"07260";"Station RAI";"4.89077724";"52.33708876";"14"
"11/15/2021 12:00:00 AM";"07:00 - 07:59";"07268";"Station Zuid";"4.87428608";"52.34082026";"19"
"11/15/2021 12:00:00 AM";"07:00 - 07:59";"07269";"Station Zuid";"4.87374306";"52.34082689";"48"
"11/15/2021 12:00:00 AM";"07:00 - 07:59";"07270";"Parnassusweg";"4.86874218";"52.33806382";"42"
"11/15/2021 12:00:00 AM";"07:00 - 07:59";"07294";"Station Zuid";"4.87327467";"52.34072599";"19"
"11/15/2021 12:00:00 AM";"07:00 - 07:59";"07303";"VU medisch centrum";"4.86097062";"52.33515342";"52"
"11/15/2021 12:00:00 AM";"07:00 - 07:59";"07325";"Museumplein";"4.88046549";"52.35866960";"23"
"11/15/2021 12:00:00 AM";"07:00 - 07:59";"07339";"Nieuw Herlaer";"4.88985946";"52.32602094";"16"
"11/15/2021 12:00:00 AM";"07:00 - 07:59";"07350";"VU medisch centrum";"4.86006046";"52.33519431";"10"
"11/15/2021 12:00:00 AM";"07:00 - 07:59";"07391";"Kronenburg";"4.87070592";"52.31556694";"11"
"11/15/2021 12:00:00 AM";"07:00 - 07:59";"07419";"Van Boshuizenstraat";"4.86896941";"52.32487971";"40"
"11/15/2021 12:00:00 AM";"07:00 - 07:59";"07423";"Uilenstede";"4.86910951";"52.32167168";"15"
"11/15/2021 12:00:00 AM";"07:00 - 07:59";"07439";"Oranjebaan";"4.87179001";"52.30302465";"15"
"11/15/2021 12:00:00 AM";"07:00 - 07:59";"07445";"Amstelveen Stadshart";"4.86751502";"52.30124433";"17"
"11/15/2021 12:00:00 AM";"07:00 - 07:59";"07448";"A.J. Ernststraat";"4.86887597";"52.33288743";"14"
"11/15/2021 12:00:00 AM";"07:00 - 07:59";"07449";"A.J. Ernststraat";"4.86879476";"52.33230287";"12"
"11/15/2021 12:00:00 AM";"07:00 - 07:59";"07453";"Ouderkerkerlaan";"4.86721192";"52.29582332";"14"
"11/15/2021 12:00:00 AM";"07:00 - 07:59";"07457";"Sportlaan";"4.86336804";"52.28987436";"12"
"11/15/2021 12:00:00 AM";"07:00 - 07:59";"07473";"Meent";"4.85693861";"52.28084883";"11"
"11/15/2021 12:00:00 AM";"07:00 - 07:59";"07481";"Poortwachter";"4.84496524";"52.28332911";"12"
"11/15/2021 12:00:00 AM";"07:00 - 07:59";"07482";"Sacharovlaan";"4.83228912";"52.28211984";"20"
"11/15/2021 12:00:00 AM";"07:00 - 07:59";"08027";"Kadijksplein";"4.91357159";"52.37075136";"10"
"11/15/2021 12:00:00 AM";"07:00 - 07:59";"08034";"P. Hendrikkade (uitstaphalte)";"4.90238928";"52.37685369";"11"
"11/15/2021 12:00:00 AM";"07:00 - 07:59";"08043";"Artis";"4.91141423";"52.36653646";"28"
"11/15/2021 12:00:00 AM";"07:00 - 07:59";"08054";"Weesperplein";"4.90941338";"52.36145933";"23"
"11/15/2021 12:00:00 AM";"07:00 - 07:59";"08057";"Frederiksplein";"4.90024241";"52.35971430";"12"
"11/15/2021 12:00:00 AM";"07:00 - 07:59";"08058";"Veelaan";"4.93961588";"52.36830916";"12"
"11/15/2021 12:00:00 AM";"07:00 - 07:59";"08071";"Muntplein";"4.89312361";"52.36620989";"15"
"11/15/2021 12:00:00 AM";"07:00 - 07:59";"08072";"Vijzelgracht";"4.89159781";"52.35953462";"13"
"11/15/2021 12:00:00 AM";"07:00 - 07:59";"08073";"Vijzelgracht";"4.89227386";"52.35946554";"21"
"11/15/2021 12:00:00 AM";"07:00 - 07:59";"08080";"Spiegelgracht";"4.88691222";"52.36106979";"23"
"11/15/2021 12:00:00 AM";"07:00 - 07:59";"08095";"Alexanderplein";"4.91969863";"52.36341478";"23"
"11/15/2021 12:00:00 AM";"07:00 - 07:59";"08120";"Insulindeweg";"4.94763926";"52.36469021";"18"
"11/15/2021 12:00:00 AM";"07:00 - 07:59";"08121";"Soembawastraat";"4.94391980";"52.36224967";"10"
"11/15/2021 12:00:00 AM";"07:00 - 07:59";"08139";"Zuiderzeeweg";"4.96240105";"52.37166461";"12"
"11/15/2021 12:00:00 AM";"07:00 - 07:59";"08237";"Kattenburgerstraat";"4.92126795";"52.37614755";"12"
"11/15/2021 12:00:00 AM";"07:00 - 07:59";"08238";"Rietlandpark";"4.93350159";"52.37322013";"15"
"11/15/2021 12:00:00 AM";"07:00 - 07:59";"08239";"Rietlandpark";"4.93413567";"52.37296191";"39"
"11/15/2021 12:00:00 AM";"07:00 - 07:59";"08241";"Zuiderzeeweg";"4.96185517";"52.37193228";"15"
"11/15/2021 12:00:00 AM";"07:00 - 07:59";"08245";"Steigereiland";"4.98012952";"52.36313467";"18"
"11/15/2021 12:00:00 AM";"07:00 - 07:59";"08247";"Vennepluimstraat";"4.99057242";"52.35769662";"12"
"11/15/2021 12:00:00 AM";"07:00 - 07:59";"08249";"Diemerparklaan";"4.99499716";"52.35532962";"18"
"11/15/2021 12:00:00 AM";"07:00 - 07:59";"08262";"IJburg";"5.00486802";"52.35112872";"20"
"11/15/2021 12:00:00 AM";"07:00 - 07:59";"08300";"P.Oosterhuisstraat";"5.00693059";"52.35193526";"16"
"11/15/2021 12:00:00 AM";"07:00 - 07:59";"09015";"Amstelstation";"4.91940405";"52.34679531";"12"
"11/15/2021 12:00:00 AM";"07:00 - 07:59";"09023";"Camperstraat";"4.91383551";"52.35840330";"23"
"11/15/2021 12:00:00 AM";"07:00 - 07:59";"09026";"Amstelstation";"4.91874992";"52.34619953";"16"
"11/15/2021 12:00:00 AM";"07:00 - 07:59";"09051";"Victorieplein";"4.90653699";"52.34645615";"10"
"11/15/2021 12:00:00 AM";"07:00 - 07:59";"09095";"Ceintuurbaan";"4.90105673";"52.35506200";"10"
"11/15/2021 12:00:00 AM";"07:00 - 07:59";"09097";"Van Woustraat";"4.90084070";"52.35468363";"11"
"11/15/2021 12:00:00 AM";"07:00 - 07:59";"09102";"Frederiksplein";"4.89904996";"52.35868478";"18"
"11/15/2021 12:00:00 AM";"07:00 - 07:59";"09111";"De Pijp";"4.89073444";"52.35272728";"20"
"11/15/2021 12:00:00 AM";"07:00 - 07:59";"09114";"De Pijp";"4.88948829";"52.35259622";"12"
"11/15/2021 12:00:00 AM";"07:00 - 07:59";"ASA";"Amstelstation";"4.91751426";"52.34647326";"256"
"11/15/2021 12:00:00 AM";"07:00 - 07:59";"ASW";"Amstelveenseweg";"4.85798324";"52.33836671";"356"
"11/15/2021 12:00:00 AM";"07:00 - 07:59";"BLW";"Bullewijk";"4.95233581";"52.30642205";"76"
"11/15/2021 12:00:00 AM";"07:00 - 07:59";"BMR";"Station Bijlmer ArenA";"4.94713474";"52.31193030";"375"
"11/15/2021 12:00:00 AM";"07:00 - 07:59";"CLL";"Station Lelylaan";"4.83426589";"52.35766291";"128"
"11/15/2021 12:00:00 AM";"07:00 - 07:59";"CS";"Centraal Station";"4.90078150";"52.37749421";"731"
"11/15/2021 12:00:00 AM";"07:00 - 07:59";"DMZ";"Station Diemen-Zuid";"4.95713273";"52.33042795";"44"
"11/15/2021 12:00:00 AM";"07:00 - 07:59";"DPP";"De Pijp";"4.89101069";"52.35296212";"125"
"11/15/2021 12:00:00 AM";"07:00 - 07:59";"DVD";"Station Duivendrecht";"4.93678429";"52.32325190";"116"
"11/15/2021 12:00:00 AM";"07:00 - 07:59";"EPP";"Europaplein";"4.89138430";"52.34185482";"164"
"11/15/2021 12:00:00 AM";"07:00 - 07:59";"GN";"Gein";"4.98952268";"52.29627089";"45"
"11/15/2021 12:00:00 AM";"07:00 - 07:59";"GPP";"Gaasperplas";"4.98468551";"52.31080575";"15"
"11/15/2021 12:00:00 AM";"07:00 - 07:59";"GZH";"Station Ganzenhoef";"4.97323379";"52.32331315";"37"
"11/15/2021 12:00:00 AM";"07:00 - 07:59";"HDS";"Heemstedestraat";"4.83421208";"52.35255760";"78"
"11/15/2021 12:00:00 AM";"07:00 - 07:59";"HLD";"Station Holendrecht";"4.96021904";"52.29780451";"382"
"11/15/2021 12:00:00 AM";"07:00 - 07:59";"HVW";"Henk Sneevlietweg";"4.83439318";"52.34626699";"166"
"11/15/2021 12:00:00 AM";"07:00 - 07:59";"ITW";"Isolatorweg";"4.85013475";"52.39523277";"64"
"11/15/2021 12:00:00 AM";"07:00 - 07:59";"JLS";"Jan v.Galenstraat";"4.83492461";"52.37196551";"232"
"11/15/2021 12:00:00 AM";"07:00 - 07:59";"KEN";"Kraaienneststation";"4.97963450";"52.31632492";"24"
"11/15/2021 12:00:00 AM";"07:00 - 07:59";"MDW";"Van der Madeweg";"4.93048657";"52.32945629";"76"
"11/15/2021 12:00:00 AM";"07:00 - 07:59";"ND";"Noord";"4.93123182";"52.40117202";"167"
"11/15/2021 12:00:00 AM";"07:00 - 07:59";"NDP";"Noorderpark";"4.91789115";"52.38855518";"100"
"11/15/2021 12:00:00 AM";"07:00 - 07:59";"NMT";"Nieuwmarkt";"4.90123885";"52.37194169";"73"
"11/15/2021 12:00:00 AM";"07:00 - 07:59";"OAS";"Overamstel";"4.91815361";"52.33179879";"74"
"11/15/2021 12:00:00 AM";"07:00 - 07:59";"PJW";"Postjesweg";"4.83385543";"52.36468044";"45"
"11/15/2021 12:00:00 AM";"07:00 - 07:59";"RAI";"Station RAI";"4.88982004";"52.33739931";"167"
"11/15/2021 12:00:00 AM";"07:00 - 07:59";"RGB";"Reigersbos";"4.97473728";"52.29566301";"66"
"11/15/2021 12:00:00 AM";"07:00 - 07:59";"RKN";"Rokin";"4.89229651";"52.36928023";"205"
"11/15/2021 12:00:00 AM";"07:00 - 07:59";"SLW";"Spaklerweg";"4.92085640";"52.33986250";"86"
"11/15/2021 12:00:00 AM";"07:00 - 07:59";"STD";"Station Sloterdijk";"4.83878389";"52.38880848";"268"
"11/15/2021 12:00:00 AM";"07:00 - 07:59";"SVT";"Strandvliet";"4.94152820";"52.31825469";"50"
"11/15/2021 12:00:00 AM";"07:00 - 07:59";"VLN";"Burg.de Vlugtlaan";"4.83809109";"52.37951196";"45"
"11/15/2021 12:00:00 AM";"07:00 - 07:59";"VPD";"Venserpolder";"4.94665009";"52.32679428";"34"
"11/15/2021 12:00:00 AM";"07:00 - 07:59";"VSW";"Verrijn Stuartweg";"4.96693669";"52.32844093";"39"
"11/15/2021 12:00:00 AM";"07:00 - 07:59";"VZG";"Vijzelgracht";"4.89072870";"52.35980061";"119"
"11/15/2021 12:00:00 AM";"07:00 - 07:59";"WBS";"Wibautstraat";"4.91202993";"52.35428867";"249"
"11/15/2021 12:00:00 AM";"07:00 - 07:59";"WLP";"Waterlooplein";"4.90298171";"52.36697862";"122"
"11/15/2021 12:00:00 AM";"07:00 - 07:59";"WPP";"Weesperplein";"4.90787469";"52.36120146";"271"
"11/15/2021 12:00:00 AM";"07:00 - 07:59";"WTC";"Station Zuid";"4.87509853";"52.33908015";"683"
"11/15/2021 12:00:00 AM";"08:00 - 08:59";"";"Overig";"";"";"2140"
"11/15/2021 12:00:00 AM";"08:00 - 08:59";"[[ Onb";"[[ Onbekend ]]";"0.00000000";"0.00000000";"742"
"11/15/2021 12:00:00 AM";"08:00 - 08:59";"00001";"Muiderpoortstation";"4.93287450";"52.36132700";"20"
"11/15/2021 12:00:00 AM";"08:00 - 08:59";"00005";"Muiderpoortstation";"4.93280219";"52.36121887";"75"
"11/15/2021 12:00:00 AM";"08:00 - 08:59";"00006";"Muiderpoortstation";"4.93368466";"52.36106048";"21"
"11/15/2021 12:00:00 AM";"08:00 - 08:59";"00007";"Muiderpoortstation";"4.93356602";"52.36117686";"33"
"11/15/2021 12:00:00 AM";"08:00 - 08:59";"00008";"Dapperstraat";"4.92977913";"52.36110836";"41"
"11/15/2021 12:00:00 AM";"08:00 - 08:59";"00010";"Dapperstraat";"4.92891486";"52.36092527";"22"
"11/15/2021 12:00:00 AM";"08:00 - 08:59";"00017";"Linnaeusstraat";"4.92573745";"52.36013099";"23"
"11/15/2021 12:00:00 AM";"08:00 - 08:59";"00018";"Diemerknoop";"5.00286153";"52.33537576";"14"
"11/15/2021 12:00:00 AM";"08:00 - 08:59";"00019";"Diemerknoop";"5.00296377";"52.33543002";"13"
"11/15/2021 12:00:00 AM";"08:00 - 08:59";"00020";"Beukenweg";"4.91674979";"52.35906203";"30"
"11/15/2021 12:00:00 AM";"08:00 - 08:59";"00021";"Beukenweg";"4.91721293";"52.35829991";"63"
"11/15/2021 12:00:00 AM";"08:00 - 08:59";"00023";"Beukenplein";"4.91809259";"52.35701816";"41"
"11/15/2021 12:00:00 AM";"08:00 - 08:59";"00029";"Oostpoort";"4.92719316";"52.35707185";"130"
"11/15/2021 12:00:00 AM";"08:00 - 08:59";"00030";"Oostpoort";"4.92694026";"52.35739442";"79"
"11/15/2021 12:00:00 AM";"08:00 - 08:59";"00039";"Hogeweg";"4.93084015";"52.35358075";"21"
"11/15/2021 12:00:00 AM";"08:00 - 08:59";"00053";"Kruislaan";"4.93967974";"52.34742196";"19"
"11/15/2021 12:00:00 AM";"08:00 - 08:59";"00059";"Radioweg";"4.93945830";"52.35337100";"33"
"11/15/2021 12:00:00 AM";"08:00 - 08:59";"00060";"Radioweg";"4.93979325";"52.35363291";"24"
"11/15/2021 12:00:00 AM";"08:00 - 08:59";"00065";"Hugo de Vrieslaan";"4.93487340";"52.35101676";"11"
"11/15/2021 12:00:00 AM";"08:00 - 08:59";"00070";"Kruislaan";"4.93993910";"52.34789929";"23"
"11/15/2021 12:00:00 AM";"08:00 - 08:59";"00114";"Dennenrode";"4.95213839";"52.32209601";"15"
"11/15/2021 12:00:00 AM";"08:00 - 08:59";"00116";"Station Ganzenhoef";"4.97272915";"52.32237665";"17"
"11/15/2021 12:00:00 AM";"08:00 - 08:59";"00126";"Grubbehoeve";"4.97626815";"52.32352145";"12"
"11/15/2021 12:00:00 AM";"08:00 - 08:59";"00129";"Geerdinkhof";"4.98025676";"52.32364309";"13"
"11/15/2021 12:00:00 AM";"08:00 - 08:59";"00134";"Koornhorst";"4.98400929";"52.31907218";"34"
"11/15/2021 12:00:00 AM";"08:00 - 08:59";"00135";"Koornhorst";"4.98396309";"52.31931470";"18"
"11/15/2021 12:00:00 AM";"08:00 - 08:59";"00141";"Kraaienneststation";"4.97868390";"52.31603403";"18"
"11/15/2021 12:00:00 AM";"08:00 - 08:59";"00144";"Kikkenstein";"4.97237050";"52.31680298";"15"
"11/15/2021 12:00:00 AM";"08:00 - 08:59";"00145";"Kikkenstein";"4.97271326";"52.31621998";"12"
"11/15/2021 12:00:00 AM";"08:00 - 08:59";"00146";"Gooioord";"4.96906535";"52.32048532";"12"
"11/15/2021 12:00:00 AM";"08:00 - 08:59";"00150";"Tulastraat";"4.96535973";"52.31994189";"116"
"11/15/2021 12:00:00 AM";"08:00 - 08:59";"00151";"Tulastraat";"4.96584458";"52.31985374";"104"
"11/15/2021 12:00:00 AM";"08:00 - 08:59";"00152";"Florijn";"4.95859163";"52.31758973";"19"
"11/15/2021 12:00:00 AM";"08:00 - 08:59";"00157";"Dolingadreef";"4.94847023";"52.31925132";"25"
"11/15/2021 12:00:00 AM";"08:00 - 08:59";"00158";"Dolingadreef";"4.94901581";"52.31895674";"41"
"11/15/2021 12:00:00 AM";"08:00 - 08:59";"00167";"Hogevecht";"4.95956435";"52.30947729";"18"
"11/15/2021 12:00:00 AM";"08:00 - 08:59";"00172";"Holendrechtplein";"4.96402882";"52.29952588";"19"
"11/15/2021 12:00:00 AM";"08:00 - 08:59";"00179";"Kelbergen";"4.97179997";"52.31351146";"21"
"11/15/2021 12:00:00 AM";"08:00 - 08:59";"00180";"Kelbergen";"4.97143303";"52.31354612";"12"
"11/15/2021 12:00:00 AM";"08:00 - 08:59";"00197";"Annie Romeinplein";"4.97162041";"52.32173463";"15"
"11/15/2021 12:00:00 AM";"08:00 - 08:59";"00199";"Station Ganzenhoef";"4.97329456";"52.32308866";"10"
"11/15/2021 12:00:00 AM";"08:00 - 08:59";"00205";"Station Holendrecht";"4.95865657";"52.29716971";"31"
"11/15/2021 12:00:00 AM";"08:00 - 08:59";"00238";"Anton de Komplein";"4.95413359";"52.31603659";"57"
"11/15/2021 12:00:00 AM";"08:00 - 08:59";"00239";"Anton de Komplein";"4.95597669";"52.31652866";"33"
"11/15/2021 12:00:00 AM";"08:00 - 08:59";"00306";"Leusdenhof";"4.97837367";"52.30990330";"18"
"11/15/2021 12:00:00 AM";"08:00 - 08:59";"00330";"Middenweg";"4.93455629";"52.35044932";"13"
"11/15/2021 12:00:00 AM";"08:00 - 08:59";"00331";"Station Reigersbos";"4.97350466";"52.29737537";"31"
"11/15/2021 12:00:00 AM";"08:00 - 08:59";"00341";"Woudrichemstraat";"4.98882309";"52.29418337";"21"
"11/15/2021 12:00:00 AM";"08:00 - 08:59";"00351";"Dostojevskisingel";"4.94525272";"52.32275356";"45"
"11/15/2021 12:00:00 AM";"08:00 - 08:59";"00352";"Dostojevskisingel";"4.94457408";"52.32314649";"12"
"11/15/2021 12:00:00 AM";"08:00 - 08:59";"00432";"Diemerbrug";"4.96142958";"52.33824484";"10"
"11/15/2021 12:00:00 AM";"08:00 - 08:59";"00434";"Bijlmerplein";"4.95032022";"52.31457553";"11"
"11/15/2021 12:00:00 AM";"08:00 - 08:59";"00441";"Muiderpoortstation";"4.93254137";"52.36088532";"24"
"11/15/2021 12:00:00 AM";"08:00 - 08:59";"00444";"Linnaeusstraat";"4.92490296";"52.35991203";"59"
"11/15/2021 12:00:00 AM";"08:00 - 08:59";"00453";"Diemen Sniep";"4.96964866";"52.33644962";"16"
"11/15/2021 12:00:00 AM";"08:00 - 08:59";"00497";"Science Park Aqua";"4.95413917";"52.35608598";"12"
"11/15/2021 12:00:00 AM";"08:00 - 08:59";"00506";"Science Park Terra";"4.95831008";"52.35434856";"119"
"11/15/2021 12:00:00 AM";"08:00 - 08:59";"00515";"Station Duivendrecht";"4.93669692";"52.32318866";"12"
"11/15/2021 12:00:00 AM";"08:00 - 08:59";"00518";"Foppingadreef";"4.94967889";"52.31268573";"23"
"11/15/2021 12:00:00 AM";"08:00 - 08:59";"00537";"Linnaeusparkweg";"4.94275809";"52.34924908";"11"
"11/15/2021 12:00:00 AM";"08:00 - 08:59";"00538";"Station Science Park";"4.94808393";"52.35239669";"51"
"11/15/2021 12:00:00 AM";"08:00 - 08:59";"00554";"Science Park";"4.95088162";"52.35447420";"12"
"11/15/2021 12:00:00 AM";"08:00 - 08:59";"00560";"Station Bijlmer ArenA";"4.94747867";"52.31125750";"66"
"11/15/2021 12:00:00 AM";"08:00 - 08:59";"00561";"Station Bijlmer ArenA";"4.94741931";"52.31132918";"80"
"11/15/2021 12:00:00 AM";"08:00 - 08:59";"00562";"Station Bijlmer ArenA";"4.94736012";"52.31138289";"38"
"11/15/2021 12:00:00 AM";"08:00 - 08:59";"00568";"Station Bijlmer ArenA";"4.94762664";"52.31112323";"22"
"11/15/2021 12:00:00 AM";"08:00 - 08:59";"00601";"Van Houtenlaan";"5.03711994";"52.30381828";"11"
"11/15/2021 12:00:00 AM";"08:00 - 08:59";"00603";"V. Houten Ind.park";"5.03580865";"52.30648376";"22"
"11/15/2021 12:00:00 AM";"08:00 - 08:59";"00651";"Casparuslaan";"5.03531862";"52.30911571";"14"
"11/15/2021 12:00:00 AM";"08:00 - 08:59";"00665";"Station Weesp";"5.04383463";"52.31145059";"12"
"11/15/2021 12:00:00 AM";"08:00 - 08:59";"00985";"Winkelcentrum";"4.96422695";"52.34186794";"16"
"11/15/2021 12:00:00 AM";"08:00 - 08:59";"00999";"Vinkenbrug";"4.97831599";"52.33370267";"11"
"11/15/2021 12:00:00 AM";"08:00 - 08:59";"01007";"Purmerweg";"4.94871052";"52.38999448";"10"
"11/15/2021 12:00:00 AM";"08:00 - 08:59";"01076";"Waterlandplein";"4.95247364";"52.39274059";"20"
"11/15/2021 12:00:00 AM";"08:00 - 08:59";"01078";"Dijkmanshuizenstraat";"4.95475323";"52.39549915";"12"
"11/15/2021 12:00:00 AM";"08:00 - 08:59";"01091";"Beemsterstraat";"4.95105959";"52.39759770";"19"
"11/15/2021 12:00:00 AM";"08:00 - 08:59";"01092";"Th. Weeversweg";"4.94438255";"52.39825599";"11"
"11/15/2021 12:00:00 AM";"08:00 - 08:59";"01110";"Rode Kruisstraat";"4.92847908";"52.39455548";"90"
"11/15/2021 12:00:00 AM";"08:00 - 08:59";"01111";"Rode Kruisstraat";"4.92881363";"52.39488033";"149"
"11/15/2021 12:00:00 AM";"08:00 - 08:59";"01116";"Merelstraat";"4.92492850";"52.38986809";"46"
"11/15/2021 12:00:00 AM";"08:00 - 08:59";"01117";"Merelstraat";"4.92505977";"52.38995848";"57"
"11/15/2021 12:00:00 AM";"08:00 - 08:59";"01133";"Grasweg";"4.90487021";"52.38909605";"10"
"11/15/2021 12:00:00 AM";"08:00 - 08:59";"01155";"Mosplein";"4.91358361";"52.39300490";"10"
"11/15/2021 12:00:00 AM";"08:00 - 08:59";"01167";"Tjalkstraat";"4.91007632";"52.40492643";"10"
"11/15/2021 12:00:00 AM";"08:00 - 08:59";"01168";"Tjalkstraat";"4.91116991";"52.40572174";"11"
"11/15/2021 12:00:00 AM";"08:00 - 08:59";"01189";"Pinksterbloemstraat";"4.91221693";"52.39852684";"25"
"11/15/2021 12:00:00 AM";"08:00 - 08:59";"01191";"Pinksterbloemstraat";"4.91203754";"52.39881372";"13"
"11/15/2021 12:00:00 AM";"08:00 - 08:59";"01212";"Oostzanerdijk";"4.88149588";"52.42023965";"61"
"11/15/2021 12:00:00 AM";"08:00 - 08:59";"01237";"Beemsterstraat";"4.95210741";"52.39712521";"41"
"11/15/2021 12:00:00 AM";"08:00 - 08:59";"01278";"Statenjachtstraat";"4.91380643";"52.40790731";"10"
"11/15/2021 12:00:00 AM";"08:00 - 08:59";"01305";"Station Noord";"4.93215715";"52.40264056";"26"
"11/15/2021 12:00:00 AM";"08:00 - 08:59";"01316";"Station Noord";"4.93336820";"52.40204304";"53"
"11/15/2021 12:00:00 AM";"08:00 - 08:59";"01347";"Nageljongenstraat";"4.89978361";"52.40815603";"13"
"11/15/2021 12:00:00 AM";"08:00 - 08:59";"01352";"Oosterlengte";"4.92206974";"52.40611555";"23"
"11/15/2021 12:00:00 AM";"08:00 - 08:59";"01359";"Molenwijk";"4.89361832";"52.41807082";"13"
"11/15/2021 12:00:00 AM";"08:00 - 08:59";"01362";"Molenwijk";"4.89364883";"52.41797209";"10"
"11/15/2021 12:00:00 AM";"08:00 - 08:59";"01363";"Buikslotermeerplein";"4.93968364";"52.39943369";"16"
"11/15/2021 12:00:00 AM";"08:00 - 08:59";"01364";"Buikslotermeerplein";"4.93887054";"52.39992493";"14"
"11/15/2021 12:00:00 AM";"08:00 - 08:59";"01365";"Atat?rk";"4.89794256";"52.40319625";"24"
"11/15/2021 12:00:00 AM";"08:00 - 08:59";"01369";"Pomonastraat";"4.89546974";"52.40886620";"16"
"11/15/2021 12:00:00 AM";"08:00 - 08:59";"01402";"Floraweg";"4.90614362";"52.39899665";"33"
"11/15/2021 12:00:00 AM";"08:00 - 08:59";"01403";"Distelweg";"4.90268094";"52.39451567";"11"
"11/15/2021 12:00:00 AM";"08:00 - 08:59";"01407";"Floraweg";"4.90766473";"52.39828381";"13"
"11/15/2021 12:00:00 AM";"08:00 - 08:59";"01414";"Olof Palmeplein";"4.94012168";"52.39679298";"14"
"11/15/2021 12:00:00 AM";"08:00 - 08:59";"01422";"Noorderpark";"4.91956087";"52.38902016";"56"
"11/15/2021 12:00:00 AM";"08:00 - 08:59";"01423";"Noorderpark";"4.91921998";"52.38930641";"17"
"11/15/2021 12:00:00 AM";"08:00 - 08:59";"01443";"Volendammerweg";"4.95697086";"52.39255928";"14"
"11/15/2021 12:00:00 AM";"08:00 - 08:59";"02010";"Koivistokade";"4.87631267";"52.39805387";"175"
"11/15/2021 12:00:00 AM";"08:00 - 08:59";"02064";"Kabelweg";"4.84827817";"52.39205168";"28"
"11/15/2021 12:00:00 AM";"08:00 - 08:59";"02066";"La Guardiaweg";"4.84008244";"52.39190625";"19"
"11/15/2021 12:00:00 AM";"08:00 - 08:59";"02089";"Vredenhof";"4.86238820";"52.38527541";"13"
"11/15/2021 12:00:00 AM";"08:00 - 08:59";"02094";"Zaanstraat";"4.87012818";"52.39291304";"12"
"11/15/2021 12:00:00 AM";"08:00 - 08:59";"02099";"Zaanstraat";"4.86990824";"52.39287613";"20"
"11/15/2021 12:00:00 AM";"08:00 - 08:59";"02103";"Spaarndammerstraat";"4.87765867";"52.39216375";"29"
"11/15/2021 12:00:00 AM";"08:00 - 08:59";"02106";"Assendelftstraat";"4.87943840";"52.38941217";"14"
"11/15/2021 12:00:00 AM";"08:00 - 08:59";"02113";"Haarlemmerplein";"4.88371739";"52.38516129";"20"
"11/15/2021 12:00:00 AM";"08:00 - 08:59";"02114";"Haarlemmerplein";"4.88341252";"52.38484542";"41"
"11/15/2021 12:00:00 AM";"08:00 - 08:59";"02132";"Fred. Hendrikplants.";"4.87543499";"52.37862768";"19"
"11/15/2021 12:00:00 AM";"08:00 - 08:59";"02142";"V.d. Hoopstraat";"4.87031312";"52.38335094";"15"
"11/15/2021 12:00:00 AM";"08:00 - 08:59";"02151";"De Wittenkade";"4.87695310";"52.38326290";"11"
"11/15/2021 12:00:00 AM";"08:00 - 08:59";"02155";"Willem de Zwijgerlaan";"4.86360306";"52.37071170";"20"
"11/15/2021 12:00:00 AM";"08:00 - 08:59";"02156";"Willem de Zwijgerlaan";"4.86425293";"52.37039101";"32"
"11/15/2021 12:00:00 AM";"08:00 - 08:59";"02157";"Adm. de Ruijterweg";"4.86009910";"52.37148707";"27"
"11/15/2021 12:00:00 AM";"08:00 - 08:59";"02158";"Adm. de Ruijterweg";"4.86096776";"52.37129320";"17"
"11/15/2021 12:00:00 AM";"08:00 - 08:59";"02168";"Haparandaweg";"4.87311908";"52.39470562";"51"
"11/15/2021 12:00:00 AM";"08:00 - 08:59";"02170";"Spaarndammerstraat";"4.87723089";"52.39231470";"32"
"11/15/2021 12:00:00 AM";"08:00 - 08:59";"02177";"Bos en Lommerweg";"4.85521256";"52.38101018";"13"
"11/15/2021 12:00:00 AM";"08:00 - 08:59";"02182";"Markthallen";"4.86695146";"52.37567869";"44"
"11/15/2021 12:00:00 AM";"08:00 - 08:59";"02183";"Markthallen";"4.86667150";"52.37575835";"25"
"11/15/2021 12:00:00 AM";"08:00 - 08:59";"02193";"Marnixplein";"4.87844490";"52.37741832";"12"
"11/15/2021 12:00:00 AM";"08:00 - 08:59";"02201";"Abberdaan";"4.78087947";"52.39180671";"10"
"11/15/2021 12:00:00 AM";"08:00 - 08:59";"02222";"Jan van Galenstraat";"4.85874763";"52.37399761";"15"
"11/15/2021 12:00:00 AM";"08:00 - 08:59";"02252";"Zekeringstraat";"4.84719064";"52.39690907";"17"
"11/15/2021 12:00:00 AM";"08:00 - 08:59";"02259";"Contactweg";"4.85657970";"52.39195435";"35"
"11/15/2021 12:00:00 AM";"08:00 - 08:59";"02260";"Contactweg";"4.85432952";"52.39215995";"33"
"11/15/2021 12:00:00 AM";"08:00 - 08:59";"02283";"Dynamostraat";"4.84825619";"52.39869349";"10"
"11/15/2021 12:00:00 AM";"08:00 - 08:59";"02284";"Dynamostraat";"4.84797845";"52.39857539";"10"
"11/15/2021 12:00:00 AM";"08:00 - 08:59";"02301";"Fred. Hendrikplants.";"4.87521585";"52.37852787";"38"
"11/15/2021 12:00:00 AM";"08:00 - 08:59";"02302";"Fred. Hendrikplants.";"4.87549415";"52.37859198";"26"
"11/15/2021 12:00:00 AM";"08:00 - 08:59";"02309";"Plesostraat";"4.82645527";"52.38795084";"19"
"11/15/2021 12:00:00 AM";"08:00 - 08:59";"02310";"Plesostraat";"4.82849791";"52.38788859";"22"
"11/15/2021 12:00:00 AM";"08:00 - 08:59";"02311";"Seineweg";"4.81857317";"52.38632242";"18"
"11/15/2021 12:00:00 AM";"08:00 - 08:59";"02319";"Solebaystraat";"4.85540788";"52.38431853";"13"
"11/15/2021 12:00:00 AM";"08:00 - 08:59";"02321";"Van Hallstraat";"4.86864429";"52.38538386";"36"
"11/15/2021 12:00:00 AM";"08:00 - 08:59";"02333";"Herwijk";"4.78729047";"52.39572206";"16"
"11/15/2021 12:00:00 AM";"08:00 - 08:59";"02361";"Station Sloterdijk";"4.83931858";"52.38833460";"101"
"11/15/2021 12:00:00 AM";"08:00 - 08:59";"02365";"Station Sloterdijk";"4.83873236";"52.38822404";"47"
"11/15/2021 12:00:00 AM";"08:00 - 08:59";"02366";"Station Sloterdijk";"4.83873347";"52.38813416";"57"
"11/15/2021 12:00:00 AM";"08:00 - 08:59";"02367";"Station Sloterdijk";"4.83876429";"52.38801747";"27"
"11/15/2021 12:00:00 AM";"08:00 - 08:59";"02368";"Station Sloterdijk";"4.83877999";"52.38793665";"14"
"11/15/2021 12:00:00 AM";"08:00 - 08:59";"02370";"Station Sloterdijk";"4.83879745";"52.38771204";"14"
"11/15/2021 12:00:00 AM";"08:00 - 08:59";"02378";"Station Sloterdijk";"4.83809796";"52.38844579";"87"
"11/15/2021 12:00:00 AM";"08:00 - 08:59";"03009";"Witte de Withstraat";"4.85851970";"52.36478416";"42"
"11/15/2021 12:00:00 AM";"08:00 - 08:59";"03010";"Witte de Withstraat";"4.85928290";"52.36480554";"60"
"11/15/2021 12:00:00 AM";"08:00 - 08:59";"03022";"Mercatorplein";"4.85070310";"52.37012367";"13"
"11/15/2021 12:00:00 AM";"08:00 - 08:59";"03023";"Marco Polostraat";"4.85520189";"52.37088096";"31"
"11/15/2021 12:00:00 AM";"08:00 - 08:59";"03024";"Marco Polostraat";"4.85546532";"52.37095405";"17"
"11/15/2021 12:00:00 AM";"08:00 - 08:59";"03025";"Jan v.Galenstraat";"4.84854861";"52.37342137";"16"
"11/15/2021 12:00:00 AM";"08:00 - 08:59";"03028";"Jan van Galenstraat";"4.84921138";"52.37204926";"11"
"11/15/2021 12:00:00 AM";"08:00 - 08:59";"03034";"Erasmusgracht";"4.84691117";"52.37644278";"21"
"11/15/2021 12:00:00 AM";"08:00 - 08:59";"03052";"Burg. Eliasstraat";"4.82565009";"52.38077481";"36"
"11/15/2021 12:00:00 AM";"08:00 - 08:59";"03055";"Burg. Fockstraat";"4.83108040";"52.37991964";"17"
"11/15/2021 12:00:00 AM";"08:00 - 08:59";"03060";"Bos en Lommerplein";"4.84718407";"52.37815169";"12"
"11/15/2021 12:00:00 AM";"08:00 - 08:59";"03061";"Bos en Lommerplein";"4.84523530";"52.37778328";"61"
"11/15/2021 12:00:00 AM";"08:00 - 08:59";"03076";"Jan Tooropstraat";"4.83810313";"52.37142305";"59"
"11/15/2021 12:00:00 AM";"08:00 - 08:59";"03077";"Jan Tooropstraat";"4.83817288";"52.37171997";"32"
"11/15/2021 12:00:00 AM";"08:00 - 08:59";"03087";"Plein '40 - '45";"4.82063128";"52.38159575";"39"
"11/15/2021 12:00:00 AM";"08:00 - 08:59";"03090";"Slotermeerlaan";"4.81728149";"52.37596234";"13"
"11/15/2021 12:00:00 AM";"08:00 - 08:59";"03097";"Burg. v. Leeuwenlaan";"4.81182601";"52.37651117";"16"
"11/15/2021 12:00:00 AM";"08:00 - 08:59";"03101";"Lambertus Zijlplein";"4.80300456";"52.37726788";"11"
"11/15/2021 12:00:00 AM";"08:00 - 08:59";"03117";"Sam van Houtenstraat";"4.79790430";"52.37868964";"12"
"11/15/2021 12:00:00 AM";"08:00 - 08:59";"03121";"Aalbersestraat";"4.79774249";"52.38202329";"20"
"11/15/2021 12:00:00 AM";"08:00 - 08:59";"03129";"Plein '40 - '45";"4.82112672";"52.38075328";"53"
"11/15/2021 12:00:00 AM";"08:00 - 08:59";"03132";"Burg. R?ellstraat";"4.81950345";"52.37676393";"40"
"11/15/2021 12:00:00 AM";"08:00 - 08:59";"03135";"Ookmeerweg";"4.80431836";"52.36558127";"92"
"11/15/2021 12:00:00 AM";"08:00 - 08:59";"03136";"Ookmeerweg";"4.80419536";"52.36600309";"15"
"11/15/2021 12:00:00 AM";"08:00 - 08:59";"03145";"J. Cabeliaustraat";"4.80409638";"52.38246819";"15"
"11/15/2021 12:00:00 AM";"08:00 - 08:59";"03150";"Mercatorplein";"4.85011339";"52.37031872";"22"
"11/15/2021 12:00:00 AM";"08:00 - 08:59";"03167";"Bos en Lommerplein";"4.84650668";"52.37709704";"52"
"11/15/2021 12:00:00 AM";"08:00 - 08:59";"03168";"Mercatorplein";"4.85152392";"52.37024423";"26"
"11/15/2021 12:00:00 AM";"08:00 - 08:59";"03169";"Jan v.Galenstraat";"4.83601291";"52.37301316";"46"
"11/15/2021 12:00:00 AM";"08:00 - 08:59";"03170";"Jan v.Galenstraat";"4.83495277";"52.37324190";"11"
"11/15/2021 12:00:00 AM";"08:00 - 08:59";"03171";"Burg. Rendorpstraat";"4.82768433";"52.37436719";"39"
"11/15/2021 12:00:00 AM";"08:00 - 08:59";"03172";"Burg. Rendorpstraat";"4.82691962";"52.37445346";"39"
"11/15/2021 12:00:00 AM";"08:00 - 08:59";"03174";"Burg. R?ellstraat";"4.81863325";"52.37476448";"20"
"11/15/2021 12:00:00 AM";"08:00 - 08:59";"03178";"Mercatorplein";"4.84991664";"52.37080317";"12"
"11/15/2021 12:00:00 AM";"08:00 - 08:59";"03179";"Adm. Helfrichstraat";"4.84386882";"52.36944538";"17"
"11/15/2021 12:00:00 AM";"08:00 - 08:59";"03180";"Adm. Helfrichstraat";"4.84458860";"52.36942172";"18"
"11/15/2021 12:00:00 AM";"08:00 - 08:59";"03181";"Jan Voermanstraat";"4.83788946";"52.36970540";"44"
"11/15/2021 12:00:00 AM";"08:00 - 08:59";"03182";"Jan Voermanstraat";"4.83852226";"52.36959149";"17"
"11/15/2021 12:00:00 AM";"08:00 - 08:59";"03197";"W. Schoutenstraat";"4.85238084";"52.36737202";"12"
"11/15/2021 12:00:00 AM";"08:00 - 08:59";"03198";"W. Schoutenstraat";"4.85259061";"52.36702245";"18"
"11/15/2021 12:00:00 AM";"08:00 - 08:59";"04008";"Dijkgraafplein";"4.78646982";"52.35545267";"12"
"11/15/2021 12:00:00 AM";"08:00 - 08:59";"04009";"Dijkgraafplein";"4.78689401";"52.35556268";"10"
"11/15/2021 12:00:00 AM";"08:00 - 08:59";"04012";"Baden Powellweg";"4.79137362";"52.35646612";"23"
"11/15/2021 12:00:00 AM";"08:00 - 08:59";"04016";"Hoekenes";"4.79854723";"52.35791310";"14"
"11/15/2021 12:00:00 AM";"08:00 - 08:59";"04021";"Osdorpplein West";"4.80322869";"52.35913166";"37"
"11/15/2021 12:00:00 AM";"08:00 - 08:59";"04050";"Meer en Vaart";"4.80994403";"52.35636940";"38"
"11/15/2021 12:00:00 AM";"08:00 - 08:59";"04058";"Hemsterhuisstraat";"4.82182840";"52.35912309";"10"
"11/15/2021 12:00:00 AM";"08:00 - 08:59";"04060";"Derkinderenstraat";"4.83972293";"52.35796689";"33"
"11/15/2021 12:00:00 AM";"08:00 - 08:59";"04061";"Derkinderenstraat";"4.84014895";"52.35794190";"28"
"11/15/2021 12:00:00 AM";"08:00 - 08:59";"04062";"Johan Huizingalaan";"4.82582327";"52.35781191";"16"
"11/15/2021 12:00:00 AM";"08:00 - 08:59";"04063";"Johan Huizingalaan";"4.82626398";"52.35778704";"35"
"11/15/2021 12:00:00 AM";"08:00 - 08:59";"04064";"Osdorpplein Oost";"4.80806527";"52.35860717";"31"
"11/15/2021 12:00:00 AM";"08:00 - 08:59";"04065";"Osdorpplein Oost";"4.80773259";"52.35935153";"35"
"11/15/2021 12:00:00 AM";"08:00 - 08:59";"04088";"Louwesweg";"4.82436420";"52.34669608";"27"
"11/15/2021 12:00:00 AM";"08:00 - 08:59";"04096";"Ottho Heldringstraat";"4.83379801";"52.34692032";"11"
"11/15/2021 12:00:00 AM";"08:00 - 08:59";"04111";"Delflandlaan";"4.84191575";"52.35154177";"10"
"11/15/2021 12:00:00 AM";"08:00 - 08:59";"04112";"Johan Huizingalaan";"4.82742878";"52.34923618";"29"
"11/15/2021 12:00:00 AM";"08:00 - 08:59";"04123";"Station Lelylaan";"4.83455700";"52.35668460";"16"
"11/15/2021 12:00:00 AM";"08:00 - 08:59";"04129";"Derkinderenstraat";"4.83926482";"52.36415734";"17"
"11/15/2021 12:00:00 AM";"08:00 - 08:59";"04133";"Robert Fruinlaan";"4.82910660";"52.36403799";"29"
"11/15/2021 12:00:00 AM";"08:00 - 08:59";"04136";"Justus Lipsiusstraat";"4.82704776";"52.36081963";"16"
"11/15/2021 12:00:00 AM";"08:00 - 08:59";"04140";"Sierplein";"4.82732630";"52.35503282";"12"
"11/15/2021 12:00:00 AM";"08:00 - 08:59";"04148";"Louis Davidsstraat";"4.80952552";"52.35356316";"70"
"11/15/2021 12:00:00 AM";"08:00 - 08:59";"04195";"Station Lelylaan";"4.83460082";"52.35788018";"146"
"11/15/2021 12:00:00 AM";"08:00 - 08:59";"04196";"Station Lelylaan";"4.83382251";"52.35790351";"137"
"11/15/2021 12:00:00 AM";"08:00 - 08:59";"04274";"Schiphol Airport/Plaza";"4.76104997";"52.30939292";"20"
"11/15/2021 12:00:00 AM";"08:00 - 08:59";"04277";"Laan v.Vlaanderen";"4.81642720";"52.34648730";"10"
"11/15/2021 12:00:00 AM";"08:00 - 08:59";"04279";"Centrum Nieuw Sloten";"4.81104244";"52.34638930";"13"
"11/15/2021 12:00:00 AM";"08:00 - 08:59";"04379";"Knooppunt Schiphol Nrd";"4.79320459";"52.32276196";"52"
"11/15/2021 12:00:00 AM";"08:00 - 08:59";"04401";"Matterhorn";"4.77438097";"52.35391670";"10"
"11/15/2021 12:00:00 AM";"08:00 - 08:59";"04402";"Matterhorn";"4.77477998";"52.35372103";"32"
"11/15/2021 12:00:00 AM";"08:00 - 08:59";"04403";"Pilatus";"4.77696371";"52.35289644";"13"
"11/15/2021 12:00:00 AM";"08:00 - 08:59";"04407";"Ecuplein";"4.78817670";"52.34970912";"19"
"11/15/2021 12:00:00 AM";"08:00 - 08:59";"04409";"Baden Powellweg";"4.79441281";"52.35092691";"61"
"11/15/2021 12:00:00 AM";"08:00 - 08:59";"04411";"Hoekenes";"4.80183430";"52.35243785";"24"
"11/15/2021 12:00:00 AM";"08:00 - 08:59";"04413";"Louis Davidsstraat";"4.80850916";"52.35383682";"74"
"11/15/2021 12:00:00 AM";"08:00 - 08:59";"04414";"Louis Davidsstraat";"4.80910976";"52.35392963";"22"
"11/15/2021 12:00:00 AM";"08:00 - 08:59";"05011";"Centraal Station";"4.89921803";"52.37810793";"281"
"11/15/2021 12:00:00 AM";"08:00 - 08:59";"05022";"Centraal Station";"4.90104337";"52.37771998";"156"
"11/15/2021 12:00:00 AM";"08:00 - 08:59";"05036";"Rokin";"4.89230478";"52.36985548";"14"
"11/15/2021 12:00:00 AM";"08:00 - 08:59";"05046";"Rembrandtplein";"4.89627976";"52.36625897";"17"
"11/15/2021 12:00:00 AM";"08:00 - 08:59";"05053";"Waterlooplein";"4.90195418";"52.36695644";"13"
"11/15/2021 12:00:00 AM";"08:00 - 08:59";"05060";"Koningsplein";"4.88894752";"52.36807981";"25"
"11/15/2021 12:00:00 AM";"08:00 - 08:59";"05064";"Koningsplein";"4.88949610";"52.36760577";"97"
"11/15/2021 12:00:00 AM";"08:00 - 08:59";"05065";"Dam";"4.89079364";"52.37367792";"79"
"11/15/2021 12:00:00 AM";"08:00 - 08:59";"05066";"Dam";"4.89027056";"52.37318140";"94"
"11/15/2021 12:00:00 AM";"08:00 - 08:59";"05067";"Dam";"4.89118479";"52.37415591";"18"
"11/15/2021 12:00:00 AM";"08:00 - 08:59";"05069";"Nieuwezijds Kolk";"4.89373093";"52.37628765";"58"
"11/15/2021 12:00:00 AM";"08:00 - 08:59";"05070";"Nieuwezijds Kolk";"4.89284106";"52.37575366";"15"
"11/15/2021 12:00:00 AM";"08:00 - 08:59";"05073";"Westermarkt";"4.88453426";"52.37400204";"44"
"11/15/2021 12:00:00 AM";"08:00 - 08:59";"05074";"Westermarkt";"4.88354950";"52.37407874";"110"
"11/15/2021 12:00:00 AM";"08:00 - 08:59";"05077";"Marnixstraat";"4.87615428";"52.37228546";"26"
"11/15/2021 12:00:00 AM";"08:00 - 08:59";"05080";"Buiten Oranjestraat";"4.88782167";"52.38330923";"26"
"11/15/2021 12:00:00 AM";"08:00 - 08:59";"05081";"Buiten Brouwersstraat";"4.89157253";"52.38150947";"14"
"11/15/2021 12:00:00 AM";"08:00 - 08:59";"05082";"Buiten Brouwersstraat";"4.89129168";"52.38167008";"18"
"11/15/2021 12:00:00 AM";"08:00 - 08:59";"05090";"Westerdoksdijk";"4.89331977";"52.38551629";"23"
"11/15/2021 12:00:00 AM";"08:00 - 08:59";"05092";"Barentszplein";"4.89160204";"52.38938281";"20"
"11/15/2021 12:00:00 AM";"08:00 - 08:59";"05097";"Centraal Station";"4.90087651";"52.37954379";"101"
"11/15/2021 12:00:00 AM";"08:00 - 08:59";"05101";"Centraal Station";"4.90105195";"52.37961641";"35"
"11/15/2021 12:00:00 AM";"08:00 - 08:59";"05103";"Centraal Station";"4.90127481";"52.37938365";"58"
"11/15/2021 12:00:00 AM";"08:00 - 08:59";"05105";"Centraal Station";"4.90187762";"52.37932321";"18"
"11/15/2021 12:00:00 AM";"08:00 - 08:59";"05106";"Centraal Station";"4.90229030";"52.37919008";"24"
"11/15/2021 12:00:00 AM";"08:00 - 08:59";"05107";"Centraal Station";"4.90195282";"52.37916174";"39"
"11/15/2021 12:00:00 AM";"08:00 - 08:59";"05154";"Marnixstraat";"4.87536375";"52.37207533";"15"
"11/15/2021 12:00:00 AM";"08:00 - 08:59";"06001";"Surinameplein";"4.85252231";"52.35807034";"52"
"11/15/2021 12:00:00 AM";"08:00 - 08:59";"06002";"Surinameplein";"4.85090753";"52.35807202";"25"
"11/15/2021 12:00:00 AM";"08:00 - 08:59";"06008";"Surinameplein";"4.85209576";"52.35814031";"10"
"11/15/2021 12:00:00 AM";"08:00 - 08:59";"06010";"Corantijnstraat";"4.85326125";"52.36131825";"15"
"11/15/2021 12:00:00 AM";"08:00 - 08:59";"06013";"Corantijnstraat";"4.85329945";"52.36180376";"11"
"11/15/2021 12:00:00 AM";"08:00 - 08:59";"06015";"Postjesweg";"4.85316124";"52.36352879";"16"
"11/15/2021 12:00:00 AM";"08:00 - 08:59";"06016";"J.P. Heijestraat";"4.86239635";"52.36472951";"19"
"11/15/2021 12:00:00 AM";"08:00 - 08:59";"06017";"J.P. Heijestraat";"4.86292317";"52.36487565";"24"
"11/15/2021 12:00:00 AM";"08:00 - 08:59";"06019";"Ten Katestraat";"4.86737423";"52.36591988";"27"
"11/15/2021 12:00:00 AM";"08:00 - 08:59";"06020";"Ten Katestraat";"4.86773990";"52.36603832";"54"
"11/15/2021 12:00:00 AM";"08:00 - 08:59";"06021";"Bilderdijkstraat";"4.87176488";"52.36712545";"122"
"11/15/2021 12:00:00 AM";"08:00 - 08:59";"06023";"Bilderdijkstraat";"4.87254032";"52.36736251";"37"
"11/15/2021 12:00:00 AM";"08:00 - 08:59";"06024";"Kinkerstraat";"4.87230885";"52.36706491";"17"
"11/15/2021 12:00:00 AM";"08:00 - 08:59";"06027";"Elandsgracht";"4.87855189";"52.36808953";"38"
"11/15/2021 12:00:00 AM";"08:00 - 08:59";"06028";"Elandsgracht";"4.87741694";"52.36974738";"91"
"11/15/2021 12:00:00 AM";"08:00 - 08:59";"06029";"Elandsgracht";"4.87684368";"52.36852258";"169"
"11/15/2021 12:00:00 AM";"08:00 - 08:59";"06030";"Rozengracht";"4.87590932";"52.37187996";"21"
"11/15/2021 12:00:00 AM";"08:00 - 08:59";"06034";"Bilderdijkstraat";"4.87082347";"52.37105798";"17"
"11/15/2021 12:00:00 AM";"08:00 - 08:59";"06037";"Bilderdijkstraat";"4.86985701";"52.37082906";"47"
"11/15/2021 12:00:00 AM";"08:00 - 08:59";"06043";"Overtoom";"4.87510145";"52.36299659";"21"
"11/15/2021 12:00:00 AM";"08:00 - 08:59";"06044";"Overtoom";"4.87483191";"52.36345380";"24"
"11/15/2021 12:00:00 AM";"08:00 - 08:59";"06045";"1e Con. Huygensstraat";"4.87399228";"52.36242556";"29"
"11/15/2021 12:00:00 AM";"08:00 - 08:59";"06046";"1e Con. Huygensstraat";"4.87487082";"52.36262709";"90"
"11/15/2021 12:00:00 AM";"08:00 - 08:59";"06048";"J.P. Heijestraat";"4.86585368";"52.36037674";"18"
"11/15/2021 12:00:00 AM";"08:00 - 08:59";"06049";"J.P. Heijestraat";"4.86671778";"52.36055131";"19"
"11/15/2021 12:00:00 AM";"08:00 - 08:59";"06059";"Spiegelgracht";"4.88762090";"52.36071327";"33"
"11/15/2021 12:00:00 AM";"08:00 - 08:59";"06061";"Leidseplein";"4.88339576";"52.36305015";"89"
"11/15/2021 12:00:00 AM";"08:00 - 08:59";"06063";"Leidseplein";"4.88064547";"52.36476406";"52"
"11/15/2021 12:00:00 AM";"08:00 - 08:59";"06067";"Leidseplein";"4.88301434";"52.36431580";"15"
"11/15/2021 12:00:00 AM";"08:00 - 08:59";"06071";"Prinsengracht";"4.88464985";"52.36509570";"10"
"11/15/2021 12:00:00 AM";"08:00 - 08:59";"06072";"Prinsengracht";"4.88428435";"52.36495933";"51"
"11/15/2021 12:00:00 AM";"08:00 - 08:59";"06073";"Keizersgracht";"4.88666521";"52.36604795";"17"
"11/15/2021 12:00:00 AM";"08:00 - 08:59";"06074";"Keizersgracht";"4.88624128";"52.36588437";"38"
"11/15/2021 12:00:00 AM";"08:00 - 08:59";"06081";"Rhijnvis Feithstraat";"4.86039355";"52.35905833";"16"
"11/15/2021 12:00:00 AM";"08:00 - 08:59";"06082";"Rhijnvis Feithstraat";"4.85967683";"52.35883943";"16"
"11/15/2021 12:00:00 AM";"08:00 - 08:59";"06089";"Leidseplein";"4.88085541";"52.36309324";"113"
"11/15/2021 12:00:00 AM";"08:00 - 08:59";"06114";"Hoofdweg";"4.85444451";"52.36425359";"23"
"11/15/2021 12:00:00 AM";"08:00 - 08:59";"06115";"Postjesweg";"4.85319014";"52.36478720";"18"
"11/15/2021 12:00:00 AM";"08:00 - 08:59";"07000";"Concertgebouw";"4.87980116";"52.35642881";"70"
"11/15/2021 12:00:00 AM";"08:00 - 08:59";"07001";"Concertgebouw";"4.87950215";"52.35690388";"149"
"11/15/2021 12:00:00 AM";"08:00 - 08:59";"07002";"Van Baerlestraat";"4.87836936";"52.35839997";"23"
"11/15/2021 12:00:00 AM";"08:00 - 08:59";"07003";"Van Baerlestraat";"4.87808541";"52.35883915";"12"
"11/15/2021 12:00:00 AM";"08:00 - 08:59";"07015";"Roelof Hartplein";"4.88206971";"52.35314900";"40"
"11/15/2021 12:00:00 AM";"08:00 - 08:59";"07016";"Roelof Hartplein";"4.88286688";"52.35274795";"70"
"11/15/2021 12:00:00 AM";"08:00 - 08:59";"07017";"Roelof Hartplein";"4.88206086";"52.35263666";"29"
"11/15/2021 12:00:00 AM";"08:00 - 08:59";"07021";"Kastelenstraat";"4.87955984";"52.32619291";"20"
"11/15/2021 12:00:00 AM";"08:00 - 08:59";"07027";"Corn. Schuytstraat";"4.87051458";"52.35597520";"32"
"11/15/2021 12:00:00 AM";"08:00 - 08:59";"07028";"Corn. Schuytstraat";"4.87088070";"52.35604870";"11"
"11/15/2021 12:00:00 AM";"08:00 - 08:59";"07031";"Valeriusplein";"4.86374943";"52.35333004";"33"
"11/15/2021 12:00:00 AM";"08:00 - 08:59";"07032";"Valeriusplein";"4.86326678";"52.35318410";"36"
"11/15/2021 12:00:00 AM";"08:00 - 08:59";"07033";"Amstelveenseweg";"4.85695925";"52.35161911";"23"
"11/15/2021 12:00:00 AM";"08:00 - 08:59";"07034";"Amstelveenseweg";"4.85596467";"52.35132704";"17"
"11/15/2021 12:00:00 AM";"08:00 - 08:59";"07035";"Zeilstraat";"4.85672894";"52.35124059";"18"
"11/15/2021 12:00:00 AM";"08:00 - 08:59";"07046";"Hoofddorpplein";"4.85048172";"52.35201234";"12"
"11/15/2021 12:00:00 AM";"08:00 - 08:59";"07048";"Hoofddorpplein";"4.85010578";"52.35154327";"12"
"11/15/2021 12:00:00 AM";"08:00 - 08:59";"07049";"Hoofddorpplein";"4.84958188";"52.35117239";"35"
"11/15/2021 12:00:00 AM";"08:00 - 08:59";"07050";"Haarlemmermeerstation";"4.85744749";"52.34883508";"44"
"11/15/2021 12:00:00 AM";"08:00 - 08:59";"07083";"Gerrit v.d. Veenstraat";"4.87735929";"52.34921014";"41"
"11/15/2021 12:00:00 AM";"08:00 - 08:59";"07084";"Gerrit v.d. Veenstraat";"4.87720177";"52.34886793";"54"
"11/15/2021 12:00:00 AM";"08:00 - 08:59";"07088";"Stadionweg";"4.87687497";"52.34665553";"21"
"11/15/2021 12:00:00 AM";"08:00 - 08:59";"07097";"Olympiaplein";"4.86582821";"52.34630180";"15"
"11/15/2021 12:00:00 AM";"08:00 - 08:59";"07098";"Olympiaplein";"4.86659057";"52.34636807";"24"
"11/15/2021 12:00:00 AM";"08:00 - 08:59";"07108";"Olympiaweg";"4.85873730";"52.34528169";"14"
"11/15/2021 12:00:00 AM";"08:00 - 08:59";"07116";"Haarlemmermeerstation";"4.85760410";"52.34924023";"46"
"11/15/2021 12:00:00 AM";"08:00 - 08:59";"07120";"Olympiaweg";"4.85834130";"52.34526195";"19"
"11/15/2021 12:00:00 AM";"08:00 - 08:59";"07130";"Pr. Irenestraat";"4.86819699";"52.34202504";"33"
"11/15/2021 12:00:00 AM";"08:00 - 08:59";"07131";"Pr. Irenestraat";"4.86833196";"52.34303226";"35"
"11/15/2021 12:00:00 AM";"08:00 - 08:59";"07133";"De Boelelaan";"4.86754589";"52.33496677";"39"
"11/15/2021 12:00:00 AM";"08:00 - 08:59";"07157";"Van Heenvlietlaan";"4.88302129";"52.32494043";"11"
"11/15/2021 12:00:00 AM";"08:00 - 08:59";"07186";"Pr. Irenestraat";"4.87677483";"52.34260161";"14"
"11/15/2021 12:00:00 AM";"08:00 - 08:59";"07190";"Station Zuid";"4.87352214";"52.34089784";"21"
"11/15/2021 12:00:00 AM";"08:00 - 08:59";"07193";"Station Zuid";"4.87334616";"52.34088808";"70"
"11/15/2021 12:00:00 AM";"08:00 - 08:59";"07260";"Station RAI";"4.89077724";"52.33708876";"12"
"11/15/2021 12:00:00 AM";"08:00 - 08:59";"07268";"Station Zuid";"4.87428608";"52.34082026";"81"
"11/15/2021 12:00:00 AM";"08:00 - 08:59";"07269";"Station Zuid";"4.87374306";"52.34082689";"117"
"11/15/2021 12:00:00 AM";"08:00 - 08:59";"07270";"Parnassusweg";"4.86874218";"52.33806382";"95"
"11/15/2021 12:00:00 AM";"08:00 - 08:59";"07271";"Parnassusweg";"4.86866745";"52.33818033";"16"
"11/15/2021 12:00:00 AM";"08:00 - 08:59";"07294";"Station Zuid";"4.87327467";"52.34072599";"49"
"11/15/2021 12:00:00 AM";"08:00 - 08:59";"07303";"VU medisch centrum";"4.86097062";"52.33515342";"45"
"11/15/2021 12:00:00 AM";"08:00 - 08:59";"07325";"Museumplein";"4.88046549";"52.35866960";"66"
"11/15/2021 12:00:00 AM";"08:00 - 08:59";"07326";"Museumplein";"4.88178292";"52.35899880";"74"
"11/15/2021 12:00:00 AM";"08:00 - 08:59";"07390";"Kronenburg";"4.87055248";"52.31615048";"16"
"11/15/2021 12:00:00 AM";"08:00 - 08:59";"07391";"Kronenburg";"4.87070592";"52.31556694";"44"
"11/15/2021 12:00:00 AM";"08:00 - 08:59";"07418";"Van Boshuizenstraat";"4.86902148";"52.32544617";"23"
"11/15/2021 12:00:00 AM";"08:00 - 08:59";"07419";"Van Boshuizenstraat";"4.86896941";"52.32487971";"176"
"11/15/2021 12:00:00 AM";"08:00 - 08:59";"07422";"Uilenstede";"4.86917604";"52.32225618";"11"
"11/15/2021 12:00:00 AM";"08:00 - 08:59";"07423";"Uilenstede";"4.86910951";"52.32167168";"50"
"11/15/2021 12:00:00 AM";"08:00 - 08:59";"07438";"Oranjebaan";"4.87217918";"52.30360157";"19"
"11/15/2021 12:00:00 AM";"08:00 - 08:59";"07439";"Oranjebaan";"4.87179001";"52.30302465";"59"
"11/15/2021 12:00:00 AM";"08:00 - 08:59";"07442";"Zonnestein";"4.87236664";"52.31146674";"21"
"11/15/2021 12:00:00 AM";"08:00 - 08:59";"07445";"Amstelveen Stadshart";"4.86751502";"52.30124433";"29"
"11/15/2021 12:00:00 AM";"08:00 - 08:59";"07448";"A.J. Ernststraat";"4.86887597";"52.33288743";"81"
"11/15/2021 12:00:00 AM";"08:00 - 08:59";"07449";"A.J. Ernststraat";"4.86879476";"52.33230287";"38"
"11/15/2021 12:00:00 AM";"08:00 - 08:59";"07453";"Ouderkerkerlaan";"4.86721192";"52.29582332";"41"
"11/15/2021 12:00:00 AM";"08:00 - 08:59";"07457";"Sportlaan";"4.86336804";"52.28987436";"22"
"11/15/2021 12:00:00 AM";"08:00 - 08:59";"07473";"Meent";"4.85693861";"52.28084883";"25"
"11/15/2021 12:00:00 AM";"08:00 - 08:59";"07481";"Poortwachter";"4.84496524";"52.28332911";"27"
"11/15/2021 12:00:00 AM";"08:00 - 08:59";"07482";"Sacharovlaan";"4.83228912";"52.28211984";"29"
"11/15/2021 12:00:00 AM";"08:00 - 08:59";"08007";"Bob Haarmslaan";"4.96921237";"52.36876786";"68"
"11/15/2021 12:00:00 AM";"08:00 - 08:59";"08009";"Bob Haarmslaan";"4.96859205";"52.36915214";"50"
"11/15/2021 12:00:00 AM";"08:00 - 08:59";"08011";"C. van Eesterenlaan";"4.93855181";"52.37334722";"12"
"11/15/2021 12:00:00 AM";"08:00 - 08:59";"08013";"Azartplein";"4.93734445";"52.37656023";"10"
"11/15/2021 12:00:00 AM";"08:00 - 08:59";"08014";"Azartplein";"4.93735640";"52.37682991";"14"
"11/15/2021 12:00:00 AM";"08:00 - 08:59";"08016";"Wittenburgergracht";"4.91969400";"52.36942754";"31"
"11/15/2021 12:00:00 AM";"08:00 - 08:59";"08027";"Kadijksplein";"4.91357159";"52.37075136";"13"
"11/15/2021 12:00:00 AM";"08:00 - 08:59";"08028";"Kadijksplein";"4.91327534";"52.37099284";"13"
"11/15/2021 12:00:00 AM";"08:00 - 08:59";"08031";"Prins Hendrikkade";"4.90455922";"52.37448081";"19"
"11/15/2021 12:00:00 AM";"08:00 - 08:59";"08042";"Artis";"4.91080977";"52.36676771";"10"
"11/15/2021 12:00:00 AM";"08:00 - 08:59";"08043";"Artis";"4.91141423";"52.36653646";"10"
"11/15/2021 12:00:00 AM";"08:00 - 08:59";"08046";"Plantage Lepellaan";"4.91528969";"52.36522179";"15"
"11/15/2021 12:00:00 AM";"08:00 - 08:59";"08049";"Alexanderplein";"4.91916567";"52.36383510";"11"
"11/15/2021 12:00:00 AM";"08:00 - 08:59";"08053";"Weesperplein";"4.90655690";"52.36088154";"11"
"11/15/2021 12:00:00 AM";"08:00 - 08:59";"08054";"Weesperplein";"4.90941338";"52.36145933";"109"
"11/15/2021 12:00:00 AM";"08:00 - 08:59";"08057";"Frederiksplein";"4.90024241";"52.35971430";"30"
"11/15/2021 12:00:00 AM";"08:00 - 08:59";"08058";"Veelaan";"4.93961588";"52.36830916";"23"
"11/15/2021 12:00:00 AM";"08:00 - 08:59";"08059";"Veelaan";"4.93944523";"52.36776026";"20"
"11/15/2021 12:00:00 AM";"08:00 - 08:59";"08066";"Frederiksplein";"4.89751569";"52.35937050";"18"
"11/15/2021 12:00:00 AM";"08:00 - 08:59";"08072";"Vijzelgracht";"4.89159781";"52.35953462";"33"
"11/15/2021 12:00:00 AM";"08:00 - 08:59";"08073";"Vijzelgracht";"4.89227386";"52.35946554";"38"
"11/15/2021 12:00:00 AM";"08:00 - 08:59";"08076";"Vijzelgracht";"4.89111952";"52.36029657";"21"
"11/15/2021 12:00:00 AM";"08:00 - 08:59";"08080";"Spiegelgracht";"4.88691222";"52.36106979";"71"
"11/15/2021 12:00:00 AM";"08:00 - 08:59";"08094";"Wijttenbachstraat";"4.92547668";"52.35979743";"12"
"11/15/2021 12:00:00 AM";"08:00 - 08:59";"08095";"Alexanderplein";"4.91969863";"52.36341478";"59"
"11/15/2021 12:00:00 AM";"08:00 - 08:59";"08096";"Alexanderplein";"4.91931589";"52.36351213";"50"
"11/15/2021 12:00:00 AM";"08:00 - 08:59";"08097";"1e v.Swindenstraat";"4.92412105";"52.36168854";"15"
"11/15/2021 12:00:00 AM";"08:00 - 08:59";"08113";"Javaplein";"4.93949828";"52.36395867";"19"
"11/15/2021 12:00:00 AM";"08:00 - 08:59";"08120";"Insulindeweg";"4.94763926";"52.36469021";"27"
"11/15/2021 12:00:00 AM";"08:00 - 08:59";"08121";"Soembawastraat";"4.94391980";"52.36224967";"14"
"11/15/2021 12:00:00 AM";"08:00 - 08:59";"08124";"Soembawastraat";"4.94346569";"52.36214910";"39"
"11/15/2021 12:00:00 AM";"08:00 - 08:59";"08129";"Molukkenstraat";"4.93861286";"52.36150167";"46"
"11/15/2021 12:00:00 AM";"08:00 - 08:59";"08132";"Valentijnkade";"4.94079607";"52.35900236";"15"
"11/15/2021 12:00:00 AM";"08:00 - 08:59";"08138";"Zuiderzeeweg";"4.96218432";"52.37129534";"34"
"11/15/2021 12:00:00 AM";"08:00 - 08:59";"08139";"Zuiderzeeweg";"4.96240105";"52.37166461";"48"
"11/15/2021 12:00:00 AM";"08:00 - 08:59";"08154";"Roetersstraat";"4.91094292";"52.36257099";"37"
"11/15/2021 12:00:00 AM";"08:00 - 08:59";"08155";"Roetersstraat";"4.91113840";"52.36214036";"11"
"11/15/2021 12:00:00 AM";"08:00 - 08:59";"08183";"Het Funen";"4.93160770";"52.36746073";"17"
"11/15/2021 12:00:00 AM";"08:00 - 08:59";"08190";"Molukkenstraat";"4.93934614";"52.36157635";"19"
"11/15/2021 12:00:00 AM";"08:00 - 08:59";"08195";"Oostenburgergracht";"4.92452709";"52.36780177";"34"
"11/15/2021 12:00:00 AM";"08:00 - 08:59";"08219";"Borneolaan";"4.93862058";"52.37090283";"12"
"11/15/2021 12:00:00 AM";"08:00 - 08:59";"08222";"Peter Martensstraat";"5.01391391";"52.34882079";"11"
"11/15/2021 12:00:00 AM";"08:00 - 08:59";"08233";"C. van Eesterenlaan";"4.93812487";"52.37345346";"10"
"11/15/2021 12:00:00 AM";"08:00 - 08:59";"08235";"Muziekgeb. Bimhuis";"4.91290020";"52.37723779";"21"
"11/15/2021 12:00:00 AM";"08:00 - 08:59";"08236";"Kattenburgerstraat";"4.92203232";"52.37607865";"11"
"11/15/2021 12:00:00 AM";"08:00 - 08:59";"08237";"Kattenburgerstraat";"4.92126795";"52.37614755";"30"
"11/15/2021 12:00:00 AM";"08:00 - 08:59";"08238";"Rietlandpark";"4.93350159";"52.37322013";"32"
"11/15/2021 12:00:00 AM";"08:00 - 08:59";"08239";"Rietlandpark";"4.93413567";"52.37296191";"74"
"11/15/2021 12:00:00 AM";"08:00 - 08:59";"08241";"Zuiderzeeweg";"4.96185517";"52.37193228";"18"
"11/15/2021 12:00:00 AM";"08:00 - 08:59";"08244";"Steigereiland";"4.98083725";"52.36280456";"15"
"11/15/2021 12:00:00 AM";"08:00 - 08:59";"08245";"Steigereiland";"4.98012952";"52.36313467";"45"
"11/15/2021 12:00:00 AM";"08:00 - 08:59";"08247";"Vennepluimstraat";"4.99057242";"52.35769662";"29"
"11/15/2021 12:00:00 AM";"08:00 - 08:59";"08249";"Diemerparklaan";"4.99499716";"52.35532962";"31"
"11/15/2021 12:00:00 AM";"08:00 - 08:59";"08259";"1e Leeghwaterstraat";"4.93004964";"52.37047459";"14"
"11/15/2021 12:00:00 AM";"08:00 - 08:59";"08262";"IJburg";"5.00486802";"52.35112872";"181"
"11/15/2021 12:00:00 AM";"08:00 - 08:59";"08270";"Diemerparklaan";"4.99472994";"52.35567027";"17"
"11/15/2021 12:00:00 AM";"08:00 - 08:59";"08286";"Lumierestraat";"4.99915409";"52.35332109";"12"
"11/15/2021 12:00:00 AM";"08:00 - 08:59";"08300";"P.Oosterhuisstraat";"5.00693059";"52.35193526";"77"
"11/15/2021 12:00:00 AM";"08:00 - 08:59";"09001";"Dintelstraat";"4.89364343";"52.34191819";"11"
"11/15/2021 12:00:00 AM";"08:00 - 08:59";"09003";"Dintelstraat";"4.89289498";"52.34192405";"28"
"11/15/2021 12:00:00 AM";"08:00 - 08:59";"09013";"Amstelstation";"4.91790223";"52.34725673";"16"
"11/15/2021 12:00:00 AM";"08:00 - 08:59";"09015";"Amstelstation";"4.91940405";"52.34679531";"14"
"11/15/2021 12:00:00 AM";"08:00 - 08:59";"09016";"Amstelstation";"4.91953925";"52.34649925";"16"
"11/15/2021 12:00:00 AM";"08:00 - 08:59";"09020";"Wibautstraat";"4.90928242";"52.35726154";"30"
"11/15/2021 12:00:00 AM";"08:00 - 08:59";"09023";"Camperstraat";"4.91383551";"52.35840330";"15"
"11/15/2021 12:00:00 AM";"08:00 - 08:59";"09024";"Camperstraat";"4.91339591";"52.35832964";"14"
"11/15/2021 12:00:00 AM";"08:00 - 08:59";"09026";"Amstelstation";"4.91874992";"52.34619953";"18"
"11/15/2021 12:00:00 AM";"08:00 - 08:59";"09027";"Wibautstraat";"4.90986831";"52.35738074";"35"
"11/15/2021 12:00:00 AM";"08:00 - 08:59";"09049";"Victorieplein";"4.90570139";"52.34637186";"38"
"11/15/2021 12:00:00 AM";"08:00 - 08:59";"09051";"Victorieplein";"4.90653699";"52.34645615";"27"
"11/15/2021 12:00:00 AM";"08:00 - 08:59";"09060";"Waalstraat";"4.90103893";"52.34462715";"10"
"11/15/2021 12:00:00 AM";"08:00 - 08:59";"09064";"Pres. Kennedylaan";"4.90174037";"52.34087315";"13"
"11/15/2021 12:00:00 AM";"08:00 - 08:59";"09065";"Pres. Kennedylaan";"4.90190089";"52.34095470";"14"
"11/15/2021 12:00:00 AM";"08:00 - 08:59";"09069";"Maasstraat";"4.89684393";"52.34310889";"10"
"11/15/2021 12:00:00 AM";"08:00 - 08:59";"09071";"Scheldestraat";"4.88961971";"52.34741983";"10"
"11/15/2021 12:00:00 AM";"08:00 - 08:59";"09073";"Scheldeplein";"4.89113518";"52.34445124";"16"
"11/15/2021 12:00:00 AM";"08:00 - 08:59";"09088";"Amstelkade";"4.90406932";"52.34934914";"11"
"11/15/2021 12:00:00 AM";"08:00 - 08:59";"09090";"Lutmastraat";"4.90331220";"52.35148513";"10"
"11/15/2021 12:00:00 AM";"08:00 - 08:59";"09096";"Van Woustraat";"4.90163035";"52.35495650";"23"
"11/15/2021 12:00:00 AM";"08:00 - 08:59";"09097";"Van Woustraat";"4.90084070";"52.35468363";"47"
"11/15/2021 12:00:00 AM";"08:00 - 08:59";"09102";"Frederiksplein";"4.89904996";"52.35868478";"48"
"11/15/2021 12:00:00 AM";"08:00 - 08:59";"09109";"2e v.d.Helststraat";"4.89488170";"52.35331982";"33"
"11/15/2021 12:00:00 AM";"08:00 - 08:59";"09111";"De Pijp";"4.89073444";"52.35272728";"46"
"11/15/2021 12:00:00 AM";"08:00 - 08:59";"09114";"De Pijp";"4.88948829";"52.35259622";"41"
"11/15/2021 12:00:00 AM";"08:00 - 08:59";"09121";"Marie Heinekenplein";"4.89077224";"52.35722131";"13"
"11/15/2021 12:00:00 AM";"08:00 - 08:59";"09139";"Amsteldijk";"4.91124086";"52.34711329";"11"
"11/15/2021 12:00:00 AM";"08:00 - 08:59";"09175";"James Wattstraat";"4.92275924";"52.35153607";"12"
"11/15/2021 12:00:00 AM";"08:00 - 08:59";"09176";"James Wattstraat";"4.92329155";"52.35116068";"68"
"11/15/2021 12:00:00 AM";"08:00 - 08:59";"09178";"Krugerplein";"4.92080670";"52.35297542";"11"
"11/15/2021 12:00:00 AM";"08:00 - 08:59";"ASA";"Amstelstation";"4.91751426";"52.34647326";"700"
"11/15/2021 12:00:00 AM";"08:00 - 08:59";"ASW";"Amstelveenseweg";"4.85798324";"52.33836671";"811"
"11/15/2021 12:00:00 AM";"08:00 - 08:59";"BLW";"Bullewijk";"4.95233581";"52.30642205";"188"
"11/15/2021 12:00:00 AM";"08:00 - 08:59";"BMR";"Station Bijlmer ArenA";"4.94713474";"52.31193030";"993"
"11/15/2021 12:00:00 AM";"08:00 - 08:59";"CLL";"Station Lelylaan";"4.83426589";"52.35766291";"296"
"11/15/2021 12:00:00 AM";"08:00 - 08:59";"CS";"Centraal Station";"4.90078150";"52.37749421";"1181"
"11/15/2021 12:00:00 AM";"08:00 - 08:59";"DMZ";"Station Diemen-Zuid";"4.95713273";"52.33042795";"101"
"11/15/2021 12:00:00 AM";"08:00 - 08:59";"DPP";"De Pijp";"4.89101069";"52.35296212";"497"
"11/15/2021 12:00:00 AM";"08:00 - 08:59";"DVD";"Station Duivendrecht";"4.93678429";"52.32325190";"121"
"11/15/2021 12:00:00 AM";"08:00 - 08:59";"EPP";"Europaplein";"4.89138430";"52.34185482";"643"
"11/15/2021 12:00:00 AM";"08:00 - 08:59";"GN";"Gein";"4.98952268";"52.29627089";"98"
"11/15/2021 12:00:00 AM";"08:00 - 08:59";"GPP";"Gaasperplas";"4.98468551";"52.31080575";"30"
"11/15/2021 12:00:00 AM";"08:00 - 08:59";"GZH";"Station Ganzenhoef";"4.97323379";"52.32331315";"98"
"11/15/2021 12:00:00 AM";"08:00 - 08:59";"HDS";"Heemstedestraat";"4.83421208";"52.35255760";"156"
"11/15/2021 12:00:00 AM";"08:00 - 08:59";"HLD";"Station Holendrecht";"4.96021904";"52.29780451";"799"
"11/15/2021 12:00:00 AM";"08:00 - 08:59";"HVW";"Henk Sneevlietweg";"4.83439318";"52.34626699";"797"
"11/15/2021 12:00:00 AM";"08:00 - 08:59";"ITW";"Isolatorweg";"4.85013475";"52.39523277";"377"
"11/15/2021 12:00:00 AM";"08:00 - 08:59";"JLS";"Jan v.Galenstraat";"4.83492461";"52.37196551";"683"
"11/15/2021 12:00:00 AM";"08:00 - 08:59";"KEN";"Kraaienneststation";"4.97963450";"52.31632492";"61"
"11/15/2021 12:00:00 AM";"08:00 - 08:59";"MDW";"Van der Madeweg";"4.93048657";"52.32945629";"190"
"11/15/2021 12:00:00 AM";"08:00 - 08:59";"ND";"Noord";"4.93123182";"52.40117202";"297"
"11/15/2021 12:00:00 AM";"08:00 - 08:59";"NDP";"Noorderpark";"4.91789115";"52.38855518";"297"
"11/15/2021 12:00:00 AM";"08:00 - 08:59";"NMT";"Nieuwmarkt";"4.90123885";"52.37194169";"199"
"11/15/2021 12:00:00 AM";"08:00 - 08:59";"OAS";"Overamstel";"4.91815361";"52.33179879";"179"
"11/15/2021 12:00:00 AM";"08:00 - 08:59";"PJW";"Postjesweg";"4.83385543";"52.36468044";"367"
"11/15/2021 12:00:00 AM";"08:00 - 08:59";"RAI";"Station RAI";"4.88982004";"52.33739931";"467"
"11/15/2021 12:00:00 AM";"08:00 - 08:59";"RGB";"Reigersbos";"4.97473728";"52.29566301";"232"
"11/15/2021 12:00:00 AM";"08:00 - 08:59";"RKN";"Rokin";"4.89229651";"52.36928023";"644"
"11/15/2021 12:00:00 AM";"08:00 - 08:59";"SLW";"Spaklerweg";"4.92085640";"52.33986250";"186"
"11/15/2021 12:00:00 AM";"08:00 - 08:59";"STD";"Station Sloterdijk";"4.83878389";"52.38880848";"480"
"11/15/2021 12:00:00 AM";"08:00 - 08:59";"SVT";"Strandvliet";"4.94152820";"52.31825469";"207"
"11/15/2021 12:00:00 AM";"08:00 - 08:59";"VLN";"Burg.de Vlugtlaan";"4.83809109";"52.37951196";"81"
"11/15/2021 12:00:00 AM";"08:00 - 08:59";"VPD";"Venserpolder";"4.94665009";"52.32679428";"96"
"11/15/2021 12:00:00 AM";"08:00 - 08:59";"VSW";"Verrijn Stuartweg";"4.96693669";"52.32844093";"86"
"11/15/2021 12:00:00 AM";"08:00 - 08:59";"VZG";"Vijzelgracht";"4.89072870";"52.35980061";"432"
"11/15/2021 12:00:00 AM";"08:00 - 08:59";"WBS";"Wibautstraat";"4.91202993";"52.35428867";"364"
"11/15/2021 12:00:00 AM";"08:00 - 08:59";"WLP";"Waterlooplein";"4.90298171";"52.36697862";"617"
"11/15/2021 12:00:00 AM";"08:00 - 08:59";"WPP";"Weesperplein";"4.90787469";"52.36120146";"1687"
"11/15/2021 12:00:00 AM";"08:00 - 08:59";"WTC";"Station Zuid";"4.87509853";"52.33908015";"1833"
"11/15/2021 12:00:00 AM";"09:00 - 09:59";"";"Overig";"";"";"2302"
"11/15/2021 12:00:00 AM";"09:00 - 09:59";"[[ Onb";"[[ Onbekend ]]";"0.00000000";"0.00000000";"686"
"11/15/2021 12:00:00 AM";"09:00 - 09:59";"00005";"Muiderpoortstation";"4.93280219";"52.36121887";"52"
"11/15/2021 12:00:00 AM";"09:00 - 09:59";"00006";"Muiderpoortstation";"4.93368466";"52.36106048";"12"
"11/15/2021 12:00:00 AM";"09:00 - 09:59";"00007";"Muiderpoortstation";"4.93356602";"52.36117686";"10"
"11/15/2021 12:00:00 AM";"09:00 - 09:59";"00008";"Dapperstraat";"4.92977913";"52.36110836";"59"
"11/15/2021 12:00:00 AM";"09:00 - 09:59";"00010";"Dapperstraat";"4.92891486";"52.36092527";"33"
"11/15/2021 12:00:00 AM";"09:00 - 09:59";"00017";"Linnaeusstraat";"4.92573745";"52.36013099";"19"
"11/15/2021 12:00:00 AM";"09:00 - 09:59";"00020";"Beukenweg";"4.91674979";"52.35906203";"18"
"11/15/2021 12:00:00 AM";"09:00 - 09:59";"00021";"Beukenweg";"4.91721293";"52.35829991";"37"
"11/15/2021 12:00:00 AM";"09:00 - 09:59";"00023";"Beukenplein";"4.91809259";"52.35701816";"32"
"11/15/2021 12:00:00 AM";"09:00 - 09:59";"00029";"Oostpoort";"4.92719316";"52.35707185";"70"
"11/15/2021 12:00:00 AM";"09:00 - 09:59";"00030";"Oostpoort";"4.92694026";"52.35739442";"37"
"11/15/2021 12:00:00 AM";"09:00 - 09:59";"00040";"Hogeweg";"4.93135765";"52.35321425";"12"
"11/15/2021 12:00:00 AM";"09:00 - 09:59";"00053";"Kruislaan";"4.93967974";"52.34742196";"13"
"11/15/2021 12:00:00 AM";"09:00 - 09:59";"00059";"Radioweg";"4.93945830";"52.35337100";"11"
"11/15/2021 12:00:00 AM";"09:00 - 09:59";"00060";"Radioweg";"4.93979325";"52.35363291";"11"
"11/15/2021 12:00:00 AM";"09:00 - 09:59";"00061";"Archimedesweg";"4.93965454";"52.35574450";"11"
"11/15/2021 12:00:00 AM";"09:00 - 09:59";"00070";"Kruislaan";"4.93993910";"52.34789929";"22"
"11/15/2021 12:00:00 AM";"09:00 - 09:59";"00074";"Brinkstraat";"4.94797289";"52.34285131";"13"
"11/15/2021 12:00:00 AM";"09:00 - 09:59";"00116";"Station Ganzenhoef";"4.97272915";"52.32237665";"21"
"11/15/2021 12:00:00 AM";"09:00 - 09:59";"00141";"Kraaienneststation";"4.97868390";"52.31603403";"20"
"11/15/2021 12:00:00 AM";"09:00 - 09:59";"00150";"Tulastraat";"4.96535973";"52.31994189";"46"
"11/15/2021 12:00:00 AM";"09:00 - 09:59";"00151";"Tulastraat";"4.96584458";"52.31985374";"39"
"11/15/2021 12:00:00 AM";"09:00 - 09:59";"00152";"Florijn";"4.95859163";"52.31758973";"14"
"11/15/2021 12:00:00 AM";"09:00 - 09:59";"00172";"Holendrechtplein";"4.96402882";"52.29952588";"10"
"11/15/2021 12:00:00 AM";"09:00 - 09:59";"00197";"Annie Romeinplein";"4.97162041";"52.32173463";"18"
"11/15/2021 12:00:00 AM";"09:00 - 09:59";"00199";"Station Ganzenhoef";"4.97329456";"52.32308866";"10"
"11/15/2021 12:00:00 AM";"09:00 - 09:59";"00205";"Station Holendrecht";"4.95865657";"52.29716971";"15"
"11/15/2021 12:00:00 AM";"09:00 - 09:59";"00238";"Anton de Komplein";"4.95413359";"52.31603659";"36"
"11/15/2021 12:00:00 AM";"09:00 - 09:59";"00239";"Anton de Komplein";"4.95597669";"52.31652866";"11"
"11/15/2021 12:00:00 AM";"09:00 - 09:59";"00331";"Station Reigersbos";"4.97350466";"52.29737537";"17"
"11/15/2021 12:00:00 AM";"09:00 - 09:59";"00351";"Dostojevskisingel";"4.94525272";"52.32275356";"26"
"11/15/2021 12:00:00 AM";"09:00 - 09:59";"00432";"Diemerbrug";"4.96142958";"52.33824484";"16"
"11/15/2021 12:00:00 AM";"09:00 - 09:59";"00441";"Muiderpoortstation";"4.93254137";"52.36088532";"17"
"11/15/2021 12:00:00 AM";"09:00 - 09:59";"00444";"Linnaeusstraat";"4.92490296";"52.35991203";"27"
"11/15/2021 12:00:00 AM";"09:00 - 09:59";"00453";"Diemen Sniep";"4.96964866";"52.33644962";"19"
"11/15/2021 12:00:00 AM";"09:00 - 09:59";"00464";"Hogeschool InHolland";"4.95958754";"52.32687769";"19"
"11/15/2021 12:00:00 AM";"09:00 - 09:59";"00506";"Science Park Terra";"4.95831008";"52.35434856";"48"
"11/15/2021 12:00:00 AM";"09:00 - 09:59";"00515";"Station Duivendrecht";"4.93669692";"52.32318866";"12"
"11/15/2021 12:00:00 AM";"09:00 - 09:59";"00518";"Foppingadreef";"4.94967889";"52.31268573";"25"
"11/15/2021 12:00:00 AM";"09:00 - 09:59";"00538";"Station Science Park";"4.94808393";"52.35239669";"19"
"11/15/2021 12:00:00 AM";"09:00 - 09:59";"00554";"Science Park";"4.95088162";"52.35447420";"13"
"11/15/2021 12:00:00 AM";"09:00 - 09:59";"00560";"Station Bijlmer ArenA";"4.94747867";"52.31125750";"26"
"11/15/2021 12:00:00 AM";"09:00 - 09:59";"00561";"Station Bijlmer ArenA";"4.94741931";"52.31132918";"60"
"11/15/2021 12:00:00 AM";"09:00 - 09:59";"00562";"Station Bijlmer ArenA";"4.94736012";"52.31138289";"23"
"11/15/2021 12:00:00 AM";"09:00 - 09:59";"00568";"Station Bijlmer ArenA";"4.94762664";"52.31112323";"17"
"11/15/2021 12:00:00 AM";"09:00 - 09:59";"01076";"Waterlandplein";"4.95247364";"52.39274059";"15"
"11/15/2021 12:00:00 AM";"09:00 - 09:59";"01110";"Rode Kruisstraat";"4.92847908";"52.39455548";"20"
"11/15/2021 12:00:00 AM";"09:00 - 09:59";"01111";"Rode Kruisstraat";"4.92881363";"52.39488033";"54"
"11/15/2021 12:00:00 AM";"09:00 - 09:59";"01116";"Merelstraat";"4.92492850";"52.38986809";"13"
"11/15/2021 12:00:00 AM";"09:00 - 09:59";"01117";"Merelstraat";"4.92505977";"52.38995848";"22"
"11/15/2021 12:00:00 AM";"09:00 - 09:59";"01191";"Pinksterbloemstraat";"4.91203754";"52.39881372";"11"
"11/15/2021 12:00:00 AM";"09:00 - 09:59";"01237";"Beemsterstraat";"4.95210741";"52.39712521";"23"
"11/15/2021 12:00:00 AM";"09:00 - 09:59";"01278";"Statenjachtstraat";"4.91380643";"52.40790731";"11"
"11/15/2021 12:00:00 AM";"09:00 - 09:59";"01305";"Station Noord";"4.93215715";"52.40264056";"17"
"11/15/2021 12:00:00 AM";"09:00 - 09:59";"01316";"Station Noord";"4.93336820";"52.40204304";"39"
"11/15/2021 12:00:00 AM";"09:00 - 09:59";"01353";"BovenIJ ziekenhuis";"4.92002004";"52.40538848";"10"
"11/15/2021 12:00:00 AM";"09:00 - 09:59";"01354";"BovenIJ ziekenhuis";"4.92010489";"52.40570338";"10"
"11/15/2021 12:00:00 AM";"09:00 - 09:59";"01363";"Buikslotermeerplein";"4.93968364";"52.39943369";"16"
"11/15/2021 12:00:00 AM";"09:00 - 09:59";"01365";"Atat?rk";"4.89794256";"52.40319625";"19"
"11/15/2021 12:00:00 AM";"09:00 - 09:59";"01402";"Floraweg";"4.90614362";"52.39899665";"20"
"11/15/2021 12:00:00 AM";"09:00 - 09:59";"01414";"Olof Palmeplein";"4.94012168";"52.39679298";"12"
"11/15/2021 12:00:00 AM";"09:00 - 09:59";"01443";"Volendammerweg";"4.95697086";"52.39255928";"11"
"11/15/2021 12:00:00 AM";"09:00 - 09:59";"02010";"Koivistokade";"4.87631267";"52.39805387";"68"
"11/15/2021 12:00:00 AM";"09:00 - 09:59";"02011";"Archangelkade";"4.87186595";"52.39507766";"16"
"11/15/2021 12:00:00 AM";"09:00 - 09:59";"02064";"Kabelweg";"4.84827817";"52.39205168";"12"
"11/15/2021 12:00:00 AM";"09:00 - 09:59";"02103";"Spaarndammerstraat";"4.87765867";"52.39216375";"28"
"11/15/2021 12:00:00 AM";"09:00 - 09:59";"02107";"Assendelftstraat";"4.87984170";"52.38882970";"13"
"11/15/2021 12:00:00 AM";"09:00 - 09:59";"02113";"Haarlemmerplein";"4.88371739";"52.38516129";"15"
"11/15/2021 12:00:00 AM";"09:00 - 09:59";"02114";"Haarlemmerplein";"4.88341252";"52.38484542";"43"
"11/15/2021 12:00:00 AM";"09:00 - 09:59";"02128";"G. v.Ledenberchstraat";"4.87062828";"52.37520945";"11"
"11/15/2021 12:00:00 AM";"09:00 - 09:59";"02130";"Hugo de Grootplein";"4.87259092";"52.37439113";"20"
"11/15/2021 12:00:00 AM";"09:00 - 09:59";"02132";"Fred. Hendrikplants.";"4.87543499";"52.37862768";"45"
"11/15/2021 12:00:00 AM";"09:00 - 09:59";"02133";"Fred. Hendrikplants.";"4.87521709";"52.37842002";"10"
"11/15/2021 12:00:00 AM";"09:00 - 09:59";"02142";"V.d. Hoopstraat";"4.87031312";"52.38335094";"16"
"11/15/2021 12:00:00 AM";"09:00 - 09:59";"02145";"Van Hallstraat";"4.86990682";"52.38418503";"11"
"11/15/2021 12:00:00 AM";"09:00 - 09:59";"02153";"Nassaukade";"4.87920791";"52.38132226";"11"
"11/15/2021 12:00:00 AM";"09:00 - 09:59";"02155";"Willem de Zwijgerlaan";"4.86360306";"52.37071170";"14"
"11/15/2021 12:00:00 AM";"09:00 - 09:59";"02156";"Willem de Zwijgerlaan";"4.86425293";"52.37039101";"22"
"11/15/2021 12:00:00 AM";"09:00 - 09:59";"02157";"Adm. de Ruijterweg";"4.86009910";"52.37148707";"15"
"11/15/2021 12:00:00 AM";"09:00 - 09:59";"02158";"Adm. de Ruijterweg";"4.86096776";"52.37129320";"12"
"11/15/2021 12:00:00 AM";"09:00 - 09:59";"02167";"Bos en Lommerweg";"4.85380049";"52.38118358";"12"
"11/15/2021 12:00:00 AM";"09:00 - 09:59";"02168";"Haparandaweg";"4.87311908";"52.39470562";"50"
"11/15/2021 12:00:00 AM";"09:00 - 09:59";"02170";"Spaarndammerstraat";"4.87723089";"52.39231470";"14"
"11/15/2021 12:00:00 AM";"09:00 - 09:59";"02177";"Bos en Lommerweg";"4.85521256";"52.38101018";"10"
"11/15/2021 12:00:00 AM";"09:00 - 09:59";"02182";"Markthallen";"4.86695146";"52.37567869";"16"
"11/15/2021 12:00:00 AM";"09:00 - 09:59";"02190";"Karel Doormanstraat";"4.85695623";"52.37889690";"10"
"11/15/2021 12:00:00 AM";"09:00 - 09:59";"02193";"Marnixplein";"4.87844490";"52.37741832";"53"
"11/15/2021 12:00:00 AM";"09:00 - 09:59";"02199";"Eerste Marnixdwarsstraat";"4.88203787";"52.38302405";"11"
"11/15/2021 12:00:00 AM";"09:00 - 09:59";"02222";"Jan van Galenstraat";"4.85874763";"52.37399761";"11"
"11/15/2021 12:00:00 AM";"09:00 - 09:59";"02259";"Contactweg";"4.85657970";"52.39195435";"33"
"11/15/2021 12:00:00 AM";"09:00 - 09:59";"02260";"Contactweg";"4.85432952";"52.39215995";"19"
"11/15/2021 12:00:00 AM";"09:00 - 09:59";"02301";"Fred. Hendrikplants.";"4.87521585";"52.37852787";"33"
"11/15/2021 12:00:00 AM";"09:00 - 09:59";"02302";"Fred. Hendrikplants.";"4.87549415";"52.37859198";"32"
"11/15/2021 12:00:00 AM";"09:00 - 09:59";"02309";"Plesostraat";"4.82645527";"52.38795084";"14"
"11/15/2021 12:00:00 AM";"09:00 - 09:59";"02310";"Plesostraat";"4.82849791";"52.38788859";"18"
"11/15/2021 12:00:00 AM";"09:00 - 09:59";"02319";"Solebaystraat";"4.85540788";"52.38431853";"16"
"11/15/2021 12:00:00 AM";"09:00 - 09:59";"02321";"Van Hallstraat";"4.86864429";"52.38538386";"20"
"11/15/2021 12:00:00 AM";"09:00 - 09:59";"02325";"Durbanweg";"4.73436961";"52.40765656";"11"
"11/15/2021 12:00:00 AM";"09:00 - 09:59";"02361";"Station Sloterdijk";"4.83931858";"52.38833460";"45"
"11/15/2021 12:00:00 AM";"09:00 - 09:59";"02365";"Station Sloterdijk";"4.83873236";"52.38822404";"30"
"11/15/2021 12:00:00 AM";"09:00 - 09:59";"02366";"Station Sloterdijk";"4.83873347";"52.38813416";"31"
"11/15/2021 12:00:00 AM";"09:00 - 09:59";"02367";"Station Sloterdijk";"4.83876429";"52.38801747";"43"
"11/15/2021 12:00:00 AM";"09:00 - 09:59";"02368";"Station Sloterdijk";"4.83877999";"52.38793665";"34"
"11/15/2021 12:00:00 AM";"09:00 - 09:59";"02378";"Station Sloterdijk";"4.83809796";"52.38844579";"42"
"11/15/2021 12:00:00 AM";"09:00 - 09:59";"03009";"Witte de Withstraat";"4.85851970";"52.36478416";"42"
"11/15/2021 12:00:00 AM";"09:00 - 09:59";"03010";"Witte de Withstraat";"4.85928290";"52.36480554";"45"
"11/15/2021 12:00:00 AM";"09:00 - 09:59";"03022";"Mercatorplein";"4.85070310";"52.37012367";"14"
"11/15/2021 12:00:00 AM";"09:00 - 09:59";"03025";"Jan v.Galenstraat";"4.84854861";"52.37342137";"25"
"11/15/2021 12:00:00 AM";"09:00 - 09:59";"03028";"Jan van Galenstraat";"4.84921138";"52.37204926";"17"
"11/15/2021 12:00:00 AM";"09:00 - 09:59";"03034";"Erasmusgracht";"4.84691117";"52.37644278";"16"
"11/15/2021 12:00:00 AM";"09:00 - 09:59";"03036";"Egidiusstraat";"4.85075841";"52.37890493";"11"
"11/15/2021 12:00:00 AM";"09:00 - 09:59";"03038";"Bos en Lommerweg";"4.85369544";"52.38014952";"11"
"11/15/2021 12:00:00 AM";"09:00 - 09:59";"03055";"Burg. Fockstraat";"4.83108040";"52.37991964";"13"
"11/15/2021 12:00:00 AM";"09:00 - 09:59";"03060";"Bos en Lommerplein";"4.84718407";"52.37815169";"12"
"11/15/2021 12:00:00 AM";"09:00 - 09:59";"03061";"Bos en Lommerplein";"4.84523530";"52.37778328";"51"
"11/15/2021 12:00:00 AM";"09:00 - 09:59";"03076";"Jan Tooropstraat";"4.83810313";"52.37142305";"26"
"11/15/2021 12:00:00 AM";"09:00 - 09:59";"03077";"Jan Tooropstraat";"4.83817288";"52.37171997";"17"
"11/15/2021 12:00:00 AM";"09:00 - 09:59";"03087";"Plein '40 - '45";"4.82063128";"52.38159575";"18"
"11/15/2021 12:00:00 AM";"09:00 - 09:59";"03090";"Slotermeerlaan";"4.81728149";"52.37596234";"18"
"11/15/2021 12:00:00 AM";"09:00 - 09:59";"03097";"Burg. v. Leeuwenlaan";"4.81182601";"52.37651117";"14"
"11/15/2021 12:00:00 AM";"09:00 - 09:59";"03101";"Lambertus Zijlplein";"4.80300456";"52.37726788";"19"
"11/15/2021 12:00:00 AM";"09:00 - 09:59";"03117";"Sam van Houtenstraat";"4.79790430";"52.37868964";"22"
"11/15/2021 12:00:00 AM";"09:00 - 09:59";"03129";"Plein '40 - '45";"4.82112672";"52.38075328";"30"
"11/15/2021 12:00:00 AM";"09:00 - 09:59";"03132";"Burg. R?ellstraat";"4.81950345";"52.37676393";"13"
"11/15/2021 12:00:00 AM";"09:00 - 09:59";"03135";"Ookmeerweg";"4.80431836";"52.36558127";"64"
"11/15/2021 12:00:00 AM";"09:00 - 09:59";"03136";"Ookmeerweg";"4.80419536";"52.36600309";"42"
"11/15/2021 12:00:00 AM";"09:00 - 09:59";"03150";"Mercatorplein";"4.85011339";"52.37031872";"11"
"11/15/2021 12:00:00 AM";"09:00 - 09:59";"03157";"Lambertus Zijlplein";"4.80338637";"52.37726977";"10"
"11/15/2021 12:00:00 AM";"09:00 - 09:59";"03167";"Bos en Lommerplein";"4.84650668";"52.37709704";"32"
"11/15/2021 12:00:00 AM";"09:00 - 09:59";"03168";"Mercatorplein";"4.85152392";"52.37024423";"24"
"11/15/2021 12:00:00 AM";"09:00 - 09:59";"03169";"Jan v.Galenstraat";"4.83601291";"52.37301316";"15"
"11/15/2021 12:00:00 AM";"09:00 - 09:59";"03171";"Burg. Rendorpstraat";"4.82768433";"52.37436719";"14"
"11/15/2021 12:00:00 AM";"09:00 - 09:59";"03172";"Burg. Rendorpstraat";"4.82691962";"52.37445346";"21"
"11/15/2021 12:00:00 AM";"09:00 - 09:59";"03178";"Mercatorplein";"4.84991664";"52.37080317";"13"
"11/15/2021 12:00:00 AM";"09:00 - 09:59";"03179";"Adm. Helfrichstraat";"4.84386882";"52.36944538";"10"
"11/15/2021 12:00:00 AM";"09:00 - 09:59";"03181";"Jan Voermanstraat";"4.83788946";"52.36970540";"14"
"11/15/2021 12:00:00 AM";"09:00 - 09:59";"04008";"Dijkgraafplein";"4.78646982";"52.35545267";"10"
"11/15/2021 12:00:00 AM";"09:00 - 09:59";"04012";"Baden Powellweg";"4.79137362";"52.35646612";"14"
"11/15/2021 12:00:00 AM";"09:00 - 09:59";"04016";"Hoekenes";"4.79854723";"52.35791310";"15"
"11/15/2021 12:00:00 AM";"09:00 - 09:59";"04021";"Osdorpplein West";"4.80322869";"52.35913166";"27"
"11/15/2021 12:00:00 AM";"09:00 - 09:59";"04023";"Osdorpplein Noord";"4.80526797";"52.36034607";"15"
"11/15/2021 12:00:00 AM";"09:00 - 09:59";"04050";"Meer en Vaart";"4.80994403";"52.35636940";"16"
"11/15/2021 12:00:00 AM";"09:00 - 09:59";"04060";"Derkinderenstraat";"4.83972293";"52.35796689";"18"
"11/15/2021 12:00:00 AM";"09:00 - 09:59";"04061";"Derkinderenstraat";"4.84014895";"52.35794190";"19"
"11/15/2021 12:00:00 AM";"09:00 - 09:59";"04063";"Johan Huizingalaan";"4.82626398";"52.35778704";"21"
"11/15/2021 12:00:00 AM";"09:00 - 09:59";"04064";"Osdorpplein Oost";"4.80806527";"52.35860717";"12"
"11/15/2021 12:00:00 AM";"09:00 - 09:59";"04065";"Osdorpplein Oost";"4.80773259";"52.35935153";"37"
"11/15/2021 12:00:00 AM";"09:00 - 09:59";"04088";"Louwesweg";"4.82436420";"52.34669608";"10"
"11/15/2021 12:00:00 AM";"09:00 - 09:59";"04110";"Westlandgracht";"4.84581964";"52.35156868";"10"
"11/15/2021 12:00:00 AM";"09:00 - 09:59";"04112";"Johan Huizingalaan";"4.82742878";"52.34923618";"23"
"11/15/2021 12:00:00 AM";"09:00 - 09:59";"04129";"Derkinderenstraat";"4.83926482";"52.36415734";"11"
"11/15/2021 12:00:00 AM";"09:00 - 09:59";"04133";"Robert Fruinlaan";"4.82910660";"52.36403799";"16"
"11/15/2021 12:00:00 AM";"09:00 - 09:59";"04136";"Justus Lipsiusstraat";"4.82704776";"52.36081963";"12"
"11/15/2021 12:00:00 AM";"09:00 - 09:59";"04195";"Station Lelylaan";"4.83460082";"52.35788018";"77"
"11/15/2021 12:00:00 AM";"09:00 - 09:59";"04196";"Station Lelylaan";"4.83382251";"52.35790351";"84"
"11/15/2021 12:00:00 AM";"09:00 - 09:59";"04274";"Schiphol Airport/Plaza";"4.76104997";"52.30939292";"15"
"11/15/2021 12:00:00 AM";"09:00 - 09:59";"04279";"Centrum Nieuw Sloten";"4.81104244";"52.34638930";"12"
"11/15/2021 12:00:00 AM";"09:00 - 09:59";"04379";"Knooppunt Schiphol Nrd";"4.79320459";"52.32276196";"16"
"11/15/2021 12:00:00 AM";"09:00 - 09:59";"04402";"Matterhorn";"4.77477998";"52.35372103";"14"
"11/15/2021 12:00:00 AM";"09:00 - 09:59";"04407";"Ecuplein";"4.78817670";"52.34970912";"11"
"11/15/2021 12:00:00 AM";"09:00 - 09:59";"04409";"Baden Powellweg";"4.79441281";"52.35092691";"63"
"11/15/2021 12:00:00 AM";"09:00 - 09:59";"04411";"Hoekenes";"4.80183430";"52.35243785";"24"
"11/15/2021 12:00:00 AM";"09:00 - 09:59";"04413";"Louis Davidsstraat";"4.80850916";"52.35383682";"25"
"11/15/2021 12:00:00 AM";"09:00 - 09:59";"05011";"Centraal Station";"4.89921803";"52.37810793";"146"
"11/15/2021 12:00:00 AM";"09:00 - 09:59";"05022";"Centraal Station";"4.90104337";"52.37771998";"257"
"11/15/2021 12:00:00 AM";"09:00 - 09:59";"05032";"Dam";"4.89549360";"52.37492885";"39"
"11/15/2021 12:00:00 AM";"09:00 - 09:59";"05036";"Rokin";"4.89230478";"52.36985548";"33"
"11/15/2021 12:00:00 AM";"09:00 - 09:59";"05046";"Rembrandtplein";"4.89627976";"52.36625897";"26"
"11/15/2021 12:00:00 AM";"09:00 - 09:59";"05060";"Koningsplein";"4.88894752";"52.36807981";"28"
"11/15/2021 12:00:00 AM";"09:00 - 09:59";"05064";"Koningsplein";"4.88949610";"52.36760577";"32"
"11/15/2021 12:00:00 AM";"09:00 - 09:59";"05065";"Dam";"4.89079364";"52.37367792";"56"
"11/15/2021 12:00:00 AM";"09:00 - 09:59";"05066";"Dam";"4.89027056";"52.37318140";"118"
"11/15/2021 12:00:00 AM";"09:00 - 09:59";"05067";"Dam";"4.89118479";"52.37415591";"32"
"11/15/2021 12:00:00 AM";"09:00 - 09:59";"05069";"Nieuwezijds Kolk";"4.89373093";"52.37628765";"63"
"11/15/2021 12:00:00 AM";"09:00 - 09:59";"05070";"Nieuwezijds Kolk";"4.89284106";"52.37575366";"18"
"11/15/2021 12:00:00 AM";"09:00 - 09:59";"05073";"Westermarkt";"4.88453426";"52.37400204";"56"
"11/15/2021 12:00:00 AM";"09:00 - 09:59";"05074";"Westermarkt";"4.88354950";"52.37407874";"61"
"11/15/2021 12:00:00 AM";"09:00 - 09:59";"05077";"Marnixstraat";"4.87615428";"52.37228546";"37"
"11/15/2021 12:00:00 AM";"09:00 - 09:59";"05079";"Buiten Oranjestraat";"4.88805879";"52.38312149";"10"
"11/15/2021 12:00:00 AM";"09:00 - 09:59";"05080";"Buiten Oranjestraat";"4.88782167";"52.38330923";"30"
"11/15/2021 12:00:00 AM";"09:00 - 09:59";"05082";"Buiten Brouwersstraat";"4.89129168";"52.38167008";"13"
"11/15/2021 12:00:00 AM";"09:00 - 09:59";"05092";"Barentszplein";"4.89160204";"52.38938281";"22"
"11/15/2021 12:00:00 AM";"09:00 - 09:59";"05097";"Centraal Station";"4.90087651";"52.37954379";"70"
"11/15/2021 12:00:00 AM";"09:00 - 09:59";"05101";"Centraal Station";"4.90105195";"52.37961641";"37"
