"Datum";"UurgroepOmschrijving (van aankomst)";"AankomstHalteCode";"AankomstHalteNaam";"AankomstLat";"AankomstLon";"AantalReizen"
"10/26/2020 12:00:00 AM";"00:00 - 00:59";"";"Overig";"";"";"6"
"10/26/2020 12:00:00 AM";"01:00 - 01:59";"";"Overig";"";"";"36"
"10/26/2020 12:00:00 AM";"02:00 - 02:59";"";"Overig";"";"";"49"
"10/26/2020 12:00:00 AM";"03:00 - 03:59";"";"Overig";"";"";"31"
"10/26/2020 12:00:00 AM";"04:00 - 04:59";"";"Overig";"";"";"64"
"10/26/2020 12:00:00 AM";"04:00 - 04:59";"[[ Onb";"[[ Onbekend ]]";"0.00000000";"0.00000000";"10"
"10/26/2020 12:00:00 AM";"05:00 - 05:59";"";"Overig";"";"";"249"
"10/26/2020 12:00:00 AM";"05:00 - 05:59";"[[ Onb";"[[ Onbekend ]]";"0.00000000";"0.00000000";"16"
"10/26/2020 12:00:00 AM";"05:00 - 05:59";"00561";"Station Bijlmer ArenA";"4.94741931";"52.31132918";"14"
"10/26/2020 12:00:00 AM";"05:00 - 05:59";"00562";"Station Bijlmer ArenA";"4.94736012";"52.31138289";"13"
"10/26/2020 12:00:00 AM";"05:00 - 05:59";"04267";"Schiphol Airport/Plaza";"4.76139455";"52.30887344";"77"
"10/26/2020 12:00:00 AM";"05:00 - 05:59";"04268";"Vrachtgebouw";"4.75383146";"52.30452797";"15"
"10/26/2020 12:00:00 AM";"05:00 - 05:59";"04300";"Knooppunt Schiphol Nrd";"4.79292928";"52.32250892";"13"
"10/26/2020 12:00:00 AM";"05:00 - 05:59";"04379";"Knooppunt Schiphol Nrd";"4.79320459";"52.32276196";"39"
"10/26/2020 12:00:00 AM";"05:00 - 05:59";"05096";"Centraal Station";"4.90049319";"52.37967703";"11"
"10/26/2020 12:00:00 AM";"05:00 - 05:59";"BMR";"Station Bijlmer ArenA";"4.94713474";"52.31193030";"25"
"10/26/2020 12:00:00 AM";"05:00 - 05:59";"CS";"Centraal Station";"4.90078150";"52.37749421";"48"
"10/26/2020 12:00:00 AM";"05:00 - 05:59";"GN";"Gein";"4.98952268";"52.29627089";"12"
"10/26/2020 12:00:00 AM";"05:00 - 05:59";"WTC";"Station Zuid";"4.87509853";"52.33908015";"14"
"10/26/2020 12:00:00 AM";"06:00 - 06:59";"";"Overig";"";"";"1368"
"10/26/2020 12:00:00 AM";"06:00 - 06:59";"[[ Onb";"[[ Onbekend ]]";"0.00000000";"0.00000000";"60"
"10/26/2020 12:00:00 AM";"06:00 - 06:59";"00008";"Dapperstraat";"4.92977913";"52.36110836";"10"
"10/26/2020 12:00:00 AM";"06:00 - 06:59";"00023";"Beukenplein";"4.91809259";"52.35701816";"13"
"10/26/2020 12:00:00 AM";"06:00 - 06:59";"00205";"Station Holendrecht";"4.95865657";"52.29716971";"12"
"10/26/2020 12:00:00 AM";"06:00 - 06:59";"00434";"Bijlmerplein";"4.95032022";"52.31457553";"30"
"10/26/2020 12:00:00 AM";"06:00 - 06:59";"00453";"Diemen Sniep";"4.96964866";"52.33644962";"46"
"10/26/2020 12:00:00 AM";"06:00 - 06:59";"00491";"Science Park Aer";"4.95218495";"52.35478458";"13"
"10/26/2020 12:00:00 AM";"06:00 - 06:59";"00902";"Stammerkamp";"4.98344083";"52.33320797";"13"
"10/26/2020 12:00:00 AM";"06:00 - 06:59";"01315";"Station Noord";"4.93339740";"52.40206112";"24"
"10/26/2020 12:00:00 AM";"06:00 - 06:59";"02103";"Spaarndammerstraat";"4.87765867";"52.39216375";"11"
"10/26/2020 12:00:00 AM";"06:00 - 06:59";"02114";"Haarlemmerplein";"4.88341252";"52.38484542";"10"
"10/26/2020 12:00:00 AM";"06:00 - 06:59";"02311";"Seineweg";"4.81857317";"52.38632242";"31"
"10/26/2020 12:00:00 AM";"06:00 - 06:59";"02312";"Seineweg";"4.81892292";"52.38653981";"11"
"10/26/2020 12:00:00 AM";"06:00 - 06:59";"02361";"Station Sloterdijk";"4.83931858";"52.38833460";"24"
"10/26/2020 12:00:00 AM";"06:00 - 06:59";"02368";"Station Sloterdijk";"4.83877999";"52.38793665";"17"
"10/26/2020 12:00:00 AM";"06:00 - 06:59";"02370";"Station Sloterdijk";"4.83879745";"52.38771204";"22"
"10/26/2020 12:00:00 AM";"06:00 - 06:59";"04050";"Meer en Vaart";"4.80994403";"52.35636940";"11"
"10/26/2020 12:00:00 AM";"06:00 - 06:59";"04195";"Station Lelylaan";"4.83460082";"52.35788018";"28"
"10/26/2020 12:00:00 AM";"06:00 - 06:59";"04196";"Station Lelylaan";"4.83382251";"52.35790351";"12"
"10/26/2020 12:00:00 AM";"06:00 - 06:59";"04267";"Schiphol Airport/Plaza";"4.76139455";"52.30887344";"28"
"10/26/2020 12:00:00 AM";"06:00 - 06:59";"04379";"Knooppunt Schiphol Nrd";"4.79320459";"52.32276196";"20"
"10/26/2020 12:00:00 AM";"06:00 - 06:59";"05011";"Centraal Station";"4.89921803";"52.37810793";"46"
"10/26/2020 12:00:00 AM";"06:00 - 06:59";"05022";"Centraal Station";"4.90104337";"52.37771998";"45"
"10/26/2020 12:00:00 AM";"06:00 - 06:59";"05066";"Dam";"4.89027056";"52.37318140";"23"
"10/26/2020 12:00:00 AM";"06:00 - 06:59";"05069";"Nieuwezijds Kolk";"4.89373093";"52.37628765";"13"
"10/26/2020 12:00:00 AM";"06:00 - 06:59";"05074";"Westermarkt";"4.88354950";"52.37407874";"10"
"10/26/2020 12:00:00 AM";"06:00 - 06:59";"05097";"Centraal Station";"4.90087651";"52.37954379";"23"
"10/26/2020 12:00:00 AM";"06:00 - 06:59";"05103";"Centraal Station";"4.90127481";"52.37938365";"15"
"10/26/2020 12:00:00 AM";"06:00 - 06:59";"06029";"Elandsgracht";"4.87684368";"52.36852258";"15"
"10/26/2020 12:00:00 AM";"06:00 - 06:59";"06046";"1e Con. Huygensstraat";"4.87487082";"52.36262709";"12"
"10/26/2020 12:00:00 AM";"06:00 - 06:59";"06061";"Leidseplein";"4.88339576";"52.36305015";"19"
"10/26/2020 12:00:00 AM";"06:00 - 06:59";"06063";"Leidseplein";"4.88064547";"52.36476406";"18"
"10/26/2020 12:00:00 AM";"06:00 - 06:59";"06089";"Leidseplein";"4.88085541";"52.36309324";"17"
"10/26/2020 12:00:00 AM";"06:00 - 06:59";"07004";"De Boelelaan/VU";"4.86586883";"52.33534587";"15"
"10/26/2020 12:00:00 AM";"06:00 - 06:59";"07007";"Museumplein";"4.87950215";"52.35690388";"11"
"10/26/2020 12:00:00 AM";"06:00 - 06:59";"07050";"Haarlemmermeerstation";"4.85744749";"52.34883508";"13"
"10/26/2020 12:00:00 AM";"06:00 - 06:59";"07266";"Station Zuid";"4.87252654";"52.34070477";"11"
"10/26/2020 12:00:00 AM";"06:00 - 06:59";"07303";"VU medisch centrum";"4.86097062";"52.33515342";"22"
"10/26/2020 12:00:00 AM";"06:00 - 06:59";"07323";"Rijksmuseum";"4.88355043";"52.35977029";"10"
"10/26/2020 12:00:00 AM";"06:00 - 06:59";"07419";"Van Boshuizenstraat";"4.86896941";"52.32487971";"17"
"10/26/2020 12:00:00 AM";"06:00 - 06:59";"07449";"A.J. Ernststraat";"4.86879476";"52.33230287";"13"
"10/26/2020 12:00:00 AM";"06:00 - 06:59";"07505";"Ziekenhuis";"4.87154263";"52.29401774";"15"
"10/26/2020 12:00:00 AM";"06:00 - 06:59";"07513";"Sacharovlaan";"4.83264484";"52.28179795";"11"
"10/26/2020 12:00:00 AM";"06:00 - 06:59";"08045";"Weesperplein";"4.91074647";"52.36172535";"16"
"10/26/2020 12:00:00 AM";"06:00 - 06:59";"08057";"Frederiksplein";"4.90024241";"52.35971430";"13"
"10/26/2020 12:00:00 AM";"06:00 - 06:59";"08080";"Spiegelgracht";"4.88691222";"52.36106979";"12"
"10/26/2020 12:00:00 AM";"06:00 - 06:59";"08239";"Rietlandpark";"4.93413567";"52.37296191";"13"
"10/26/2020 12:00:00 AM";"06:00 - 06:59";"08241";"Zuiderzeeweg";"4.96185517";"52.37193228";"10"
"10/26/2020 12:00:00 AM";"06:00 - 06:59";"08259";"1e Leeghwaterstraat";"4.93004964";"52.37047459";"12"
"10/26/2020 12:00:00 AM";"06:00 - 06:59";"ASA";"Amstelstation";"4.91751426";"52.34647326";"117"
"10/26/2020 12:00:00 AM";"06:00 - 06:59";"ASW";"Amstelveenseweg";"4.85798324";"52.33836671";"125"
"10/26/2020 12:00:00 AM";"06:00 - 06:59";"BLW";"Bullewijk";"4.95233581";"52.30642205";"31"
"10/26/2020 12:00:00 AM";"06:00 - 06:59";"BMR";"Station Bijlmer ArenA";"4.94713474";"52.31193030";"160"
"10/26/2020 12:00:00 AM";"06:00 - 06:59";"CLL";"Station Lelylaan";"4.83426589";"52.35766291";"24"
"10/26/2020 12:00:00 AM";"06:00 - 06:59";"CS";"Centraal Station";"4.90078150";"52.37749421";"290"
"10/26/2020 12:00:00 AM";"06:00 - 06:59";"DMZ";"Station Diemen-Zuid";"4.95713273";"52.33042795";"10"
"10/26/2020 12:00:00 AM";"06:00 - 06:59";"DPP";"De Pijp";"4.89101069";"52.35296212";"40"
"10/26/2020 12:00:00 AM";"06:00 - 06:59";"DVD";"Station Duivendrecht";"4.93678429";"52.32325190";"37"
"10/26/2020 12:00:00 AM";"06:00 - 06:59";"EPP";"Europaplein";"4.89138430";"52.34185482";"20"
"10/26/2020 12:00:00 AM";"06:00 - 06:59";"GN";"Gein";"4.98952268";"52.29627089";"13"
"10/26/2020 12:00:00 AM";"06:00 - 06:59";"GZH";"Station Ganzenhoef";"4.97323379";"52.32331315";"12"
"10/26/2020 12:00:00 AM";"06:00 - 06:59";"HDS";"Heemstedestraat";"4.83421208";"52.35255760";"29"
"10/26/2020 12:00:00 AM";"06:00 - 06:59";"HLD";"Station Holendrecht";"4.96021904";"52.29780451";"102"
"10/26/2020 12:00:00 AM";"06:00 - 06:59";"HVW";"Henk Sneevlietweg";"4.83439318";"52.34626699";"65"
"10/26/2020 12:00:00 AM";"06:00 - 06:59";"ITW";"Isolatorweg";"4.85013475";"52.39523277";"15"
"10/26/2020 12:00:00 AM";"06:00 - 06:59";"JLS";"Jan v.Galenstraat";"4.83492461";"52.37196551";"52"
"10/26/2020 12:00:00 AM";"06:00 - 06:59";"KEN";"Kraaienneststation";"4.97963450";"52.31632492";"14"
"10/26/2020 12:00:00 AM";"06:00 - 06:59";"MDW";"Van der Madeweg";"4.93048657";"52.32945629";"32"
"10/26/2020 12:00:00 AM";"06:00 - 06:59";"ND";"Noord";"4.93123182";"52.40117202";"55"
"10/26/2020 12:00:00 AM";"06:00 - 06:59";"NDP";"Noorderpark";"4.91789115";"52.38855518";"35"
"10/26/2020 12:00:00 AM";"06:00 - 06:59";"NMT";"Nieuwmarkt";"4.90123885";"52.37194169";"29"
"10/26/2020 12:00:00 AM";"06:00 - 06:59";"OAS";"Overamstel";"4.91815361";"52.33179879";"38"
"10/26/2020 12:00:00 AM";"06:00 - 06:59";"PJW";"Postjesweg";"4.83385543";"52.36468044";"12"
"10/26/2020 12:00:00 AM";"06:00 - 06:59";"RAI";"Station RAI";"4.88982004";"52.33739931";"54"
"10/26/2020 12:00:00 AM";"06:00 - 06:59";"RGB";"Reigersbos";"4.97473728";"52.29566301";"15"
"10/26/2020 12:00:00 AM";"06:00 - 06:59";"RKN";"Rokin";"4.89229651";"52.36928023";"93"
"10/26/2020 12:00:00 AM";"06:00 - 06:59";"SLW";"Spaklerweg";"4.92085640";"52.33986250";"36"
"10/26/2020 12:00:00 AM";"06:00 - 06:59";"STD";"Station Sloterdijk";"4.83878389";"52.38880848";"156"
"10/26/2020 12:00:00 AM";"06:00 - 06:59";"SVT";"Strandvliet";"4.94152820";"52.31825469";"15"
"10/26/2020 12:00:00 AM";"06:00 - 06:59";"VLN";"Burg.de Vlugtlaan";"4.83809109";"52.37951196";"18"
"10/26/2020 12:00:00 AM";"06:00 - 06:59";"VSW";"Verrijn Stuartweg";"4.96693669";"52.32844093";"28"
"10/26/2020 12:00:00 AM";"06:00 - 06:59";"VZG";"Vijzelgracht";"4.89072870";"52.35980061";"45"
"10/26/2020 12:00:00 AM";"06:00 - 06:59";"WBS";"Wibautstraat";"4.91202993";"52.35428867";"60"
"10/26/2020 12:00:00 AM";"06:00 - 06:59";"WLP";"Waterlooplein";"4.90298171";"52.36697862";"99"
"10/26/2020 12:00:00 AM";"06:00 - 06:59";"WPP";"Weesperplein";"4.90787469";"52.36120146";"103"
"10/26/2020 12:00:00 AM";"06:00 - 06:59";"WTC";"Station Zuid";"4.87509853";"52.33908015";"239"
"10/26/2020 12:00:00 AM";"07:00 - 07:59";"";"Overig";"";"";"2239"
"10/26/2020 12:00:00 AM";"07:00 - 07:59";"[[ Onb";"[[ Onbekend ]]";"0.00000000";"0.00000000";"173"
"10/26/2020 12:00:00 AM";"07:00 - 07:59";"00005";"Muiderpoortstation";"4.93280219";"52.36121887";"32"
"10/26/2020 12:00:00 AM";"07:00 - 07:59";"00008";"Dapperstraat";"4.92977913";"52.36110836";"16"
"10/26/2020 12:00:00 AM";"07:00 - 07:59";"00014";"Wijttenbachstraat";"4.92507537";"52.36027221";"11"
"10/26/2020 12:00:00 AM";"07:00 - 07:59";"00017";"Linnaeusstraat";"4.92573745";"52.36013099";"10"
"10/26/2020 12:00:00 AM";"07:00 - 07:59";"00018";"Diemerknoop";"5.00286153";"52.33537576";"11"
"10/26/2020 12:00:00 AM";"07:00 - 07:59";"00020";"Beukenweg";"4.91674979";"52.35906203";"29"
"10/26/2020 12:00:00 AM";"07:00 - 07:59";"00021";"Beukenweg";"4.91721293";"52.35829991";"33"
"10/26/2020 12:00:00 AM";"07:00 - 07:59";"00023";"Beukenplein";"4.91809259";"52.35701816";"26"
"10/26/2020 12:00:00 AM";"07:00 - 07:59";"00029";"Oostpoort";"4.92719316";"52.35707185";"44"
"10/26/2020 12:00:00 AM";"07:00 - 07:59";"00030";"Oostpoort";"4.92694026";"52.35739442";"16"
"10/26/2020 12:00:00 AM";"07:00 - 07:59";"00059";"Radioweg";"4.93945830";"52.35337100";"12"
"10/26/2020 12:00:00 AM";"07:00 - 07:59";"00116";"Station Ganzenhoef";"4.97272915";"52.32237665";"10"
"10/26/2020 12:00:00 AM";"07:00 - 07:59";"00151";"Tulastraat";"4.96584458";"52.31985374";"13"
"10/26/2020 12:00:00 AM";"07:00 - 07:59";"00205";"Station Holendrecht";"4.95865657";"52.29716971";"18"
"10/26/2020 12:00:00 AM";"07:00 - 07:59";"00351";"Dostojevskisingel";"4.94525272";"52.32275356";"10"
"10/26/2020 12:00:00 AM";"07:00 - 07:59";"00434";"Bijlmerplein";"4.95032022";"52.31457553";"27"
"10/26/2020 12:00:00 AM";"07:00 - 07:59";"00444";"Linnaeusstraat";"4.92490296";"52.35991203";"19"
"10/26/2020 12:00:00 AM";"07:00 - 07:59";"00453";"Diemen Sniep";"4.96964866";"52.33644962";"36"
"10/26/2020 12:00:00 AM";"07:00 - 07:59";"00560";"Station Bijlmer ArenA";"4.94747867";"52.31125750";"25"
"10/26/2020 12:00:00 AM";"07:00 - 07:59";"00561";"Station Bijlmer ArenA";"4.94741931";"52.31132918";"40"
"10/26/2020 12:00:00 AM";"07:00 - 07:59";"00665";"Station Weesp";"5.04383463";"52.31145059";"13"
"10/26/2020 12:00:00 AM";"07:00 - 07:59";"01110";"Rode Kruisstraat";"4.92847908";"52.39455548";"10"
"10/26/2020 12:00:00 AM";"07:00 - 07:59";"01111";"Rode Kruisstraat";"4.92881363";"52.39488033";"34"
"10/26/2020 12:00:00 AM";"07:00 - 07:59";"01168";"Tjalkstraat";"4.91116991";"52.40572174";"11"
"10/26/2020 12:00:00 AM";"07:00 - 07:59";"01212";"Oostzanerdijk";"4.88149588";"52.42023965";"10"
"10/26/2020 12:00:00 AM";"07:00 - 07:59";"01305";"Station Noord";"4.93215715";"52.40264056";"11"
"10/26/2020 12:00:00 AM";"07:00 - 07:59";"01315";"Station Noord";"4.93339740";"52.40206112";"22"
"10/26/2020 12:00:00 AM";"07:00 - 07:59";"01316";"Station Noord";"4.93336820";"52.40204304";"18"
"10/26/2020 12:00:00 AM";"07:00 - 07:59";"01352";"Oosterlengte";"4.92206974";"52.40611555";"12"
"10/26/2020 12:00:00 AM";"07:00 - 07:59";"01365";"Atat?rk";"4.89794256";"52.40319625";"18"
"10/26/2020 12:00:00 AM";"07:00 - 07:59";"01422";"Noorderpark";"4.91956087";"52.38902016";"10"
"10/26/2020 12:00:00 AM";"07:00 - 07:59";"02081";"Haparandaweg";"4.87212228";"52.39451255";"11"
"10/26/2020 12:00:00 AM";"07:00 - 07:59";"02103";"Spaarndammerstraat";"4.87765867";"52.39216375";"14"
"10/26/2020 12:00:00 AM";"07:00 - 07:59";"02113";"Haarlemmerplein";"4.88371739";"52.38516129";"13"
"10/26/2020 12:00:00 AM";"07:00 - 07:59";"02114";"Haarlemmerplein";"4.88341252";"52.38484542";"21"
"10/26/2020 12:00:00 AM";"07:00 - 07:59";"02155";"Willem de Zwijgerlaan";"4.86360306";"52.37071170";"11"
"10/26/2020 12:00:00 AM";"07:00 - 07:59";"02156";"Willem de Zwijgerlaan";"4.86425293";"52.37039101";"13"
"10/26/2020 12:00:00 AM";"07:00 - 07:59";"02158";"Adm. de Ruijterweg";"4.86096776";"52.37129320";"12"
"10/26/2020 12:00:00 AM";"07:00 - 07:59";"02222";"Jan van Galenstraat";"4.85874763";"52.37399761";"12"
"10/26/2020 12:00:00 AM";"07:00 - 07:59";"02260";"Contactweg";"4.85432952";"52.39215995";"10"
"10/26/2020 12:00:00 AM";"07:00 - 07:59";"02311";"Seineweg";"4.81857317";"52.38632242";"20"
"10/26/2020 12:00:00 AM";"07:00 - 07:59";"02321";"Van Hallstraat";"4.86864429";"52.38538386";"10"
"10/26/2020 12:00:00 AM";"07:00 - 07:59";"02333";"Herwijk";"4.78729047";"52.39572206";"10"
"10/26/2020 12:00:00 AM";"07:00 - 07:59";"02361";"Station Sloterdijk";"4.83931858";"52.38833460";"42"
"10/26/2020 12:00:00 AM";"07:00 - 07:59";"02366";"Station Sloterdijk";"4.83873347";"52.38813416";"20"
"10/26/2020 12:00:00 AM";"07:00 - 07:59";"02367";"Station Sloterdijk";"4.83876429";"52.38801747";"17"
"10/26/2020 12:00:00 AM";"07:00 - 07:59";"02370";"Station Sloterdijk";"4.83879745";"52.38771204";"29"
"10/26/2020 12:00:00 AM";"07:00 - 07:59";"03052";"Burg. Eliasstraat";"4.82565009";"52.38077481";"15"
"10/26/2020 12:00:00 AM";"07:00 - 07:59";"03061";"Bos en Lommerplein";"4.84523530";"52.37778328";"10"
"10/26/2020 12:00:00 AM";"07:00 - 07:59";"03076";"Jan Tooropstraat";"4.83810313";"52.37142305";"24"
"10/26/2020 12:00:00 AM";"07:00 - 07:59";"03087";"Plein '40 - '45";"4.82063128";"52.38159575";"14"
"10/26/2020 12:00:00 AM";"07:00 - 07:59";"03090";"Slotermeerlaan";"4.81728149";"52.37596234";"10"
"10/26/2020 12:00:00 AM";"07:00 - 07:59";"03129";"Plein '40 - '45";"4.82112672";"52.38075328";"14"
"10/26/2020 12:00:00 AM";"07:00 - 07:59";"03145";"J. Cabeliaustraat";"4.80409638";"52.38246819";"18"
"10/26/2020 12:00:00 AM";"07:00 - 07:59";"03157";"Lambertus Zijlplein";"4.80338637";"52.37726977";"14"
"10/26/2020 12:00:00 AM";"07:00 - 07:59";"03167";"Bos en Lommerplein";"4.84650668";"52.37709704";"20"
"10/26/2020 12:00:00 AM";"07:00 - 07:59";"04009";"Dijkgraafplein";"4.78689401";"52.35556268";"12"
"10/26/2020 12:00:00 AM";"07:00 - 07:59";"04012";"Baden Powellweg";"4.79137362";"52.35646612";"14"
"10/26/2020 12:00:00 AM";"07:00 - 07:59";"04016";"Hoekenes";"4.79854723";"52.35791310";"12"
"10/26/2020 12:00:00 AM";"07:00 - 07:59";"04021";"Osdorpplein";"4.80322868";"52.35913166";"11"
"10/26/2020 12:00:00 AM";"07:00 - 07:59";"04050";"Meer en Vaart";"4.80994403";"52.35636940";"13"
"10/26/2020 12:00:00 AM";"07:00 - 07:59";"04060";"Derkinderenstraat";"4.83972293";"52.35796689";"12"
"10/26/2020 12:00:00 AM";"07:00 - 07:59";"04061";"Derkinderenstraat";"4.84014895";"52.35794190";"13"
"10/26/2020 12:00:00 AM";"07:00 - 07:59";"04063";"Johan Huizingalaan";"4.82626398";"52.35778704";"18"
"10/26/2020 12:00:00 AM";"07:00 - 07:59";"04088";"Louwesweg";"4.82436420";"52.34669608";"13"
"10/26/2020 12:00:00 AM";"07:00 - 07:59";"04112";"Johan Huizingalaan";"4.82742878";"52.34923618";"27"
"10/26/2020 12:00:00 AM";"07:00 - 07:59";"04148";"Louis Davidsstraat";"4.80952552";"52.35356316";"10"
"10/26/2020 12:00:00 AM";"07:00 - 07:59";"04195";"Station Lelylaan";"4.83460082";"52.35788018";"40"
"10/26/2020 12:00:00 AM";"07:00 - 07:59";"04196";"Station Lelylaan";"4.83382251";"52.35790351";"42"
"10/26/2020 12:00:00 AM";"07:00 - 07:59";"04267";"Schiphol Airport/Plaza";"4.76139455";"52.30887344";"16"
"10/26/2020 12:00:00 AM";"07:00 - 07:59";"04379";"Knooppunt Schiphol Nrd";"4.79320459";"52.32276196";"21"
"10/26/2020 12:00:00 AM";"07:00 - 07:59";"04409";"Baden Powellweg";"4.79441281";"52.35092691";"12"
"10/26/2020 12:00:00 AM";"07:00 - 07:59";"04411";"Hoekenes";"4.80183430";"52.35243785";"10"
"10/26/2020 12:00:00 AM";"07:00 - 07:59";"04413";"Louis Davidsstraat";"4.80850916";"52.35383682";"10"
"10/26/2020 12:00:00 AM";"07:00 - 07:59";"05011";"Centraal Station";"4.89921803";"52.37810793";"70"
"10/26/2020 12:00:00 AM";"07:00 - 07:59";"05022";"Centraal Station";"4.90104337";"52.37771998";"100"
"10/26/2020 12:00:00 AM";"07:00 - 07:59";"05031";"Dam";"4.89348394";"52.37341055";"12"
"10/26/2020 12:00:00 AM";"07:00 - 07:59";"05036";"Rokin";"4.89230478";"52.36985548";"10"
"10/26/2020 12:00:00 AM";"07:00 - 07:59";"05047";"Rembrandtplein";"4.89702882";"52.36623511";"16"
"10/26/2020 12:00:00 AM";"07:00 - 07:59";"05062";"Spui";"4.88925912";"52.36909673";"12"
"10/26/2020 12:00:00 AM";"07:00 - 07:59";"05065";"Dam";"4.89079364";"52.37367792";"28"
"10/26/2020 12:00:00 AM";"07:00 - 07:59";"05066";"Dam";"4.89027056";"52.37318140";"26"
"10/26/2020 12:00:00 AM";"07:00 - 07:59";"05074";"Westermarkt";"4.88354950";"52.37407874";"20"
"10/26/2020 12:00:00 AM";"07:00 - 07:59";"05077";"Marnixstraat";"4.87615428";"52.37228546";"12"
"10/26/2020 12:00:00 AM";"07:00 - 07:59";"05097";"Centraal Station";"4.90087651";"52.37954379";"31"
"10/26/2020 12:00:00 AM";"07:00 - 07:59";"05103";"Centraal Station";"4.90127481";"52.37938365";"16"
"10/26/2020 12:00:00 AM";"07:00 - 07:59";"05104";"Centraal Station";"4.90164343";"52.37925034";"14"
"10/26/2020 12:00:00 AM";"07:00 - 07:59";"05105";"Centraal Station";"4.90187762";"52.37932321";"13"
"10/26/2020 12:00:00 AM";"07:00 - 07:59";"05107";"Centraal Station";"4.90195282";"52.37916174";"10"
"10/26/2020 12:00:00 AM";"07:00 - 07:59";"06001";"Surinameplein";"4.85252231";"52.35807034";"17"
"10/26/2020 12:00:00 AM";"07:00 - 07:59";"06002";"Surinameplein";"4.85090753";"52.35807202";"10"
"10/26/2020 12:00:00 AM";"07:00 - 07:59";"06016";"J.P. Heijestraat";"4.86239635";"52.36472951";"12"
"10/26/2020 12:00:00 AM";"07:00 - 07:59";"06019";"Ten Katestraat";"4.86737423";"52.36591988";"11"
"10/26/2020 12:00:00 AM";"07:00 - 07:59";"06020";"Ten Katestraat";"4.86773990";"52.36603832";"25"
"10/26/2020 12:00:00 AM";"07:00 - 07:59";"06021";"Bilderdijkstraat";"4.87176488";"52.36712545";"13"
"10/26/2020 12:00:00 AM";"07:00 - 07:59";"06024";"Kinkerstraat";"4.87230885";"52.36706491";"10"
"10/26/2020 12:00:00 AM";"07:00 - 07:59";"06028";"Elandsgracht";"4.87741694";"52.36974738";"20"
"10/26/2020 12:00:00 AM";"07:00 - 07:59";"06029";"Elandsgracht";"4.87684368";"52.36852258";"27"
"10/26/2020 12:00:00 AM";"07:00 - 07:59";"06030";"Rozengracht";"4.87590932";"52.37187996";"16"
"10/26/2020 12:00:00 AM";"07:00 - 07:59";"06034";"Bilderdijkstraat";"4.87082347";"52.37105798";"13"
"10/26/2020 12:00:00 AM";"07:00 - 07:59";"06037";"Bilderdijkstraat";"4.86985701";"52.37082906";"17"
"10/26/2020 12:00:00 AM";"07:00 - 07:59";"06045";"1e Con. Huygensstraat";"4.87399228";"52.36242556";"11"
"10/26/2020 12:00:00 AM";"07:00 - 07:59";"06048";"J.P. Heijestraat";"4.86585368";"52.36037674";"17"
"10/26/2020 12:00:00 AM";"07:00 - 07:59";"06049";"J.P. Heijestraat";"4.86671778";"52.36055131";"12"
"10/26/2020 12:00:00 AM";"07:00 - 07:59";"06061";"Leidseplein";"4.88339576";"52.36305015";"16"
"10/26/2020 12:00:00 AM";"07:00 - 07:59";"06063";"Leidseplein";"4.88064547";"52.36476406";"10"
"10/26/2020 12:00:00 AM";"07:00 - 07:59";"06076";"Koningsplein";"4.88857910";"52.36689188";"14"
"10/26/2020 12:00:00 AM";"07:00 - 07:59";"06081";"Rhijnvis Feithstraat";"4.86039355";"52.35905833";"11"
"10/26/2020 12:00:00 AM";"07:00 - 07:59";"06089";"Leidseplein";"4.88085541";"52.36309324";"22"
"10/26/2020 12:00:00 AM";"07:00 - 07:59";"06115";"Postjesweg";"4.85319014";"52.36478720";"11"
"10/26/2020 12:00:00 AM";"07:00 - 07:59";"07006";"Museumplein";"4.87980116";"52.35642881";"18"
"10/26/2020 12:00:00 AM";"07:00 - 07:59";"07007";"Museumplein";"4.87950215";"52.35690388";"37"
"10/26/2020 12:00:00 AM";"07:00 - 07:59";"07015";"Roelof Hartplein";"4.88206971";"52.35314900";"13"
"10/26/2020 12:00:00 AM";"07:00 - 07:59";"07016";"Roelof Hartplein";"4.88286688";"52.35274795";"14"
"10/26/2020 12:00:00 AM";"07:00 - 07:59";"07031";"Valeriusplein";"4.86374943";"52.35333004";"18"
"10/26/2020 12:00:00 AM";"07:00 - 07:59";"07032";"Valeriusplein";"4.86326678";"52.35318410";"11"
"10/26/2020 12:00:00 AM";"07:00 - 07:59";"07084";"Gerrit v.d. Veenstraat";"4.87720177";"52.34886793";"12"
"10/26/2020 12:00:00 AM";"07:00 - 07:59";"07190";"Station Zuid";"4.87352214";"52.34089784";"22"
"10/26/2020 12:00:00 AM";"07:00 - 07:59";"07193";"Station Zuid";"4.87334616";"52.34088808";"16"
"10/26/2020 12:00:00 AM";"07:00 - 07:59";"07266";"Station Zuid";"4.87252654";"52.34070477";"21"
"10/26/2020 12:00:00 AM";"07:00 - 07:59";"07268";"Station Zuid";"4.87428608";"52.34082026";"29"
"10/26/2020 12:00:00 AM";"07:00 - 07:59";"07269";"Station Zuid";"4.87374306";"52.34082689";"29"
"10/26/2020 12:00:00 AM";"07:00 - 07:59";"07270";"Parnassusweg";"4.86874218";"52.33806382";"13"
"10/26/2020 12:00:00 AM";"07:00 - 07:59";"07303";"VU medisch centrum";"4.86097062";"52.33515342";"53"
"10/26/2020 12:00:00 AM";"07:00 - 07:59";"07321";"Van Baerlestraat";"4.87895796";"52.35827667";"12"
"10/26/2020 12:00:00 AM";"07:00 - 07:59";"07322";"Van Baerlestraat";"4.87971942";"52.35844171";"17"
"10/26/2020 12:00:00 AM";"07:00 - 07:59";"07323";"Rijksmuseum";"4.88355043";"52.35977029";"14"
"10/26/2020 12:00:00 AM";"07:00 - 07:59";"07339";"Nieuw Herlaer";"4.88985946";"52.32602094";"20"
"10/26/2020 12:00:00 AM";"07:00 - 07:59";"07419";"Van Boshuizenstraat";"4.86896941";"52.32487971";"33"
"10/26/2020 12:00:00 AM";"07:00 - 07:59";"07445";"Amstelveen Stadshart";"4.86751502";"52.30124433";"19"
"10/26/2020 12:00:00 AM";"07:00 - 07:59";"07449";"A.J. Ernststraat";"4.86879476";"52.33230287";"10"
"10/26/2020 12:00:00 AM";"07:00 - 07:59";"07505";"Ziekenhuis";"4.87154263";"52.29401774";"23"
"10/26/2020 12:00:00 AM";"07:00 - 07:59";"07513";"Sacharovlaan";"4.83264484";"52.28179795";"17"
"10/26/2020 12:00:00 AM";"07:00 - 07:59";"08043";"Artis";"4.91141423";"52.36653646";"10"
"10/26/2020 12:00:00 AM";"07:00 - 07:59";"08045";"Weesperplein";"4.91074647";"52.36172535";"21"
"10/26/2020 12:00:00 AM";"07:00 - 07:59";"08051";"K. 's-Gravesandestr.";"4.91366120";"52.36235720";"16"
"10/26/2020 12:00:00 AM";"07:00 - 07:59";"08057";"Frederiksplein";"4.90024241";"52.35971430";"11"
"10/26/2020 12:00:00 AM";"07:00 - 07:59";"08058";"Veelaan";"4.93961588";"52.36830916";"11"
"10/26/2020 12:00:00 AM";"07:00 - 07:59";"08073";"Vijzelgracht";"4.89227386";"52.35946554";"10"
"10/26/2020 12:00:00 AM";"07:00 - 07:59";"08080";"Spiegelgracht";"4.88691222";"52.36106979";"12"
"10/26/2020 12:00:00 AM";"07:00 - 07:59";"08113";"Javaplein";"4.93949828";"52.36395867";"16"
"10/26/2020 12:00:00 AM";"07:00 - 07:59";"08120";"Insulindeweg";"4.94763926";"52.36469021";"17"
"10/26/2020 12:00:00 AM";"07:00 - 07:59";"08124";"Soembawastraat";"4.94346569";"52.36214910";"10"
"10/26/2020 12:00:00 AM";"07:00 - 07:59";"08127";"Zuiderzeeweg";"4.96256021";"52.37344474";"10"
"10/26/2020 12:00:00 AM";"07:00 - 07:59";"08128";"Zuiderzeeweg";"4.96221150";"52.37305702";"12"
"10/26/2020 12:00:00 AM";"07:00 - 07:59";"08190";"Molukkenstraat";"4.93934614";"52.36157635";"12"
"10/26/2020 12:00:00 AM";"07:00 - 07:59";"08195";"Oostenburgergracht";"4.92452709";"52.36780177";"16"
"10/26/2020 12:00:00 AM";"07:00 - 07:59";"08235";"Muziekgeb. Bimhuis";"4.91290020";"52.37723779";"11"
"10/26/2020 12:00:00 AM";"07:00 - 07:59";"08239";"Rietlandpark";"4.93413567";"52.37296191";"21"
"10/26/2020 12:00:00 AM";"07:00 - 07:59";"08240";"Zuiderzeeweg";"4.96116314";"52.37212752";"10"
"10/26/2020 12:00:00 AM";"07:00 - 07:59";"08241";"Zuiderzeeweg";"4.96185517";"52.37193228";"10"
"10/26/2020 12:00:00 AM";"07:00 - 07:59";"08245";"Steigereiland";"4.98012952";"52.36313467";"12"
"10/26/2020 12:00:00 AM";"07:00 - 07:59";"08247";"Vennepluimstraat";"4.99057242";"52.35769662";"17"
"10/26/2020 12:00:00 AM";"07:00 - 07:59";"08249";"Diemerparklaan";"4.99499716";"52.35532962";"19"
"10/26/2020 12:00:00 AM";"07:00 - 07:59";"08259";"1e Leeghwaterstraat";"4.93004964";"52.37047459";"10"
"10/26/2020 12:00:00 AM";"07:00 - 07:59";"08262";"IJburg";"5.00486802";"52.35112872";"38"
"10/26/2020 12:00:00 AM";"07:00 - 07:59";"08300";"P.Oosterhuisstraat";"5.00693059";"52.35193526";"16"
"10/26/2020 12:00:00 AM";"07:00 - 07:59";"09003";"Dintelstraat";"4.89289498";"52.34192405";"10"
"10/26/2020 12:00:00 AM";"07:00 - 07:59";"09013";"Amstelstation";"4.91790223";"52.34725673";"20"
"10/26/2020 12:00:00 AM";"07:00 - 07:59";"09049";"Victorieplein";"4.90570139";"52.34637186";"13"
"10/26/2020 12:00:00 AM";"07:00 - 07:59";"09083";"Waalstraat";"4.90032528";"52.34680824";"13"
"10/26/2020 12:00:00 AM";"07:00 - 07:59";"09096";"Van Woustraat";"4.90163035";"52.35495650";"14"
"10/26/2020 12:00:00 AM";"07:00 - 07:59";"09114";"De Pijp";"4.88948829";"52.35259622";"10"
"10/26/2020 12:00:00 AM";"07:00 - 07:59";"09120";"Cornelis Troostplein";"4.89161100";"52.35046604";"12"
"10/26/2020 12:00:00 AM";"07:00 - 07:59";"09176";"James Wattstraat";"4.92329155";"52.35116068";"15"
"10/26/2020 12:00:00 AM";"07:00 - 07:59";"ASA";"Amstelstation";"4.91751426";"52.34647326";"191"
"10/26/2020 12:00:00 AM";"07:00 - 07:59";"ASW";"Amstelveenseweg";"4.85798324";"52.33836671";"270"
"10/26/2020 12:00:00 AM";"07:00 - 07:59";"BLW";"Bullewijk";"4.95233581";"52.30642205";"105"
"10/26/2020 12:00:00 AM";"07:00 - 07:59";"BMR";"Station Bijlmer ArenA";"4.94713474";"52.31193030";"274"
"10/26/2020 12:00:00 AM";"07:00 - 07:59";"CLL";"Station Lelylaan";"4.83426589";"52.35766291";"75"
"10/26/2020 12:00:00 AM";"07:00 - 07:59";"CS";"Centraal Station";"4.90078150";"52.37749421";"434"
"10/26/2020 12:00:00 AM";"07:00 - 07:59";"DMZ";"Station Diemen-Zuid";"4.95713273";"52.33042795";"32"
"10/26/2020 12:00:00 AM";"07:00 - 07:59";"DPP";"De Pijp";"4.89101069";"52.35296212";"127"
"10/26/2020 12:00:00 AM";"07:00 - 07:59";"DVD";"Station Duivendrecht";"4.93678429";"52.32325190";"67"
"10/26/2020 12:00:00 AM";"07:00 - 07:59";"EPP";"Europaplein";"4.89138430";"52.34185482";"111"
"10/26/2020 12:00:00 AM";"07:00 - 07:59";"GN";"Gein";"4.98952268";"52.29627089";"38"
"10/26/2020 12:00:00 AM";"07:00 - 07:59";"GPP";"Gaasperplas";"4.98468551";"52.31080575";"20"
"10/26/2020 12:00:00 AM";"07:00 - 07:59";"GZH";"Station Ganzenhoef";"4.97323379";"52.32331315";"31"
"10/26/2020 12:00:00 AM";"07:00 - 07:59";"HDS";"Heemstedestraat";"4.83421208";"52.35255760";"53"
"10/26/2020 12:00:00 AM";"07:00 - 07:59";"HLD";"Station Holendrecht";"4.96021904";"52.29780451";"347"
"10/26/2020 12:00:00 AM";"07:00 - 07:59";"HVW";"Henk Sneevlietweg";"4.83439318";"52.34626699";"132"
"10/26/2020 12:00:00 AM";"07:00 - 07:59";"ITW";"Isolatorweg";"4.85013475";"52.39523277";"47"
"10/26/2020 12:00:00 AM";"07:00 - 07:59";"JLS";"Jan v.Galenstraat";"4.83492461";"52.37196551";"175"
"10/26/2020 12:00:00 AM";"07:00 - 07:59";"KEN";"Kraaienneststation";"4.97963450";"52.31632492";"23"
"10/26/2020 12:00:00 AM";"07:00 - 07:59";"MDW";"Van der Madeweg";"4.93048657";"52.32945629";"59"
"10/26/2020 12:00:00 AM";"07:00 - 07:59";"ND";"Noord";"4.93123182";"52.40117202";"147"
"10/26/2020 12:00:00 AM";"07:00 - 07:59";"NDP";"Noorderpark";"4.91789115";"52.38855518";"79"
"10/26/2020 12:00:00 AM";"07:00 - 07:59";"NMT";"Nieuwmarkt";"4.90123885";"52.37194169";"43"
"10/26/2020 12:00:00 AM";"07:00 - 07:59";"OAS";"Overamstel";"4.91815361";"52.33179879";"38"
"10/26/2020 12:00:00 AM";"07:00 - 07:59";"PJW";"Postjesweg";"4.83385543";"52.36468044";"58"
"10/26/2020 12:00:00 AM";"07:00 - 07:59";"RAI";"Station RAI";"4.88982004";"52.33739931";"124"
"10/26/2020 12:00:00 AM";"07:00 - 07:59";"RGB";"Reigersbos";"4.97473728";"52.29566301";"62"
"10/26/2020 12:00:00 AM";"07:00 - 07:59";"RKN";"Rokin";"4.89229651";"52.36928023";"135"
"10/26/2020 12:00:00 AM";"07:00 - 07:59";"SLW";"Spaklerweg";"4.92085640";"52.33986250";"59"
"10/26/2020 12:00:00 AM";"07:00 - 07:59";"STD";"Station Sloterdijk";"4.83878389";"52.38880848";"201"
"10/26/2020 12:00:00 AM";"07:00 - 07:59";"SVT";"Strandvliet";"4.94152820";"52.31825469";"57"
"10/26/2020 12:00:00 AM";"07:00 - 07:59";"VLN";"Burg.de Vlugtlaan";"4.83809109";"52.37951196";"37"
"10/26/2020 12:00:00 AM";"07:00 - 07:59";"VPD";"Venserpolder";"4.94665009";"52.32679428";"24"
"10/26/2020 12:00:00 AM";"07:00 - 07:59";"VSW";"Verrijn Stuartweg";"4.96693669";"52.32844093";"51"
"10/26/2020 12:00:00 AM";"07:00 - 07:59";"VZG";"Vijzelgracht";"4.89072870";"52.35980061";"78"
"10/26/2020 12:00:00 AM";"07:00 - 07:59";"WBS";"Wibautstraat";"4.91202993";"52.35428867";"198"
"10/26/2020 12:00:00 AM";"07:00 - 07:59";"WLP";"Waterlooplein";"4.90298171";"52.36697862";"86"
"10/26/2020 12:00:00 AM";"07:00 - 07:59";"WPP";"Weesperplein";"4.90787469";"52.36120146";"174"
"10/26/2020 12:00:00 AM";"07:00 - 07:59";"WTC";"Station Zuid";"4.87509853";"52.33908015";"466"
"10/26/2020 12:00:00 AM";"08:00 - 08:59";"";"Overig";"";"";"2528"
"10/26/2020 12:00:00 AM";"08:00 - 08:59";"[[ Onb";"[[ Onbekend ]]";"0.00000000";"0.00000000";"329"
"10/26/2020 12:00:00 AM";"08:00 - 08:59";"00005";"Muiderpoortstation";"4.93280219";"52.36121887";"54"
"10/26/2020 12:00:00 AM";"08:00 - 08:59";"00006";"Muiderpoortstation";"4.93368466";"52.36106048";"19"
"10/26/2020 12:00:00 AM";"08:00 - 08:59";"00007";"Muiderpoortstation";"4.93356602";"52.36117686";"20"
"10/26/2020 12:00:00 AM";"08:00 - 08:59";"00008";"Dapperstraat";"4.92977913";"52.36110836";"30"
"10/26/2020 12:00:00 AM";"08:00 - 08:59";"00010";"Dapperstraat";"4.92891486";"52.36092527";"27"
"10/26/2020 12:00:00 AM";"08:00 - 08:59";"00014";"Wijttenbachstraat";"4.92507537";"52.36027221";"10"
"10/26/2020 12:00:00 AM";"08:00 - 08:59";"00017";"Linnaeusstraat";"4.92573745";"52.36013099";"14"
"10/26/2020 12:00:00 AM";"08:00 - 08:59";"00019";"Diemerknoop";"5.00296377";"52.33543002";"11"
"10/26/2020 12:00:00 AM";"08:00 - 08:59";"00020";"Beukenweg";"4.91674979";"52.35906203";"32"
"10/26/2020 12:00:00 AM";"08:00 - 08:59";"00021";"Beukenweg";"4.91721293";"52.35829991";"46"
"10/26/2020 12:00:00 AM";"08:00 - 08:59";"00023";"Beukenplein";"4.91809259";"52.35701816";"23"
"10/26/2020 12:00:00 AM";"08:00 - 08:59";"00029";"Oostpoort";"4.92719316";"52.35707185";"101"
"10/26/2020 12:00:00 AM";"08:00 - 08:59";"00030";"Oostpoort";"4.92694026";"52.35739442";"72"
"10/26/2020 12:00:00 AM";"08:00 - 08:59";"00039";"Hogeweg";"4.93084015";"52.35358075";"20"
"10/26/2020 12:00:00 AM";"08:00 - 08:59";"00040";"Hogeweg";"4.93135765";"52.35321425";"12"
"10/26/2020 12:00:00 AM";"08:00 - 08:59";"00053";"Kruislaan";"4.93967974";"52.34742196";"17"
"10/26/2020 12:00:00 AM";"08:00 - 08:59";"00059";"Radioweg";"4.93945830";"52.35337100";"46"
"10/26/2020 12:00:00 AM";"08:00 - 08:59";"00060";"Radioweg";"4.93979325";"52.35363291";"19"
"10/26/2020 12:00:00 AM";"08:00 - 08:59";"00065";"Hugo de Vrieslaan";"4.93487340";"52.35101676";"16"
"10/26/2020 12:00:00 AM";"08:00 - 08:59";"00066";"Hugo de Vrieslaan";"4.93540468";"52.35073118";"13"
"10/26/2020 12:00:00 AM";"08:00 - 08:59";"00070";"Kruislaan";"4.93993910";"52.34789929";"19"
"10/26/2020 12:00:00 AM";"08:00 - 08:59";"00114";"Dennenrode";"4.95213839";"52.32209601";"24"
"10/26/2020 12:00:00 AM";"08:00 - 08:59";"00116";"Station Ganzenhoef";"4.97272915";"52.32237665";"23"
"10/26/2020 12:00:00 AM";"08:00 - 08:59";"00134";"Koornhorst";"4.98400929";"52.31907218";"13"
"10/26/2020 12:00:00 AM";"08:00 - 08:59";"00135";"Koornhorst";"4.98396309";"52.31931470";"15"
"10/26/2020 12:00:00 AM";"08:00 - 08:59";"00141";"Kraaienneststation";"4.97868390";"52.31603403";"23"
"10/26/2020 12:00:00 AM";"08:00 - 08:59";"00144";"Kikkenstein";"4.97237050";"52.31680298";"15"
"10/26/2020 12:00:00 AM";"08:00 - 08:59";"00150";"Tulastraat";"4.96535973";"52.31994189";"112"
"10/26/2020 12:00:00 AM";"08:00 - 08:59";"00151";"Tulastraat";"4.96584458";"52.31985374";"56"
"10/26/2020 12:00:00 AM";"08:00 - 08:59";"00152";"Florijn";"4.95859163";"52.31758973";"21"
"10/26/2020 12:00:00 AM";"08:00 - 08:59";"00157";"Dolingadreef";"4.94847023";"52.31925132";"12"
"10/26/2020 12:00:00 AM";"08:00 - 08:59";"00158";"Dolingadreef";"4.94901581";"52.31895674";"24"
"10/26/2020 12:00:00 AM";"08:00 - 08:59";"00167";"Hogevecht";"4.95956435";"52.30947729";"13"
"10/26/2020 12:00:00 AM";"08:00 - 08:59";"00168";"Hogevecht";"4.95997517";"52.30945181";"13"
"10/26/2020 12:00:00 AM";"08:00 - 08:59";"00172";"Holendrechtplein";"4.96402882";"52.29952588";"15"
"10/26/2020 12:00:00 AM";"08:00 - 08:59";"00179";"Kelbergen";"4.97179997";"52.31351146";"22"
"10/26/2020 12:00:00 AM";"08:00 - 08:59";"00180";"Kelbergen";"4.97143303";"52.31354612";"16"
"10/26/2020 12:00:00 AM";"08:00 - 08:59";"00205";"Station Holendrecht";"4.95865657";"52.29716971";"11"
"10/26/2020 12:00:00 AM";"08:00 - 08:59";"00238";"Anton de Komplein";"4.95413359";"52.31603659";"22"
"10/26/2020 12:00:00 AM";"08:00 - 08:59";"00239";"Anton de Komplein";"4.95597669";"52.31652866";"18"
"10/26/2020 12:00:00 AM";"08:00 - 08:59";"00330";"Middenweg";"4.93455629";"52.35044932";"17"
"10/26/2020 12:00:00 AM";"08:00 - 08:59";"00331";"Station Reigersbos";"4.97350466";"52.29737537";"25"
"10/26/2020 12:00:00 AM";"08:00 - 08:59";"00341";"Woudrichemstraat";"4.98882309";"52.29418337";"13"
"10/26/2020 12:00:00 AM";"08:00 - 08:59";"00351";"Dostojevskisingel";"4.94525272";"52.32275356";"48"
"10/26/2020 12:00:00 AM";"08:00 - 08:59";"00432";"Diemerbrug";"4.96142958";"52.33824484";"15"
"10/26/2020 12:00:00 AM";"08:00 - 08:59";"00434";"Bijlmerplein";"4.95032022";"52.31457553";"24"
"10/26/2020 12:00:00 AM";"08:00 - 08:59";"00444";"Linnaeusstraat";"4.92490296";"52.35991203";"72"
"10/26/2020 12:00:00 AM";"08:00 - 08:59";"00453";"Diemen Sniep";"4.96964866";"52.33644962";"21"
"10/26/2020 12:00:00 AM";"08:00 - 08:59";"00491";"Science Park Aer";"4.95218495";"52.35478458";"26"
"10/26/2020 12:00:00 AM";"08:00 - 08:59";"00494";"Science Park Aqua";"4.95416922";"52.35601419";"18"
"10/26/2020 12:00:00 AM";"08:00 - 08:59";"00506";"Science Park Terra";"4.95831008";"52.35434856";"10"
"10/26/2020 12:00:00 AM";"08:00 - 08:59";"00518";"Foppingadreef";"4.94967889";"52.31268573";"10"
"10/26/2020 12:00:00 AM";"08:00 - 08:59";"00538";"Station Science Park";"4.94808393";"52.35239669";"43"
"10/26/2020 12:00:00 AM";"08:00 - 08:59";"00560";"Station Bijlmer ArenA";"4.94747867";"52.31125750";"34"
"10/26/2020 12:00:00 AM";"08:00 - 08:59";"00561";"Station Bijlmer ArenA";"4.94741931";"52.31132918";"32"
"10/26/2020 12:00:00 AM";"08:00 - 08:59";"00568";"Station Bijlmer ArenA";"4.94762664";"52.31112323";"14"
"10/26/2020 12:00:00 AM";"08:00 - 08:59";"00603";"V. Houten Ind.park";"5.03580865";"52.30648376";"24"
"10/26/2020 12:00:00 AM";"08:00 - 08:59";"00651";"Casparuslaan";"5.03531862";"52.30911571";"14"
"10/26/2020 12:00:00 AM";"08:00 - 08:59";"00665";"Station Weesp";"5.04383463";"52.31145059";"11"
"10/26/2020 12:00:00 AM";"08:00 - 08:59";"00985";"Winkelcentrum";"4.96422695";"52.34186794";"12"
"10/26/2020 12:00:00 AM";"08:00 - 08:59";"01076";"Waterlandplein";"4.95247364";"52.39274059";"10"
"10/26/2020 12:00:00 AM";"08:00 - 08:59";"01078";"Dijkmanshuizenstraat";"4.95475323";"52.39549915";"21"
"10/26/2020 12:00:00 AM";"08:00 - 08:59";"01108";"J. Drijverweg";"4.94437079";"52.39943333";"14"
"10/26/2020 12:00:00 AM";"08:00 - 08:59";"01110";"Rode Kruisstraat";"4.92847908";"52.39455548";"82"
"10/26/2020 12:00:00 AM";"08:00 - 08:59";"01111";"Rode Kruisstraat";"4.92881363";"52.39488033";"78"
"10/26/2020 12:00:00 AM";"08:00 - 08:59";"01116";"Merelstraat";"4.92492850";"52.38986809";"16"
"10/26/2020 12:00:00 AM";"08:00 - 08:59";"01117";"Merelstraat";"4.92505977";"52.38995848";"12"
"10/26/2020 12:00:00 AM";"08:00 - 08:59";"01155";"Mosplein";"4.91358361";"52.39300490";"15"
"10/26/2020 12:00:00 AM";"08:00 - 08:59";"01168";"Tjalkstraat";"4.91116991";"52.40572174";"11"
"10/26/2020 12:00:00 AM";"08:00 - 08:59";"01189";"Pinksterbloemstraat";"4.91221693";"52.39852684";"26"
"10/26/2020 12:00:00 AM";"08:00 - 08:59";"01191";"Pinksterbloemstraat";"4.91203754";"52.39881372";"29"
"10/26/2020 12:00:00 AM";"08:00 - 08:59";"01212";"Oostzanerdijk";"4.88149588";"52.42023965";"48"
"10/26/2020 12:00:00 AM";"08:00 - 08:59";"01237";"Beemsterstraat";"4.95210741";"52.39712521";"18"
"10/26/2020 12:00:00 AM";"08:00 - 08:59";"01278";"Statenjachtstraat";"4.91380643";"52.40790731";"15"
"10/26/2020 12:00:00 AM";"08:00 - 08:59";"01305";"Station Noord";"4.93215715";"52.40264056";"21"
"10/26/2020 12:00:00 AM";"08:00 - 08:59";"01315";"Station Noord";"4.93339740";"52.40206112";"45"
"10/26/2020 12:00:00 AM";"08:00 - 08:59";"01316";"Station Noord";"4.93336820";"52.40204304";"15"
"10/26/2020 12:00:00 AM";"08:00 - 08:59";"01352";"Oosterlengte";"4.92206974";"52.40611555";"13"
"10/26/2020 12:00:00 AM";"08:00 - 08:59";"01363";"Buikslotermeerplein";"4.93968364";"52.39943369";"17"
"10/26/2020 12:00:00 AM";"08:00 - 08:59";"01412";"Meidoornplein";"4.91107328";"52.38735957";"13"
"10/26/2020 12:00:00 AM";"08:00 - 08:59";"01414";"Olof Palmeplein";"4.94012168";"52.39679298";"11"
"10/26/2020 12:00:00 AM";"08:00 - 08:59";"01417";"Johan v.Hasseltweg";"4.92309870";"52.38784770";"13"
"10/26/2020 12:00:00 AM";"08:00 - 08:59";"01422";"Noorderpark";"4.91956087";"52.38902016";"43"
"10/26/2020 12:00:00 AM";"08:00 - 08:59";"01443";"Volendammerweg";"4.95697086";"52.39255928";"11"
"10/26/2020 12:00:00 AM";"08:00 - 08:59";"02018";"Koivistokade";"4.87577082";"52.39789874";"20"
"10/26/2020 12:00:00 AM";"08:00 - 08:59";"02019";"Koivistokade";"4.87537403";"52.39790601";"12"
"10/26/2020 12:00:00 AM";"08:00 - 08:59";"02064";"Kabelweg";"4.84827817";"52.39205168";"21"
"10/26/2020 12:00:00 AM";"08:00 - 08:59";"02066";"La Guardiaweg";"4.84008244";"52.39190625";"11"
"10/26/2020 12:00:00 AM";"08:00 - 08:59";"02081";"Haparandaweg";"4.87212228";"52.39451255";"55"
"10/26/2020 12:00:00 AM";"08:00 - 08:59";"02103";"Spaarndammerstraat";"4.87765867";"52.39216375";"34"
"10/26/2020 12:00:00 AM";"08:00 - 08:59";"02113";"Haarlemmerplein";"4.88371739";"52.38516129";"14"
"10/26/2020 12:00:00 AM";"08:00 - 08:59";"02114";"Haarlemmerplein";"4.88341252";"52.38484542";"37"
"10/26/2020 12:00:00 AM";"08:00 - 08:59";"02130";"Hugo de Grootplein";"4.87259092";"52.37439113";"12"
"10/26/2020 12:00:00 AM";"08:00 - 08:59";"02132";"Fred. Hendrikplants.";"4.87543499";"52.37862768";"32"
"10/26/2020 12:00:00 AM";"08:00 - 08:59";"02133";"Fred. Hendrikplants.";"4.87521709";"52.37842002";"20"
"10/26/2020 12:00:00 AM";"08:00 - 08:59";"02153";"Nassaukade";"4.87920791";"52.38132226";"13"
"10/26/2020 12:00:00 AM";"08:00 - 08:59";"02155";"Willem de Zwijgerlaan";"4.86360306";"52.37071170";"16"
"10/26/2020 12:00:00 AM";"08:00 - 08:59";"02156";"Willem de Zwijgerlaan";"4.86425293";"52.37039101";"13"
"10/26/2020 12:00:00 AM";"08:00 - 08:59";"02157";"Adm. de Ruijterweg";"4.86009910";"52.37148707";"23"
"10/26/2020 12:00:00 AM";"08:00 - 08:59";"02158";"Adm. de Ruijterweg";"4.86096776";"52.37129320";"33"
"10/26/2020 12:00:00 AM";"08:00 - 08:59";"02167";"Bos en Lommerweg";"4.85380049";"52.38118358";"18"
"10/26/2020 12:00:00 AM";"08:00 - 08:59";"02170";"Spaarndammerstraat";"4.87723089";"52.39231470";"18"
"10/26/2020 12:00:00 AM";"08:00 - 08:59";"02183";"Markthallen";"4.86667150";"52.37575835";"12"
"10/26/2020 12:00:00 AM";"08:00 - 08:59";"02193";"Marnixplein";"4.87844490";"52.37741832";"15"
"10/26/2020 12:00:00 AM";"08:00 - 08:59";"02222";"Jan van Galenstraat";"4.85874763";"52.37399761";"11"
"10/26/2020 12:00:00 AM";"08:00 - 08:59";"02252";"Zekeringstraat";"4.84719064";"52.39690907";"13"
"10/26/2020 12:00:00 AM";"08:00 - 08:59";"02259";"Contactweg";"4.85657970";"52.39195435";"60"
"10/26/2020 12:00:00 AM";"08:00 - 08:59";"02260";"Contactweg";"4.85432952";"52.39215995";"39"
"10/26/2020 12:00:00 AM";"08:00 - 08:59";"02301";"Fred. Hendrikplants.";"4.87521585";"52.37852787";"30"
"10/26/2020 12:00:00 AM";"08:00 - 08:59";"02302";"Fred. Hendrikplants.";"4.87549415";"52.37859198";"16"
"10/26/2020 12:00:00 AM";"08:00 - 08:59";"02309";"Plesostraat";"4.82645527";"52.38795084";"23"
"10/26/2020 12:00:00 AM";"08:00 - 08:59";"02310";"Plesostraat";"4.82849791";"52.38788859";"11"
"10/26/2020 12:00:00 AM";"08:00 - 08:59";"02319";"Solebaystraat";"4.85540788";"52.38431853";"10"
"10/26/2020 12:00:00 AM";"08:00 - 08:59";"02321";"Van Hallstraat";"4.86864429";"52.38538386";"10"
"10/26/2020 12:00:00 AM";"08:00 - 08:59";"02361";"Station Sloterdijk";"4.83931858";"52.38833460";"55"
"10/26/2020 12:00:00 AM";"08:00 - 08:59";"02365";"Station Sloterdijk";"4.83873236";"52.38822404";"21"
"10/26/2020 12:00:00 AM";"08:00 - 08:59";"02366";"Station Sloterdijk";"4.83873347";"52.38813416";"17"
"10/26/2020 12:00:00 AM";"08:00 - 08:59";"02367";"Station Sloterdijk";"4.83876429";"52.38801747";"13"
"10/26/2020 12:00:00 AM";"08:00 - 08:59";"02368";"Station Sloterdijk";"4.83877999";"52.38793665";"12"
"10/26/2020 12:00:00 AM";"08:00 - 08:59";"02370";"Station Sloterdijk";"4.83879745";"52.38771204";"52"
"10/26/2020 12:00:00 AM";"08:00 - 08:59";"03009";"Witte de Withstraat";"4.85851970";"52.36478416";"21"
"10/26/2020 12:00:00 AM";"08:00 - 08:59";"03010";"Witte de Withstraat";"4.85928290";"52.36480554";"20"
"10/26/2020 12:00:00 AM";"08:00 - 08:59";"03012";"Hoofdweg";"4.85237353";"52.36432514";"13"
"10/26/2020 12:00:00 AM";"08:00 - 08:59";"03022";"Mercatorplein";"4.85070310";"52.37012367";"19"
"10/26/2020 12:00:00 AM";"08:00 - 08:59";"03023";"Marco Polostraat";"4.85520189";"52.37088096";"23"
"10/26/2020 12:00:00 AM";"08:00 - 08:59";"03034";"Erasmusgracht";"4.84691117";"52.37644278";"12"
"10/26/2020 12:00:00 AM";"08:00 - 08:59";"03052";"Burg. Eliasstraat";"4.82565009";"52.38077481";"39"
"10/26/2020 12:00:00 AM";"08:00 - 08:59";"03061";"Bos en Lommerplein";"4.84523530";"52.37778328";"17"
"10/26/2020 12:00:00 AM";"08:00 - 08:59";"03076";"Jan Tooropstraat";"4.83810313";"52.37142305";"19"
"10/26/2020 12:00:00 AM";"08:00 - 08:59";"03087";"Plein '40 - '45";"4.82063128";"52.38159575";"38"
"10/26/2020 12:00:00 AM";"08:00 - 08:59";"03090";"Slotermeerlaan";"4.81728149";"52.37596234";"24"
"10/26/2020 12:00:00 AM";"08:00 - 08:59";"03097";"Burg. v. Leeuwenlaan";"4.81182601";"52.37651117";"11"
"10/26/2020 12:00:00 AM";"08:00 - 08:59";"03099";"Dr. H. Colijnstraat";"4.80672448";"52.37693566";"11"
"10/26/2020 12:00:00 AM";"08:00 - 08:59";"03101";"Lambertus Zijlplein";"4.80300456";"52.37726788";"14"
"10/26/2020 12:00:00 AM";"08:00 - 08:59";"03111";"Troelstralaan";"4.80203610";"52.37498021";"10"
"10/26/2020 12:00:00 AM";"08:00 - 08:59";"03117";"Sam van Houtenstraat";"4.79790430";"52.37868964";"14"
"10/26/2020 12:00:00 AM";"08:00 - 08:59";"03121";"Aalbersestraat";"4.79774249";"52.38202329";"15"
"10/26/2020 12:00:00 AM";"08:00 - 08:59";"03124";"Osdorper Ban";"4.80589840";"52.36265004";"17"
"10/26/2020 12:00:00 AM";"08:00 - 08:59";"03129";"Plein '40 - '45";"4.82112672";"52.38075328";"36"
"10/26/2020 12:00:00 AM";"08:00 - 08:59";"03132";"Burg. R?ellstraat";"4.81950345";"52.37676393";"11"
"10/26/2020 12:00:00 AM";"08:00 - 08:59";"03145";"J. Cabeliaustraat";"4.80409638";"52.38246819";"14"
"10/26/2020 12:00:00 AM";"08:00 - 08:59";"03150";"Mercatorplein";"4.85011339";"52.37031872";"13"
"10/26/2020 12:00:00 AM";"08:00 - 08:59";"03157";"Lambertus Zijlplein";"4.80338637";"52.37726977";"10"
"10/26/2020 12:00:00 AM";"08:00 - 08:59";"03167";"Bos en Lommerplein";"4.84650668";"52.37709704";"43"
"10/26/2020 12:00:00 AM";"08:00 - 08:59";"03168";"Mercatorplein";"4.85152392";"52.37024423";"20"
"10/26/2020 12:00:00 AM";"08:00 - 08:59";"03169";"Jan v.Galenstraat";"4.83601291";"52.37301316";"15"
"10/26/2020 12:00:00 AM";"08:00 - 08:59";"03170";"Jan v.Galenstraat";"4.83495277";"52.37324190";"13"
"10/26/2020 12:00:00 AM";"08:00 - 08:59";"03171";"Burg. Rendorpstraat";"4.82768433";"52.37436719";"24"
"10/26/2020 12:00:00 AM";"08:00 - 08:59";"03172";"Burg. Rendorpstraat";"4.82691962";"52.37445346";"39"
"10/26/2020 12:00:00 AM";"08:00 - 08:59";"03178";"Mercatorplein";"4.84991664";"52.37080317";"14"
"10/26/2020 12:00:00 AM";"08:00 - 08:59";"03179";"Adm. Helfrichstraat";"4.84386882";"52.36944538";"20"
"10/26/2020 12:00:00 AM";"08:00 - 08:59";"03180";"Adm. Helfrichstraat";"4.84458860";"52.36942172";"10"
"10/26/2020 12:00:00 AM";"08:00 - 08:59";"03181";"Jan Voermanstraat";"4.83788946";"52.36970540";"18"
"10/26/2020 12:00:00 AM";"08:00 - 08:59";"03182";"Jan Voermanstraat";"4.83852226";"52.36959149";"19"
"10/26/2020 12:00:00 AM";"08:00 - 08:59";"03197";"W. Schoutenstraat";"4.85238084";"52.36737202";"13"
"10/26/2020 12:00:00 AM";"08:00 - 08:59";"03198";"W. Schoutenstraat";"4.85259061";"52.36702245";"15"
"10/26/2020 12:00:00 AM";"08:00 - 08:59";"04009";"Dijkgraafplein";"4.78689401";"52.35556268";"17"
"10/26/2020 12:00:00 AM";"08:00 - 08:59";"04012";"Baden Powellweg";"4.79137362";"52.35646612";"22"
"10/26/2020 12:00:00 AM";"08:00 - 08:59";"04016";"Hoekenes";"4.79854723";"52.35791310";"16"
"10/26/2020 12:00:00 AM";"08:00 - 08:59";"04021";"Osdorpplein";"4.80322868";"52.35913166";"32"
"10/26/2020 12:00:00 AM";"08:00 - 08:59";"04043";"Ruimzicht";"4.80749209";"52.35978176";"15"
"10/26/2020 12:00:00 AM";"08:00 - 08:59";"04049";"Meer en Vaart";"4.81058859";"52.35647140";"14"
"10/26/2020 12:00:00 AM";"08:00 - 08:59";"04050";"Meer en Vaart";"4.80994403";"52.35636940";"37"
"10/26/2020 12:00:00 AM";"08:00 - 08:59";"04060";"Derkinderenstraat";"4.83972293";"52.35796689";"11"
"10/26/2020 12:00:00 AM";"08:00 - 08:59";"04061";"Derkinderenstraat";"4.84014895";"52.35794190";"15"
"10/26/2020 12:00:00 AM";"08:00 - 08:59";"04062";"Johan Huizingalaan";"4.82582327";"52.35781191";"16"
"10/26/2020 12:00:00 AM";"08:00 - 08:59";"04063";"Johan Huizingalaan";"4.82626398";"52.35778704";"34"
"10/26/2020 12:00:00 AM";"08:00 - 08:59";"04110";"Westlandgracht";"4.84581964";"52.35156868";"14"
"10/26/2020 12:00:00 AM";"08:00 - 08:59";"04112";"Johan Huizingalaan";"4.82742878";"52.34923618";"38"
"10/26/2020 12:00:00 AM";"08:00 - 08:59";"04132";"Jan Tooropstraat";"4.83537474";"52.36411231";"16"
"10/26/2020 12:00:00 AM";"08:00 - 08:59";"04140";"Sierplein";"4.82732630";"52.35503282";"10"
"10/26/2020 12:00:00 AM";"08:00 - 08:59";"04148";"Louis Davidsstraat";"4.80952552";"52.35356316";"27"
"10/26/2020 12:00:00 AM";"08:00 - 08:59";"04195";"Station Lelylaan";"4.83460082";"52.35788018";"153"
"10/26/2020 12:00:00 AM";"08:00 - 08:59";"04196";"Station Lelylaan";"4.83382251";"52.35790351";"81"
"10/26/2020 12:00:00 AM";"08:00 - 08:59";"04267";"Schiphol Airport/Plaza";"4.76139455";"52.30887344";"11"
"10/26/2020 12:00:00 AM";"08:00 - 08:59";"04277";"Laan v.Vlaanderen";"4.81642720";"52.34648730";"26"
"10/26/2020 12:00:00 AM";"08:00 - 08:59";"04279";"Kasterleepark";"4.81104243";"52.34638930";"13"
"10/26/2020 12:00:00 AM";"08:00 - 08:59";"04379";"Knooppunt Schiphol Nrd";"4.79320459";"52.32276196";"33"
"10/26/2020 12:00:00 AM";"08:00 - 08:59";"04403";"Pilatus";"4.77696371";"52.35289644";"11"
"10/26/2020 12:00:00 AM";"08:00 - 08:59";"04407";"Ecuplein";"4.78817670";"52.34970912";"18"
"10/26/2020 12:00:00 AM";"08:00 - 08:59";"04409";"Baden Powellweg";"4.79441281";"52.35092691";"29"
"10/26/2020 12:00:00 AM";"08:00 - 08:59";"04411";"Hoekenes";"4.80183430";"52.35243785";"16"
"10/26/2020 12:00:00 AM";"08:00 - 08:59";"04413";"Louis Davidsstraat";"4.80850916";"52.35383682";"49"
"10/26/2020 12:00:00 AM";"08:00 - 08:59";"05011";"Centraal Station";"4.89921803";"52.37810793";"120"
"10/26/2020 12:00:00 AM";"08:00 - 08:59";"05022";"Centraal Station";"4.90104337";"52.37771998";"91"
"10/26/2020 12:00:00 AM";"08:00 - 08:59";"05031";"Dam";"4.89348394";"52.37341055";"19"
"10/26/2020 12:00:00 AM";"08:00 - 08:59";"05032";"Dam";"4.89549360";"52.37492885";"10"
"10/26/2020 12:00:00 AM";"08:00 - 08:59";"05035";"Rokin";"4.89210433";"52.36939627";"10"
"10/26/2020 12:00:00 AM";"08:00 - 08:59";"05047";"Rembrandtplein";"4.89702882";"52.36623511";"24"
"10/26/2020 12:00:00 AM";"08:00 - 08:59";"05052";"Waterlooplein";"4.90234715";"52.36727262";"10"
"10/26/2020 12:00:00 AM";"08:00 - 08:59";"05062";"Spui";"4.88925912";"52.36909673";"23"
"10/26/2020 12:00:00 AM";"08:00 - 08:59";"05063";"Dam";"4.89064590";"52.37244599";"12"
"10/26/2020 12:00:00 AM";"08:00 - 08:59";"05065";"Dam";"4.89079364";"52.37367792";"31"
"10/26/2020 12:00:00 AM";"08:00 - 08:59";"05066";"Dam";"4.89027056";"52.37318140";"45"
"10/26/2020 12:00:00 AM";"08:00 - 08:59";"05069";"Nieuwezijds Kolk";"4.89373093";"52.37628765";"20"
"10/26/2020 12:00:00 AM";"08:00 - 08:59";"05070";"Nieuwezijds Kolk";"4.89284106";"52.37575366";"10"
"10/26/2020 12:00:00 AM";"08:00 - 08:59";"05073";"Westermarkt";"4.88453426";"52.37400204";"32"
"10/26/2020 12:00:00 AM";"08:00 - 08:59";"05074";"Westermarkt";"4.88354950";"52.37407874";"62"
"10/26/2020 12:00:00 AM";"08:00 - 08:59";"05077";"Marnixstraat";"4.87615428";"52.37228546";"12"
"10/26/2020 12:00:00 AM";"08:00 - 08:59";"05080";"Buiten Oranjestraat";"4.88782167";"52.38330923";"19"
"10/26/2020 12:00:00 AM";"08:00 - 08:59";"05082";"Buiten Brouwersstraat";"4.89129168";"52.38167008";"13"
"10/26/2020 12:00:00 AM";"08:00 - 08:59";"05092";"Barentszplein";"4.89160204";"52.38938281";"10"
"10/26/2020 12:00:00 AM";"08:00 - 08:59";"05097";"Centraal Station";"4.90087651";"52.37954379";"22"
"10/26/2020 12:00:00 AM";"08:00 - 08:59";"05103";"Centraal Station";"4.90127481";"52.37938365";"20"
"10/26/2020 12:00:00 AM";"08:00 - 08:59";"05104";"Centraal Station";"4.90164343";"52.37925034";"22"
"10/26/2020 12:00:00 AM";"08:00 - 08:59";"05105";"Centraal Station";"4.90187762";"52.37932321";"18"
"10/26/2020 12:00:00 AM";"08:00 - 08:59";"05107";"Centraal Station";"4.90195282";"52.37916174";"11"
"10/26/2020 12:00:00 AM";"08:00 - 08:59";"06001";"Surinameplein";"4.85252231";"52.35807034";"39"
"10/26/2020 12:00:00 AM";"08:00 - 08:59";"06002";"Surinameplein";"4.85090753";"52.35807202";"19"
"10/26/2020 12:00:00 AM";"08:00 - 08:59";"06016";"J.P. Heijestraat";"4.86239635";"52.36472951";"25"
"10/26/2020 12:00:00 AM";"08:00 - 08:59";"06019";"Ten Katestraat";"4.86737423";"52.36591988";"29"
"10/26/2020 12:00:00 AM";"08:00 - 08:59";"06020";"Ten Katestraat";"4.86773990";"52.36603832";"45"
"10/26/2020 12:00:00 AM";"08:00 - 08:59";"06021";"Bilderdijkstraat";"4.87176488";"52.36712545";"87"
"10/26/2020 12:00:00 AM";"08:00 - 08:59";"06023";"Bilderdijkstraat";"4.87254032";"52.36736251";"33"
"10/26/2020 12:00:00 AM";"08:00 - 08:59";"06024";"Kinkerstraat";"4.87230885";"52.36706491";"13"
"10/26/2020 12:00:00 AM";"08:00 - 08:59";"06025";"Kinkerstraat";"4.87201094";"52.36743211";"17"
"10/26/2020 12:00:00 AM";"08:00 - 08:59";"06027";"Elandsgracht";"4.87855189";"52.36808953";"21"
"10/26/2020 12:00:00 AM";"08:00 - 08:59";"06028";"Elandsgracht";"4.87741694";"52.36974738";"35"
"10/26/2020 12:00:00 AM";"08:00 - 08:59";"06029";"Elandsgracht";"4.87684368";"52.36852258";"67"
"10/26/2020 12:00:00 AM";"08:00 - 08:59";"06030";"Rozengracht";"4.87590932";"52.37187996";"11"
"10/26/2020 12:00:00 AM";"08:00 - 08:59";"06034";"Bilderdijkstraat";"4.87082347";"52.37105798";"18"
"10/26/2020 12:00:00 AM";"08:00 - 08:59";"06037";"Bilderdijkstraat";"4.86985701";"52.37082906";"53"
"10/26/2020 12:00:00 AM";"08:00 - 08:59";"06038";"De Clercqstraat";"4.87040279";"52.37061574";"10"
"10/26/2020 12:00:00 AM";"08:00 - 08:59";"06043";"Overtoom";"4.87510145";"52.36299659";"23"
"10/26/2020 12:00:00 AM";"08:00 - 08:59";"06044";"Overtoom";"4.87483191";"52.36345380";"15"
"10/26/2020 12:00:00 AM";"08:00 - 08:59";"06045";"1e Con. Huygensstraat";"4.87399228";"52.36242556";"34"
"10/26/2020 12:00:00 AM";"08:00 - 08:59";"06046";"1e Con. Huygensstraat";"4.87487082";"52.36262709";"75"
"10/26/2020 12:00:00 AM";"08:00 - 08:59";"06048";"J.P. Heijestraat";"4.86585368";"52.36037674";"25"
"10/26/2020 12:00:00 AM";"08:00 - 08:59";"06049";"J.P. Heijestraat";"4.86671778";"52.36055131";"18"
"10/26/2020 12:00:00 AM";"08:00 - 08:59";"06059";"Spiegelgracht";"4.88762090";"52.36071327";"13"
"10/26/2020 12:00:00 AM";"08:00 - 08:59";"06061";"Leidseplein";"4.88339576";"52.36305015";"41"
"10/26/2020 12:00:00 AM";"08:00 - 08:59";"06063";"Leidseplein";"4.88064547";"52.36476406";"19"
"10/26/2020 12:00:00 AM";"08:00 - 08:59";"06072";"Prinsengracht";"4.88428435";"52.36495933";"23"
"10/26/2020 12:00:00 AM";"08:00 - 08:59";"06074";"Keizersgracht";"4.88624128";"52.36588437";"15"
"10/26/2020 12:00:00 AM";"08:00 - 08:59";"06075";"Koningsplein";"4.88942793";"52.36713812";"11"
"10/26/2020 12:00:00 AM";"08:00 - 08:59";"06076";"Koningsplein";"4.88857910";"52.36689188";"36"
"10/26/2020 12:00:00 AM";"08:00 - 08:59";"06081";"Rhijnvis Feithstraat";"4.86039355";"52.35905833";"16"
"10/26/2020 12:00:00 AM";"08:00 - 08:59";"06082";"Rhijnvis Feithstraat";"4.85967683";"52.35883943";"18"
"10/26/2020 12:00:00 AM";"08:00 - 08:59";"06089";"Leidseplein";"4.88085541";"52.36309324";"64"
"10/26/2020 12:00:00 AM";"08:00 - 08:59";"06114";"Hoofdweg";"4.85444451";"52.36425359";"25"
"10/26/2020 12:00:00 AM";"08:00 - 08:59";"06115";"Postjesweg";"4.85319014";"52.36478720";"11"
"10/26/2020 12:00:00 AM";"08:00 - 08:59";"07002";"Van Baerlestraat";"4.87836936";"52.35839997";"30"
"10/26/2020 12:00:00 AM";"08:00 - 08:59";"07006";"Museumplein";"4.87980116";"52.35642881";"66"
"10/26/2020 12:00:00 AM";"08:00 - 08:59";"07007";"Museumplein";"4.87950215";"52.35690388";"115"
"10/26/2020 12:00:00 AM";"08:00 - 08:59";"07015";"Roelof Hartplein";"4.88206971";"52.35314900";"37"
"10/26/2020 12:00:00 AM";"08:00 - 08:59";"07016";"Roelof Hartplein";"4.88286688";"52.35274795";"82"
"10/26/2020 12:00:00 AM";"08:00 - 08:59";"07017";"Roelof Hartplein";"4.88206086";"52.35263666";"14"
"10/26/2020 12:00:00 AM";"08:00 - 08:59";"07021";"Kastelenstraat";"4.87955984";"52.32619291";"10"
"10/26/2020 12:00:00 AM";"08:00 - 08:59";"07027";"Corn. Schuytstraat";"4.87051458";"52.35597520";"23"
"10/26/2020 12:00:00 AM";"08:00 - 08:59";"07028";"Corn. Schuytstraat";"4.87088070";"52.35604870";"18"
"10/26/2020 12:00:00 AM";"08:00 - 08:59";"07031";"Valeriusplein";"4.86374943";"52.35333004";"30"
"10/26/2020 12:00:00 AM";"08:00 - 08:59";"07032";"Valeriusplein";"4.86326678";"52.35318410";"26"
"10/26/2020 12:00:00 AM";"08:00 - 08:59";"07033";"Amstelveenseweg";"4.85695925";"52.35161911";"22"
"10/26/2020 12:00:00 AM";"08:00 - 08:59";"07034";"Amstelveenseweg";"4.85596467";"52.35132704";"16"
"10/26/2020 12:00:00 AM";"08:00 - 08:59";"07048";"Hoofddorpplein";"4.85010578";"52.35154327";"17"
"10/26/2020 12:00:00 AM";"08:00 - 08:59";"07049";"Hoofddorpplein";"4.84958188";"52.35117239";"35"
"10/26/2020 12:00:00 AM";"08:00 - 08:59";"07050";"Haarlemmermeerstation";"4.85744749";"52.34883508";"14"
"10/26/2020 12:00:00 AM";"08:00 - 08:59";"07083";"Gerrit v.d. Veenstraat";"4.87735929";"52.34921014";"67"
"10/26/2020 12:00:00 AM";"08:00 - 08:59";"07084";"Gerrit v.d. Veenstraat";"4.87720177";"52.34886793";"53"
"10/26/2020 12:00:00 AM";"08:00 - 08:59";"07088";"Stadionweg";"4.87687497";"52.34665553";"22"
"10/26/2020 12:00:00 AM";"08:00 - 08:59";"07097";"Olympiaplein";"4.86582821";"52.34630180";"24"
"10/26/2020 12:00:00 AM";"08:00 - 08:59";"07098";"Olympiaplein";"4.86659057";"52.34636807";"15"
"10/26/2020 12:00:00 AM";"08:00 - 08:59";"07116";"Haarl'meerstation";"4.85760410";"52.34924023";"13"
"10/26/2020 12:00:00 AM";"08:00 - 08:59";"07186";"Pr. Irenestraat";"4.87677483";"52.34260161";"16"
"10/26/2020 12:00:00 AM";"08:00 - 08:59";"07187";"Pr. Irenestraat";"4.87678341";"52.34313193";"10"
"10/26/2020 12:00:00 AM";"08:00 - 08:59";"07190";"Station Zuid";"4.87352214";"52.34089784";"17"
"10/26/2020 12:00:00 AM";"08:00 - 08:59";"07193";"Station Zuid";"4.87334616";"52.34088808";"26"
"10/26/2020 12:00:00 AM";"08:00 - 08:59";"07195";"Oranjebaan";"4.87311228";"52.30278774";"21"
"10/26/2020 12:00:00 AM";"08:00 - 08:59";"07198";"Oranjebaan";"4.87333874";"52.30348977";"17"
"10/26/2020 12:00:00 AM";"08:00 - 08:59";"07266";"Station Zuid";"4.87252654";"52.34070477";"28"
"10/26/2020 12:00:00 AM";"08:00 - 08:59";"07268";"Station Zuid";"4.87428608";"52.34082026";"16"
"10/26/2020 12:00:00 AM";"08:00 - 08:59";"07269";"Station Zuid";"4.87374306";"52.34082689";"47"
"10/26/2020 12:00:00 AM";"08:00 - 08:59";"07270";"Parnassusweg";"4.86874218";"52.33806382";"17"
"10/26/2020 12:00:00 AM";"08:00 - 08:59";"07303";"VU medisch centrum";"4.86097062";"52.33515342";"32"
"10/26/2020 12:00:00 AM";"08:00 - 08:59";"07307";"Beethovenstraat";"4.87820649";"52.34700280";"17"
"10/26/2020 12:00:00 AM";"08:00 - 08:59";"07321";"Van Baerlestraat";"4.87895796";"52.35827667";"23"
"10/26/2020 12:00:00 AM";"08:00 - 08:59";"07322";"Van Baerlestraat";"4.87971942";"52.35844171";"38"
"10/26/2020 12:00:00 AM";"08:00 - 08:59";"07323";"Rijksmuseum";"4.88355043";"52.35977029";"31"
"10/26/2020 12:00:00 AM";"08:00 - 08:59";"07324";"Rijksmuseum";"4.88332565";"52.36017378";"14"
"10/26/2020 12:00:00 AM";"08:00 - 08:59";"07391";"Kronenburg";"4.87070592";"52.31556694";"23"
"10/26/2020 12:00:00 AM";"08:00 - 08:59";"07418";"Van Boshuizenstraat";"4.86902148";"52.32544617";"11"
"10/26/2020 12:00:00 AM";"08:00 - 08:59";"07419";"Van Boshuizenstraat";"4.86896941";"52.32487971";"209"
"10/26/2020 12:00:00 AM";"08:00 - 08:59";"07423";"Uilenstede";"4.86910951";"52.32167168";"37"
"10/26/2020 12:00:00 AM";"08:00 - 08:59";"07435";"Onderuit";"4.87243689";"52.30793483";"13"
"10/26/2020 12:00:00 AM";"08:00 - 08:59";"07439";"Oranjebaan";"4.87179001";"52.30302465";"21"
"10/26/2020 12:00:00 AM";"08:00 - 08:59";"07442";"Zonnestein";"4.87236664";"52.31146674";"14"
"10/26/2020 12:00:00 AM";"08:00 - 08:59";"07445";"Amstelveen Stadshart";"4.86751502";"52.30124433";"30"
"10/26/2020 12:00:00 AM";"08:00 - 08:59";"07448";"A.J. Ernststraat";"4.86887597";"52.33288743";"20"
"10/26/2020 12:00:00 AM";"08:00 - 08:59";"07449";"A.J. Ernststraat";"4.86879476";"52.33230287";"38"
"10/26/2020 12:00:00 AM";"08:00 - 08:59";"07504";"Langerhuize";"4.87793694";"52.29501614";"14"
"10/26/2020 12:00:00 AM";"08:00 - 08:59";"07505";"Ziekenhuis";"4.87154263";"52.29401774";"20"
"10/26/2020 12:00:00 AM";"08:00 - 08:59";"07506";"Groenhof";"4.86811736";"52.28858308";"13"
"10/26/2020 12:00:00 AM";"08:00 - 08:59";"07509";"Praam";"4.85570317";"52.27999842";"11"
"10/26/2020 12:00:00 AM";"08:00 - 08:59";"07513";"Sacharovlaan";"4.83264484";"52.28179795";"12"
"10/26/2020 12:00:00 AM";"08:00 - 08:59";"07521";"Ziekenhuis";"4.87192175";"52.29419017";"11"
"10/26/2020 12:00:00 AM";"08:00 - 08:59";"07523";"Zagerij";"4.84179654";"52.28120238";"11"
"10/26/2020 12:00:00 AM";"08:00 - 08:59";"08007";"Bob Haarmslaan";"4.96921237";"52.36876786";"60"
"10/26/2020 12:00:00 AM";"08:00 - 08:59";"08009";"Bob Haarmslaan";"4.96859205";"52.36915214";"59"
"10/26/2020 12:00:00 AM";"08:00 - 08:59";"08011";"C. van Eesterenlaan";"4.93855181";"52.37334722";"11"
"10/26/2020 12:00:00 AM";"08:00 - 08:59";"08014";"Azartplein";"4.93735640";"52.37682991";"11"
"10/26/2020 12:00:00 AM";"08:00 - 08:59";"08045";"Weesperplein";"4.91074647";"52.36172535";"68"
"10/26/2020 12:00:00 AM";"08:00 - 08:59";"08051";"K. 's-Gravesandestr.";"4.91366120";"52.36235720";"18"
"10/26/2020 12:00:00 AM";"08:00 - 08:59";"08052";"K. 's-Gravesandestr.";"4.91550720";"52.36271509";"14"
"10/26/2020 12:00:00 AM";"08:00 - 08:59";"08053";"Weesperplein";"4.90655690";"52.36088154";"20"
"10/26/2020 12:00:00 AM";"08:00 - 08:59";"08057";"Frederiksplein";"4.90024241";"52.35971430";"45"
"10/26/2020 12:00:00 AM";"08:00 - 08:59";"08058";"Veelaan";"4.93961588";"52.36830916";"15"
"10/26/2020 12:00:00 AM";"08:00 - 08:59";"08059";"Veelaan";"4.93944523";"52.36776026";"14"
"10/26/2020 12:00:00 AM";"08:00 - 08:59";"08066";"Frederiksplein";"4.89751569";"52.35937050";"28"
"10/26/2020 12:00:00 AM";"08:00 - 08:59";"08072";"Vijzelgracht";"4.89159781";"52.35953462";"27"
"10/26/2020 12:00:00 AM";"08:00 - 08:59";"08073";"Vijzelgracht";"4.89227386";"52.35946554";"17"
"10/26/2020 12:00:00 AM";"08:00 - 08:59";"08080";"Spiegelgracht";"4.88691222";"52.36106979";"48"
"10/26/2020 12:00:00 AM";"08:00 - 08:59";"08095";"Alexanderplein";"4.91969863";"52.36341478";"13"
"10/26/2020 12:00:00 AM";"08:00 - 08:59";"08097";"1e v.Swindenstraat";"4.92412105";"52.36168854";"16"
"10/26/2020 12:00:00 AM";"08:00 - 08:59";"08113";"Javaplein";"4.93949828";"52.36395867";"30"
"10/26/2020 12:00:00 AM";"08:00 - 08:59";"08114";"Javaplein";"4.93955537";"52.36412066";"18"
"10/26/2020 12:00:00 AM";"08:00 - 08:59";"08120";"Insulindeweg";"4.94763926";"52.36469021";"18"
"10/26/2020 12:00:00 AM";"08:00 - 08:59";"08124";"Soembawastraat";"4.94346569";"52.36214910";"32"
"10/26/2020 12:00:00 AM";"08:00 - 08:59";"08127";"Zuiderzeeweg";"4.96256021";"52.37344474";"36"
"10/26/2020 12:00:00 AM";"08:00 - 08:59";"08128";"Zuiderzeeweg";"4.96221150";"52.37305702";"28"
"10/26/2020 12:00:00 AM";"08:00 - 08:59";"08129";"Molukkenstraat";"4.93861286";"52.36150167";"37"
"10/26/2020 12:00:00 AM";"08:00 - 08:59";"08132";"Valentijnkade";"4.94079607";"52.35900236";"15"
"10/26/2020 12:00:00 AM";"08:00 - 08:59";"08190";"Molukkenstraat";"4.93934614";"52.36157635";"28"
"10/26/2020 12:00:00 AM";"08:00 - 08:59";"08235";"Muziekgeb. Bimhuis";"4.91290020";"52.37723779";"19"
"10/26/2020 12:00:00 AM";"08:00 - 08:59";"08237";"Kattenburgerstraat";"4.92126795";"52.37614755";"19"
"10/26/2020 12:00:00 AM";"08:00 - 08:59";"08238";"Rietlandpark";"4.93350159";"52.37322013";"25"
"10/26/2020 12:00:00 AM";"08:00 - 08:59";"08239";"Rietlandpark";"4.93413567";"52.37296191";"51"
"10/26/2020 12:00:00 AM";"08:00 - 08:59";"08241";"Zuiderzeeweg";"4.96185517";"52.37193228";"37"
"10/26/2020 12:00:00 AM";"08:00 - 08:59";"08244";"Steigereiland";"4.98083725";"52.36280456";"13"
"10/26/2020 12:00:00 AM";"08:00 - 08:59";"08245";"Steigereiland";"4.98012952";"52.36313467";"42"
"10/26/2020 12:00:00 AM";"08:00 - 08:59";"08247";"Vennepluimstraat";"4.99057242";"52.35769662";"31"
"10/26/2020 12:00:00 AM";"08:00 - 08:59";"08249";"Diemerparklaan";"4.99499716";"52.35532962";"20"
"10/26/2020 12:00:00 AM";"08:00 - 08:59";"08251";"Lumi?restraat";"4.99942127";"52.35298044";"22"
"10/26/2020 12:00:00 AM";"08:00 - 08:59";"08255";"Hoogte Kadijk";"4.92483038";"52.36687722";"14"
"10/26/2020 12:00:00 AM";"08:00 - 08:59";"08257";"1e Coehoornstraat";"4.92618328";"52.36808685";"15"
"10/26/2020 12:00:00 AM";"08:00 - 08:59";"08259";"1e Leeghwaterstraat";"4.93004964";"52.37047459";"11"
"10/26/2020 12:00:00 AM";"08:00 - 08:59";"08261";"Rietlandpark";"4.93481067";"52.37300943";"16"
"10/26/2020 12:00:00 AM";"08:00 - 08:59";"08262";"IJburg";"5.00486802";"52.35112872";"189"
"10/26/2020 12:00:00 AM";"08:00 - 08:59";"08300";"P.Oosterhuisstraat";"5.00693059";"52.35193526";"44"
"10/26/2020 12:00:00 AM";"08:00 - 08:59";"09003";"Dintelstraat";"4.89289498";"52.34192405";"20"
"10/26/2020 12:00:00 AM";"08:00 - 08:59";"09013";"Amstelstation";"4.91790223";"52.34725673";"15"
"10/26/2020 12:00:00 AM";"08:00 - 08:59";"09015";"Amstelstation";"4.91940405";"52.34679531";"15"
"10/26/2020 12:00:00 AM";"08:00 - 08:59";"09023";"Camperstraat";"4.91383551";"52.35840330";"10"
"10/26/2020 12:00:00 AM";"08:00 - 08:59";"09024";"Camperstraat";"4.91339591";"52.35832964";"11"
"10/26/2020 12:00:00 AM";"08:00 - 08:59";"09026";"Amstelstation";"4.91874992";"52.34619953";"18"
"10/26/2020 12:00:00 AM";"08:00 - 08:59";"09049";"Victorieplein";"4.90570139";"52.34637186";"27"
"10/26/2020 12:00:00 AM";"08:00 - 08:59";"09051";"Victorieplein";"4.90653699";"52.34645615";"24"
"10/26/2020 12:00:00 AM";"08:00 - 08:59";"09060";"Waalstraat";"4.90103893";"52.34462715";"13"
"10/26/2020 12:00:00 AM";"08:00 - 08:59";"09068";"Maasstraat";"4.89636198";"52.34290018";"11"
"10/26/2020 12:00:00 AM";"08:00 - 08:59";"09078";"Maasstraat";"4.89476308";"52.34681220";"14"
"10/26/2020 12:00:00 AM";"08:00 - 08:59";"09082";"Waalstraat";"4.89974094";"52.34656317";"46"
"10/26/2020 12:00:00 AM";"08:00 - 08:59";"09083";"Waalstraat";"4.90032528";"52.34680824";"59"
"10/26/2020 12:00:00 AM";"08:00 - 08:59";"09096";"Van Woustraat";"4.90163035";"52.35495650";"11"
"10/26/2020 12:00:00 AM";"08:00 - 08:59";"09097";"Van Woustraat";"4.90084070";"52.35468363";"39"
"10/26/2020 12:00:00 AM";"08:00 - 08:59";"09108";"2e v.d.Helststraat";"4.89423729";"52.35319131";"12"
"10/26/2020 12:00:00 AM";"08:00 - 08:59";"09109";"2e v.d.Helststraat";"4.89488170";"52.35331982";"24"
"10/26/2020 12:00:00 AM";"08:00 - 08:59";"09111";"De Pijp";"4.89073444";"52.35272728";"33"
"10/26/2020 12:00:00 AM";"08:00 - 08:59";"09114";"De Pijp";"4.88948829";"52.35259622";"36"
"10/26/2020 12:00:00 AM";"08:00 - 08:59";"09120";"Cornelis Troostplein";"4.89161100";"52.35046604";"35"
"10/26/2020 12:00:00 AM";"08:00 - 08:59";"09140";"Amsteldijk";"4.91055179";"52.34704760";"11"
"10/26/2020 12:00:00 AM";"08:00 - 08:59";"09175";"James Wattstraat";"4.92275924";"52.35153607";"21"
"10/26/2020 12:00:00 AM";"08:00 - 08:59";"09176";"James Wattstraat";"4.92329155";"52.35116068";"26"
"10/26/2020 12:00:00 AM";"08:00 - 08:59";"09178";"Krugerplein";"4.92080670";"52.35297542";"15"
"10/26/2020 12:00:00 AM";"08:00 - 08:59";"ASA";"Amstelstation";"4.91751426";"52.34647326";"397"
"10/26/2020 12:00:00 AM";"08:00 - 08:59";"ASW";"Amstelveenseweg";"4.85798324";"52.33836671";"364"
"10/26/2020 12:00:00 AM";"08:00 - 08:59";"BLW";"Bullewijk";"4.95233581";"52.30642205";"106"
"10/26/2020 12:00:00 AM";"08:00 - 08:59";"BMR";"Station Bijlmer ArenA";"4.94713474";"52.31193030";"440"
"10/26/2020 12:00:00 AM";"08:00 - 08:59";"CLL";"Station Lelylaan";"4.83426589";"52.35766291";"264"
"10/26/2020 12:00:00 AM";"08:00 - 08:59";"CS";"Centraal Station";"4.90078150";"52.37749421";"569"
"10/26/2020 12:00:00 AM";"08:00 - 08:59";"DMZ";"Station Diemen-Zuid";"4.95713273";"52.33042795";"59"
"10/26/2020 12:00:00 AM";"08:00 - 08:59";"DPP";"De Pijp";"4.89101069";"52.35296212";"387"
"10/26/2020 12:00:00 AM";"08:00 - 08:59";"DVD";"Station Duivendrecht";"4.93678429";"52.32325190";"100"
"10/26/2020 12:00:00 AM";"08:00 - 08:59";"EPP";"Europaplein";"4.89138430";"52.34185482";"422"
"10/26/2020 12:00:00 AM";"08:00 - 08:59";"GN";"Gein";"4.98952268";"52.29627089";"94"
"10/26/2020 12:00:00 AM";"08:00 - 08:59";"GPP";"Gaasperplas";"4.98468551";"52.31080575";"34"
"10/26/2020 12:00:00 AM";"08:00 - 08:59";"GZH";"Station Ganzenhoef";"4.97323379";"52.32331315";"73"
"10/26/2020 12:00:00 AM";"08:00 - 08:59";"HDS";"Heemstedestraat";"4.83421208";"52.35255760";"82"
"10/26/2020 12:00:00 AM";"08:00 - 08:59";"HLD";"Station Holendrecht";"4.96021904";"52.29780451";"474"
"10/26/2020 12:00:00 AM";"08:00 - 08:59";"HVW";"Henk Sneevlietweg";"4.83439318";"52.34626699";"532"
"10/26/2020 12:00:00 AM";"08:00 - 08:59";"ITW";"Isolatorweg";"4.85013475";"52.39523277";"264"
"10/26/2020 12:00:00 AM";"08:00 - 08:59";"JLS";"Jan v.Galenstraat";"4.83492461";"52.37196551";"291"
"10/26/2020 12:00:00 AM";"08:00 - 08:59";"KEN";"Kraaienneststation";"4.97963450";"52.31632492";"44"
"10/26/2020 12:00:00 AM";"08:00 - 08:59";"MDW";"Van der Madeweg";"4.93048657";"52.32945629";"109"
"10/26/2020 12:00:00 AM";"08:00 - 08:59";"ND";"Noord";"4.93123182";"52.40117202";"208"
"10/26/2020 12:00:00 AM";"08:00 - 08:59";"NDP";"Noorderpark";"4.91789115";"52.38855518";"185"
"10/26/2020 12:00:00 AM";"08:00 - 08:59";"NMT";"Nieuwmarkt";"4.90123885";"52.37194169";"125"
"10/26/2020 12:00:00 AM";"08:00 - 08:59";"OAS";"Overamstel";"4.91815361";"52.33179879";"105"
"10/26/2020 12:00:00 AM";"08:00 - 08:59";"PJW";"Postjesweg";"4.83385543";"52.36468044";"304"
"10/26/2020 12:00:00 AM";"08:00 - 08:59";"RAI";"Station RAI";"4.88982004";"52.33739931";"343"
"10/26/2020 12:00:00 AM";"08:00 - 08:59";"RGB";"Reigersbos";"4.97473728";"52.29566301";"228"
"10/26/2020 12:00:00 AM";"08:00 - 08:59";"RKN";"Rokin";"4.89229651";"52.36928023";"259"
"10/26/2020 12:00:00 AM";"08:00 - 08:59";"SLW";"Spaklerweg";"4.92085640";"52.33986250";"99"
"10/26/2020 12:00:00 AM";"08:00 - 08:59";"STD";"Station Sloterdijk";"4.83878389";"52.38880848";"291"
"10/26/2020 12:00:00 AM";"08:00 - 08:59";"SVT";"Strandvliet";"4.94152820";"52.31825469";"143"
"10/26/2020 12:00:00 AM";"08:00 - 08:59";"VLN";"Burg.de Vlugtlaan";"4.83809109";"52.37951196";"70"
"10/26/2020 12:00:00 AM";"08:00 - 08:59";"VPD";"Venserpolder";"4.94665009";"52.32679428";"88"
"10/26/2020 12:00:00 AM";"08:00 - 08:59";"VSW";"Verrijn Stuartweg";"4.96693669";"52.32844093";"51"
"10/26/2020 12:00:00 AM";"08:00 - 08:59";"VZG";"Vijzelgracht";"4.89072870";"52.35980061";"206"
"10/26/2020 12:00:00 AM";"08:00 - 08:59";"WBS";"Wibautstraat";"4.91202993";"52.35428867";"262"
"10/26/2020 12:00:00 AM";"08:00 - 08:59";"WLP";"Waterlooplein";"4.90298171";"52.36697862";"247"
"10/26/2020 12:00:00 AM";"08:00 - 08:59";"WPP";"Weesperplein";"4.90787469";"52.36120146";"378"
"10/26/2020 12:00:00 AM";"08:00 - 08:59";"WTC";"Station Zuid";"4.87509853";"52.33908015";"820"
"10/26/2020 12:00:00 AM";"09:00 - 09:59";"";"Overig";"";"";"2332"
"10/26/2020 12:00:00 AM";"09:00 - 09:59";"[[ Onb";"[[ Onbekend ]]";"0.00000000";"0.00000000";"218"
"10/26/2020 12:00:00 AM";"09:00 - 09:59";"00005";"Muiderpoortstation";"4.93280219";"52.36121887";"37"
"10/26/2020 12:00:00 AM";"09:00 - 09:59";"00007";"Muiderpoortstation";"4.93356602";"52.36117686";"19"
"10/26/2020 12:00:00 AM";"09:00 - 09:59";"00008";"Dapperstraat";"4.92977913";"52.36110836";"57"
"10/26/2020 12:00:00 AM";"09:00 - 09:59";"00010";"Dapperstraat";"4.92891486";"52.36092527";"29"
"10/26/2020 12:00:00 AM";"09:00 - 09:59";"00014";"Wijttenbachstraat";"4.92507537";"52.36027221";"13"
"10/26/2020 12:00:00 AM";"09:00 - 09:59";"00017";"Linnaeusstraat";"4.92573745";"52.36013099";"16"
"10/26/2020 12:00:00 AM";"09:00 - 09:59";"00020";"Beukenweg";"4.91674979";"52.35906203";"20"
"10/26/2020 12:00:00 AM";"09:00 - 09:59";"00021";"Beukenweg";"4.91721293";"52.35829991";"26"
"10/26/2020 12:00:00 AM";"09:00 - 09:59";"00023";"Beukenplein";"4.91809259";"52.35701816";"18"
"10/26/2020 12:00:00 AM";"09:00 - 09:59";"00029";"Oostpoort";"4.92719316";"52.35707185";"32"
"10/26/2020 12:00:00 AM";"09:00 - 09:59";"00030";"Oostpoort";"4.92694026";"52.35739442";"34"
"10/26/2020 12:00:00 AM";"09:00 - 09:59";"00040";"Hogeweg";"4.93135765";"52.35321425";"18"
"10/26/2020 12:00:00 AM";"09:00 - 09:59";"00059";"Radioweg";"4.93945830";"52.35337100";"13"
"10/26/2020 12:00:00 AM";"09:00 - 09:59";"00070";"Kruislaan";"4.93993910";"52.34789929";"15"
"10/26/2020 12:00:00 AM";"09:00 - 09:59";"00074";"Brinkstraat";"4.94797289";"52.34285131";"10"
"10/26/2020 12:00:00 AM";"09:00 - 09:59";"00114";"Dennenrode";"4.95213839";"52.32209601";"14"
"10/26/2020 12:00:00 AM";"09:00 - 09:59";"00141";"Kraaienneststation";"4.97868390";"52.31603403";"13"
"10/26/2020 12:00:00 AM";"09:00 - 09:59";"00150";"Tulastraat";"4.96535973";"52.31994189";"22"
"10/26/2020 12:00:00 AM";"09:00 - 09:59";"00151";"Tulastraat";"4.96584458";"52.31985374";"28"
"10/26/2020 12:00:00 AM";"09:00 - 09:59";"00180";"Kelbergen";"4.97143303";"52.31354612";"11"
"10/26/2020 12:00:00 AM";"09:00 - 09:59";"00197";"Annie Romeinplein";"4.97162041";"52.32173463";"20"
"10/26/2020 12:00:00 AM";"09:00 - 09:59";"00238";"Anton de Komplein";"4.95413359";"52.31603659";"38"
"10/26/2020 12:00:00 AM";"09:00 - 09:59";"00239";"Anton de Komplein";"4.95597669";"52.31652866";"11"
"10/26/2020 12:00:00 AM";"09:00 - 09:59";"00331";"Station Reigersbos";"4.97350466";"52.29737537";"18"
"10/26/2020 12:00:00 AM";"09:00 - 09:59";"00351";"Dostojevskisingel";"4.94525272";"52.32275356";"22"
"10/26/2020 12:00:00 AM";"09:00 - 09:59";"00432";"Diemerbrug";"4.96142958";"52.33824484";"11"
"10/26/2020 12:00:00 AM";"09:00 - 09:59";"00434";"Bijlmerplein";"4.95032022";"52.31457553";"13"
"10/26/2020 12:00:00 AM";"09:00 - 09:59";"00441";"Muiderpoortstation";"4.93254137";"52.36088532";"15"
"10/26/2020 12:00:00 AM";"09:00 - 09:59";"00444";"Linnaeusstraat";"4.92490296";"52.35991203";"27"
"10/26/2020 12:00:00 AM";"09:00 - 09:59";"00453";"Diemen Sniep";"4.96964866";"52.33644962";"12"
"10/26/2020 12:00:00 AM";"09:00 - 09:59";"00464";"Hogeschool InHolland";"4.95958754";"52.32687769";"11"
"10/26/2020 12:00:00 AM";"09:00 - 09:59";"00491";"Science Park Aer";"4.95218495";"52.35478458";"10"
"10/26/2020 12:00:00 AM";"09:00 - 09:59";"00518";"Foppingadreef";"4.94967889";"52.31268573";"13"
"10/26/2020 12:00:00 AM";"09:00 - 09:59";"00552";"Kraaienneststation";"4.98156548";"52.31686183";"11"
"10/26/2020 12:00:00 AM";"09:00 - 09:59";"00553";"Kraaienneststation";"4.98073727";"52.31601414";"10"
"10/26/2020 12:00:00 AM";"09:00 - 09:59";"00560";"Station Bijlmer ArenA";"4.94747867";"52.31125750";"12"
"10/26/2020 12:00:00 AM";"09:00 - 09:59";"00561";"Station Bijlmer ArenA";"4.94741931";"52.31132918";"28"
"10/26/2020 12:00:00 AM";"09:00 - 09:59";"00568";"Station Bijlmer ArenA";"4.94762664";"52.31112323";"15"
"10/26/2020 12:00:00 AM";"09:00 - 09:59";"00603";"V. Houten Ind.park";"5.03580865";"52.30648376";"11"
"10/26/2020 12:00:00 AM";"09:00 - 09:59";"01110";"Rode Kruisstraat";"4.92847908";"52.39455548";"20"
"10/26/2020 12:00:00 AM";"09:00 - 09:59";"01111";"Rode Kruisstraat";"4.92881363";"52.39488033";"73"
"10/26/2020 12:00:00 AM";"09:00 - 09:59";"01116";"Merelstraat";"4.92492850";"52.38986809";"10"
"10/26/2020 12:00:00 AM";"09:00 - 09:59";"01151";"Mosplein";"4.91407704";"52.39357310";"11"
"10/26/2020 12:00:00 AM";"09:00 - 09:59";"01191";"Pinksterbloemstraat";"4.91203754";"52.39881372";"12"
"10/26/2020 12:00:00 AM";"09:00 - 09:59";"01237";"Beemsterstraat";"4.95210741";"52.39712521";"10"
"10/26/2020 12:00:00 AM";"09:00 - 09:59";"01278";"Statenjachtstraat";"4.91380643";"52.40790731";"10"
"10/26/2020 12:00:00 AM";"09:00 - 09:59";"01305";"Station Noord";"4.93215715";"52.40264056";"14"
"10/26/2020 12:00:00 AM";"09:00 - 09:59";"01315";"Station Noord";"4.93339740";"52.40206112";"41"
"10/26/2020 12:00:00 AM";"09:00 - 09:59";"01316";"Station Noord";"4.93336820";"52.40204304";"26"
"10/26/2020 12:00:00 AM";"09:00 - 09:59";"01352";"Oosterlengte";"4.92206974";"52.40611555";"10"
"10/26/2020 12:00:00 AM";"09:00 - 09:59";"01365";"Atat?rk";"4.89794256";"52.40319625";"11"
"10/26/2020 12:00:00 AM";"09:00 - 09:59";"01402";"Floraweg";"4.90614362";"52.39899665";"11"
"10/26/2020 12:00:00 AM";"09:00 - 09:59";"01417";"Johan v.Hasseltweg";"4.92309870";"52.38784770";"15"
"10/26/2020 12:00:00 AM";"09:00 - 09:59";"01422";"Noorderpark";"4.91956087";"52.38902016";"17"
"10/26/2020 12:00:00 AM";"09:00 - 09:59";"02018";"Koivistokade";"4.87577082";"52.39789874";"14"
"10/26/2020 12:00:00 AM";"09:00 - 09:59";"02019";"Koivistokade";"4.87537403";"52.39790601";"14"
"10/26/2020 12:00:00 AM";"09:00 - 09:59";"02081";"Haparandaweg";"4.87212228";"52.39451255";"15"
"10/26/2020 12:00:00 AM";"09:00 - 09:59";"02103";"Spaarndammerstraat";"4.87765867";"52.39216375";"20"
"10/26/2020 12:00:00 AM";"09:00 - 09:59";"02106";"Assendelftstraat";"4.87943840";"52.38941217";"10"
"10/26/2020 12:00:00 AM";"09:00 - 09:59";"02113";"Haarlemmerplein";"4.88371739";"52.38516129";"17"
"10/26/2020 12:00:00 AM";"09:00 - 09:59";"02114";"Haarlemmerplein";"4.88341252";"52.38484542";"33"
"10/26/2020 12:00:00 AM";"09:00 - 09:59";"02130";"Hugo de Grootplein";"4.87259092";"52.37439113";"12"
"10/26/2020 12:00:00 AM";"09:00 - 09:59";"02132";"Fred. Hendrikplants.";"4.87543499";"52.37862768";"40"
"10/26/2020 12:00:00 AM";"09:00 - 09:59";"02153";"Nassaukade";"4.87920791";"52.38132226";"10"
"10/26/2020 12:00:00 AM";"09:00 - 09:59";"02155";"Willem de Zwijgerlaan";"4.86360306";"52.37071170";"17"
"10/26/2020 12:00:00 AM";"09:00 - 09:59";"02156";"Willem de Zwijgerlaan";"4.86425293";"52.37039101";"18"
"10/26/2020 12:00:00 AM";"09:00 - 09:59";"02157";"Adm. de Ruijterweg";"4.86009910";"52.37148707";"14"
"10/26/2020 12:00:00 AM";"09:00 - 09:59";"02158";"Adm. de Ruijterweg";"4.86096776";"52.37129320";"20"
"10/26/2020 12:00:00 AM";"09:00 - 09:59";"02167";"Bos en Lommerweg";"4.85380049";"52.38118358";"17"
"10/26/2020 12:00:00 AM";"09:00 - 09:59";"02171";"Wiltzanghlaan";"4.85060722";"52.38290378";"13"
"10/26/2020 12:00:00 AM";"09:00 - 09:59";"02182";"Markthallen";"4.86695146";"52.37567869";"11"
"10/26/2020 12:00:00 AM";"09:00 - 09:59";"02192";"Marnixplein";"4.87860283";"52.37773357";"10"
"10/26/2020 12:00:00 AM";"09:00 - 09:59";"02193";"Marnixplein";"4.87844490";"52.37741832";"36"
"10/26/2020 12:00:00 AM";"09:00 - 09:59";"02221";"Jan v.Galenstraat";"4.85842340";"52.37532634";"12"
"10/26/2020 12:00:00 AM";"09:00 - 09:59";"02222";"Jan van Galenstraat";"4.85874763";"52.37399761";"11"
"10/26/2020 12:00:00 AM";"09:00 - 09:59";"02259";"Contactweg";"4.85657970";"52.39195435";"68"
"10/26/2020 12:00:00 AM";"09:00 - 09:59";"02260";"Contactweg";"4.85432952";"52.39215995";"31"
"10/26/2020 12:00:00 AM";"09:00 - 09:59";"02301";"Fred. Hendrikplants.";"4.87521585";"52.37852787";"10"
"10/26/2020 12:00:00 AM";"09:00 - 09:59";"02302";"Fred. Hendrikplants.";"4.87549415";"52.37859198";"40"
"10/26/2020 12:00:00 AM";"09:00 - 09:59";"02309";"Plesostraat";"4.82645527";"52.38795084";"34"
"10/26/2020 12:00:00 AM";"09:00 - 09:59";"02310";"Plesostraat";"4.82849791";"52.38788859";"30"
"10/26/2020 12:00:00 AM";"09:00 - 09:59";"02321";"Van Hallstraat";"4.86864429";"52.38538386";"11"
"10/26/2020 12:00:00 AM";"09:00 - 09:59";"02361";"Station Sloterdijk";"4.83931858";"52.38833460";"28"
"10/26/2020 12:00:00 AM";"09:00 - 09:59";"02365";"Station Sloterdijk";"4.83873236";"52.38822404";"19"
"10/26/2020 12:00:00 AM";"09:00 - 09:59";"02366";"Station Sloterdijk";"4.83873347";"52.38813416";"14"
"10/26/2020 12:00:00 AM";"09:00 - 09:59";"02367";"Station Sloterdijk";"4.83876429";"52.38801747";"17"
"10/26/2020 12:00:00 AM";"09:00 - 09:59";"02370";"Station Sloterdijk";"4.83879745";"52.38771204";"22"
"10/26/2020 12:00:00 AM";"09:00 - 09:59";"03009";"Witte de Withstraat";"4.85851970";"52.36478416";"30"
"10/26/2020 12:00:00 AM";"09:00 - 09:59";"03010";"Witte de Withstraat";"4.85928290";"52.36480554";"16"
"10/26/2020 12:00:00 AM";"09:00 - 09:59";"03025";"Jan v.Galenstraat";"4.84854861";"52.37342137";"11"
"10/26/2020 12:00:00 AM";"09:00 - 09:59";"03028";"Jan van Galenstraat";"4.84921138";"52.37204926";"10"
"10/26/2020 12:00:00 AM";"09:00 - 09:59";"03034";"Erasmusgracht";"4.84691117";"52.37644278";"10"
"10/26/2020 12:00:00 AM";"09:00 - 09:59";"03052";"Burg. Eliasstraat";"4.82565009";"52.38077481";"30"
"10/26/2020 12:00:00 AM";"09:00 - 09:59";"03061";"Bos en Lommerplein";"4.84523530";"52.37778328";"14"
"10/26/2020 12:00:00 AM";"09:00 - 09:59";"03076";"Jan Tooropstraat";"4.83810313";"52.37142305";"14"
"10/26/2020 12:00:00 AM";"09:00 - 09:59";"03077";"Jan Tooropstraat";"4.83817288";"52.37171997";"13"
"10/26/2020 12:00:00 AM";"09:00 - 09:59";"03087";"Plein '40 - '45";"4.82063128";"52.38159575";"12"
"10/26/2020 12:00:00 AM";"09:00 - 09:59";"03090";"Slotermeerlaan";"4.81728149";"52.37596234";"15"
"10/26/2020 12:00:00 AM";"09:00 - 09:59";"03100";"Dr. H. Colijnstraat";"4.80626901";"52.37695140";"11"
"10/26/2020 12:00:00 AM";"09:00 - 09:59";"03108";"Herman Bonpad";"4.80080718";"52.36796367";"43"
"10/26/2020 12:00:00 AM";"09:00 - 09:59";"03111";"Troelstralaan";"4.80203610";"52.37498021";"10"
"10/26/2020 12:00:00 AM";"09:00 - 09:59";"03121";"Aalbersestraat";"4.79774249";"52.38202329";"15"
"10/26/2020 12:00:00 AM";"09:00 - 09:59";"03129";"Plein '40 - '45";"4.82112672";"52.38075328";"26"
"10/26/2020 12:00:00 AM";"09:00 - 09:59";"03145";"J. Cabeliaustraat";"4.80409638";"52.38246819";"10"
"10/26/2020 12:00:00 AM";"09:00 - 09:59";"03150";"Mercatorplein";"4.85011339";"52.37031872";"11"
"10/26/2020 12:00:00 AM";"09:00 - 09:59";"03157";"Lambertus Zijlplein";"4.80338637";"52.37726977";"11"
"10/26/2020 12:00:00 AM";"09:00 - 09:59";"03167";"Bos en Lommerplein";"4.84650668";"52.37709704";"42"
"10/26/2020 12:00:00 AM";"09:00 - 09:59";"03168";"Mercatorplein";"4.85152392";"52.37024423";"20"
"10/26/2020 12:00:00 AM";"09:00 - 09:59";"03169";"Jan v.Galenstraat";"4.83601291";"52.37301316";"20"
"10/26/2020 12:00:00 AM";"09:00 - 09:59";"03171";"Burg. Rendorpstraat";"4.82768433";"52.37436719";"12"
"10/26/2020 12:00:00 AM";"09:00 - 09:59";"03172";"Burg. Rendorpstraat";"4.82691962";"52.37445346";"12"
"10/26/2020 12:00:00 AM";"09:00 - 09:59";"03178";"Mercatorplein";"4.84991664";"52.37080317";"12"
"10/26/2020 12:00:00 AM";"09:00 - 09:59";"03198";"W. Schoutenstraat";"4.85259061";"52.36702245";"13"
"10/26/2020 12:00:00 AM";"09:00 - 09:59";"04008";"Dijkgraafplein";"4.78646982";"52.35545267";"12"
"10/26/2020 12:00:00 AM";"09:00 - 09:59";"04012";"Baden Powellweg";"4.79137362";"52.35646612";"14"
"10/26/2020 12:00:00 AM";"09:00 - 09:59";"04016";"Hoekenes";"4.79854723";"52.35791310";"19"
"10/26/2020 12:00:00 AM";"09:00 - 09:59";"04021";"Osdorpplein";"4.80322868";"52.35913166";"43"
"10/26/2020 12:00:00 AM";"09:00 - 09:59";"04043";"Ruimzicht";"4.80749209";"52.35978176";"33"
"10/26/2020 12:00:00 AM";"09:00 - 09:59";"04050";"Meer en Vaart";"4.80994403";"52.35636940";"28"
"10/26/2020 12:00:00 AM";"09:00 - 09:59";"04060";"Derkinderenstraat";"4.83972293";"52.35796689";"10"
"10/26/2020 12:00:00 AM";"09:00 - 09:59";"04062";"Johan Huizingalaan";"4.82582327";"52.35781191";"10"
"10/26/2020 12:00:00 AM";"09:00 - 09:59";"04063";"Johan Huizingalaan";"4.82626398";"52.35778704";"10"
"10/26/2020 12:00:00 AM";"09:00 - 09:59";"04064";"Ruimzicht";"4.80806527";"52.35860717";"10"
"10/26/2020 12:00:00 AM";"09:00 - 09:59";"04112";"Johan Huizingalaan";"4.82742878";"52.34923618";"19"
"10/26/2020 12:00:00 AM";"09:00 - 09:59";"04148";"Louis Davidsstraat";"4.80952552";"52.35356316";"20"
"10/26/2020 12:00:00 AM";"09:00 - 09:59";"04195";"Station Lelylaan";"4.83460082";"52.35788018";"41"
"10/26/2020 12:00:00 AM";"09:00 - 09:59";"04196";"Station Lelylaan";"4.83382251";"52.35790351";"37"
"10/26/2020 12:00:00 AM";"09:00 - 09:59";"04405";"Inaristraat";"4.78342793";"52.35030515";"11"
"10/26/2020 12:00:00 AM";"09:00 - 09:59";"04407";"Ecuplein";"4.78817670";"52.34970912";"12"
"10/26/2020 12:00:00 AM";"09:00 - 09:59";"04409";"Baden Powellweg";"4.79441281";"52.35092691";"32"
"10/26/2020 12:00:00 AM";"09:00 - 09:59";"04411";"Hoekenes";"4.80183430";"52.35243785";"14"
"10/26/2020 12:00:00 AM";"09:00 - 09:59";"04413";"Louis Davidsstraat";"4.80850916";"52.35383682";"32"
"10/26/2020 12:00:00 AM";"09:00 - 09:59";"05011";"Centraal Station";"4.89921803";"52.37810793";"116"
"10/26/2020 12:00:00 AM";"09:00 - 09:59";"05022";"Centraal Station";"4.90104337";"52.37771998";"104"
"10/26/2020 12:00:00 AM";"09:00 - 09:59";"05031";"Dam";"4.89348394";"52.37341055";"22"
"10/26/2020 12:00:00 AM";"09:00 - 09:59";"05032";"Dam";"4.89549360";"52.37492885";"24"
"10/26/2020 12:00:00 AM";"09:00 - 09:59";"05035";"Rokin";"4.89210433";"52.36939627";"15"
"10/26/2020 12:00:00 AM";"09:00 - 09:59";"05036";"Rokin";"4.89230478";"52.36985548";"16"
"10/26/2020 12:00:00 AM";"09:00 - 09:59";"05046";"Rembrandtplein";"4.89627976";"52.36625897";"13"
"10/26/2020 12:00:00 AM";"09:00 - 09:59";"05047";"Rembrandtplein";"4.89702882";"52.36623511";"28"
"10/26/2020 12:00:00 AM";"09:00 - 09:59";"05062";"Spui";"4.88925912";"52.36909673";"14"
"10/26/2020 12:00:00 AM";"09:00 - 09:59";"05063";"Dam";"4.89064590";"52.37244599";"20"
"10/26/2020 12:00:00 AM";"09:00 - 09:59";"05065";"Dam";"4.89079364";"52.37367792";"33"
"10/26/2020 12:00:00 AM";"09:00 - 09:59";"05066";"Dam";"4.89027056";"52.37318140";"54"
"10/26/2020 12:00:00 AM";"09:00 - 09:59";"05069";"Nieuwezijds Kolk";"4.89373093";"52.37628765";"23"
"10/26/2020 12:00:00 AM";"09:00 - 09:59";"05070";"Nieuwezijds Kolk";"4.89284106";"52.37575366";"11"
"10/26/2020 12:00:00 AM";"09:00 - 09:59";"05073";"Westermarkt";"4.88453426";"52.37400204";"25"
"10/26/2020 12:00:00 AM";"09:00 - 09:59";"05074";"Westermarkt";"4.88354950";"52.37407874";"49"
"10/26/2020 12:00:00 AM";"09:00 - 09:59";"05077";"Marnixstraat";"4.87615428";"52.37228546";"37"
"10/26/2020 12:00:00 AM";"09:00 - 09:59";"05080";"Buiten Oranjestraat";"4.88782167";"52.38330923";"12"
"10/26/2020 12:00:00 AM";"09:00 - 09:59";"05082";"Buiten Brouwersstraat";"4.89129168";"52.38167008";"10"
"10/26/2020 12:00:00 AM";"09:00 - 09:59";"05097";"Centraal Station";"4.90087651";"52.37954379";"20"
"10/26/2020 12:00:00 AM";"09:00 - 09:59";"05103";"Centraal Station";"4.90127481";"52.37938365";"17"
"10/26/2020 12:00:00 AM";"09:00 - 09:59";"05104";"Centraal Station";"4.90164343";"52.37925034";"12"
"10/26/2020 12:00:00 AM";"09:00 - 09:59";"05105";"Centraal Station";"4.90187762";"52.37932321";"10"
"10/26/2020 12:00:00 AM";"09:00 - 09:59";"05154";"Marnixstraat";"4.87536375";"52.37207533";"13"
"10/26/2020 12:00:00 AM";"09:00 - 09:59";"06001";"Surinameplein";"4.85252231";"52.35807034";"34"
"10/26/2020 12:00:00 AM";"09:00 - 09:59";"06002";"Surinameplein";"4.85090753";"52.35807202";"13"
"10/26/2020 12:00:00 AM";"09:00 - 09:59";"06016";"J.P. Heijestraat";"4.86239635";"52.36472951";"22"
"10/26/2020 12:00:00 AM";"09:00 - 09:59";"06017";"J.P. Heijestraat";"4.86292316";"52.36487565";"12"
"10/26/2020 12:00:00 AM";"09:00 - 09:59";"06019";"Ten Katestraat";"4.86737423";"52.36591988";"22"
"10/26/2020 12:00:00 AM";"09:00 - 09:59";"06020";"Ten Katestraat";"4.86773990";"52.36603832";"33"
"10/26/2020 12:00:00 AM";"09:00 - 09:59";"06021";"Bilderdijkstraat";"4.87176488";"52.36712545";"32"
"10/26/2020 12:00:00 AM";"09:00 - 09:59";"06023";"Bilderdijkstraat";"4.87254032";"52.36736251";"25"
"10/26/2020 12:00:00 AM";"09:00 - 09:59";"06024";"Kinkerstraat";"4.87230885";"52.36706491";"15"
"10/26/2020 12:00:00 AM";"09:00 - 09:59";"06027";"Elandsgracht";"4.87855189";"52.36808953";"20"
"10/26/2020 12:00:00 AM";"09:00 - 09:59";"06028";"Elandsgracht";"4.87741694";"52.36974738";"47"
"10/26/2020 12:00:00 AM";"09:00 - 09:59";"06029";"Elandsgracht";"4.87684368";"52.36852258";"80"
"10/26/2020 12:00:00 AM";"09:00 - 09:59";"06030";"Rozengracht";"4.87590932";"52.37187996";"19"
"10/26/2020 12:00:00 AM";"09:00 - 09:59";"06034";"Bilderdijkstraat";"4.87082347";"52.37105798";"10"
"10/26/2020 12:00:00 AM";"09:00 - 09:59";"06037";"Bilderdijkstraat";"4.86985701";"52.37082906";"33"
"10/26/2020 12:00:00 AM";"09:00 - 09:59";"06044";"Overtoom";"4.87483191";"52.36345380";"16"
"10/26/2020 12:00:00 AM";"09:00 - 09:59";"06045";"1e Con. Huygensstraat";"4.87399228";"52.36242556";"14"
"10/26/2020 12:00:00 AM";"09:00 - 09:59";"06046";"1e Con. Huygensstraat";"4.87487082";"52.36262709";"31"
"10/26/2020 12:00:00 AM";"09:00 - 09:59";"06048";"J.P. Heijestraat";"4.86585368";"52.36037674";"21"
"10/26/2020 12:00:00 AM";"09:00 - 09:59";"06049";"J.P. Heijestraat";"4.86671778";"52.36055131";"13"
"10/26/2020 12:00:00 AM";"09:00 - 09:59";"06059";"Spiegelgracht";"4.88762090";"52.36071327";"13"
"10/26/2020 12:00:00 AM";"09:00 - 09:59";"06061";"Leidseplein";"4.88339576";"52.36305015";"56"
"10/26/2020 12:00:00 AM";"09:00 - 09:59";"06063";"Leidseplein";"4.88064547";"52.36476406";"26"
"10/26/2020 12:00:00 AM";"09:00 - 09:59";"06067";"Leidseplein";"4.88301434";"52.36431580";"11"
"10/26/2020 12:00:00 AM";"09:00 - 09:59";"06072";"Prinsengracht";"4.88428435";"52.36495933";"28"
"10/26/2020 12:00:00 AM";"09:00 - 09:59";"06074";"Keizersgracht";"4.88624128";"52.36588437";"25"
"10/26/2020 12:00:00 AM";"09:00 - 09:59";"06075";"Koningsplein";"4.88942793";"52.36713812";"24"
"10/26/2020 12:00:00 AM";"09:00 - 09:59";"06076";"Koningsplein";"4.88857910";"52.36689188";"41"
"10/26/2020 12:00:00 AM";"09:00 - 09:59";"06081";"Rhijnvis Feithstraat";"4.86039355";"52.35905833";"12"
"10/26/2020 12:00:00 AM";"09:00 - 09:59";"06082";"Rhijnvis Feithstraat";"4.85967683";"52.35883943";"11"
"10/26/2020 12:00:00 AM";"09:00 - 09:59";"06089";"Leidseplein";"4.88085541";"52.36309324";"51"
"10/26/2020 12:00:00 AM";"09:00 - 09:59";"06114";"Hoofdweg";"4.85444451";"52.36425359";"17"
"10/26/2020 12:00:00 AM";"09:00 - 09:59";"07002";"Van Baerlestraat";"4.87836936";"52.35839997";"10"
"10/26/2020 12:00:00 AM";"09:00 - 09:59";"07005";"De Boelelaan/VU";"4.86720539";"52.33522592";"12"
"10/26/2020 12:00:00 AM";"09:00 - 09:59";"07006";"Museumplein";"4.87980116";"52.35642881";"52"
"10/26/2020 12:00:00 AM";"09:00 - 09:59";"07007";"Museumplein";"4.87950215";"52.35690388";"115"
"10/26/2020 12:00:00 AM";"09:00 - 09:59";"07015";"Roelof Hartplein";"4.88206971";"52.35314900";"30"
"10/26/2020 12:00:00 AM";"09:00 - 09:59";"07016";"Roelof Hartplein";"4.88286688";"52.35274795";"52"
"10/26/2020 12:00:00 AM";"09:00 - 09:59";"07017";"Roelof Hartplein";"4.88206086";"52.35263666";"20"
"10/26/2020 12:00:00 AM";"09:00 - 09:59";"07027";"Corn. Schuytstraat";"4.87051458";"52.35597520";"16"
"10/26/2020 12:00:00 AM";"09:00 - 09:59";"07028";"Corn. Schuytstraat";"4.87088070";"52.35604870";"11"
"10/26/2020 12:00:00 AM";"09:00 - 09:59";"07031";"Valeriusplein";"4.86374943";"52.35333004";"22"
"10/26/2020 12:00:00 AM";"09:00 - 09:59";"07032";"Valeriusplein";"4.86326678";"52.35318410";"17"
"10/26/2020 12:00:00 AM";"09:00 - 09:59";"07033";"Amstelveenseweg";"4.85695925";"52.35161911";"12"
"10/26/2020 12:00:00 AM";"09:00 - 09:59";"07035";"Zeilstraat";"4.85672894";"52.35124059";"12"
"10/26/2020 12:00:00 AM";"09:00 - 09:59";"07049";"Hoofddorpplein";"4.84958188";"52.35117239";"17"
"10/26/2020 12:00:00 AM";"09:00 - 09:59";"07083";"Gerrit v.d. Veenstraat";"4.87735929";"52.34921014";"23"
"10/26/2020 12:00:00 AM";"09:00 - 09:59";"07084";"Gerrit v.d. Veenstraat";"4.87720177";"52.34886793";"15"
"10/26/2020 12:00:00 AM";"09:00 - 09:59";"07088";"Stadionweg";"4.87687497";"52.34665553";"13"
"10/26/2020 12:00:00 AM";"09:00 - 09:59";"07097";"Olympiaplein";"4.86582821";"52.34630180";"17"
"10/26/2020 12:00:00 AM";"09:00 - 09:59";"07098";"Olympiaplein";"4.86659057";"52.34636807";"12"
"10/26/2020 12:00:00 AM";"09:00 - 09:59";"07190";"Station Zuid";"4.87352214";"52.34089784";"11"
"10/26/2020 12:00:00 AM";"09:00 - 09:59";"07193";"Station Zuid";"4.87334616";"52.34088808";"15"
"10/26/2020 12:00:00 AM";"09:00 - 09:59";"07195";"Oranjebaan";"4.87311228";"52.30278774";"18"
"10/26/2020 12:00:00 AM";"09:00 - 09:59";"07198";"Oranjebaan";"4.87333874";"52.30348977";"11"
"10/26/2020 12:00:00 AM";"09:00 - 09:59";"07266";"Station Zuid";"4.87252654";"52.34070477";"16"
"10/26/2020 12:00:00 AM";"09:00 - 09:59";"07268";"Station Zuid";"4.87428608";"52.34082026";"12"
"10/26/2020 12:00:00 AM";"09:00 - 09:59";"07269";"Station Zuid";"4.87374306";"52.34082689";"17"
"10/26/2020 12:00:00 AM";"09:00 - 09:59";"07270";"Parnassusweg";"4.86874218";"52.33806382";"10"
"10/26/2020 12:00:00 AM";"09:00 - 09:59";"07303";"VU medisch centrum";"4.86097062";"52.33515342";"21"
"10/26/2020 12:00:00 AM";"09:00 - 09:59";"07321";"Van Baerlestraat";"4.87895796";"52.35827667";"22"
"10/26/2020 12:00:00 AM";"09:00 - 09:59";"07322";"Van Baerlestraat";"4.87971942";"52.35844171";"43"
"10/26/2020 12:00:00 AM";"09:00 - 09:59";"07323";"Rijksmuseum";"4.88355043";"52.35977029";"32"
"10/26/2020 12:00:00 AM";"09:00 - 09:59";"07418";"Van Boshuizenstraat";"4.86902148";"52.32544617";"10"
"10/26/2020 12:00:00 AM";"09:00 - 09:59";"07419";"Van Boshuizenstraat";"4.86896941";"52.32487971";"60"
"10/26/2020 12:00:00 AM";"09:00 - 09:59";"07423";"Uilenstede";"4.86910951";"52.32167168";"18"
"10/26/2020 12:00:00 AM";"09:00 - 09:59";"07439";"Oranjebaan";"4.87179001";"52.30302465";"11"
"10/26/2020 12:00:00 AM";"09:00 - 09:59";"07448";"A.J. Ernststraat";"4.86887597";"52.33288743";"12"
"10/26/2020 12:00:00 AM";"09:00 - 09:59";"07449";"A.J. Ernststraat";"4.86879476";"52.33230287";"21"
"10/26/2020 12:00:00 AM";"09:00 - 09:59";"07505";"Ziekenhuis";"4.87154263";"52.29401774";"14"
"10/26/2020 12:00:00 AM";"09:00 - 09:59";"07506";"Groenhof";"4.86811736";"52.28858308";"14"
"10/26/2020 12:00:00 AM";"09:00 - 09:59";"07513";"Sacharovlaan";"4.83264484";"52.28179795";"13"
"10/26/2020 12:00:00 AM";"09:00 - 09:59";"08007";"Bob Haarmslaan";"4.96921237";"52.36876786";"13"
"10/26/2020 12:00:00 AM";"09:00 - 09:59";"08011";"C. van Eesterenlaan";"4.93855181";"52.37334722";"11"
"10/26/2020 12:00:00 AM";"09:00 - 09:59";"08013";"Azartplein";"4.93734445";"52.37656023";"10"
"10/26/2020 12:00:00 AM";"09:00 - 09:59";"08014";"Azartplein";"4.93735640";"52.37682991";"10"
"10/26/2020 12:00:00 AM";"09:00 - 09:59";"08043";"Artis";"4.91141423";"52.36653646";"17"
"10/26/2020 12:00:00 AM";"09:00 - 09:59";"08045";"Weesperplein";"4.91074647";"52.36172535";"40"
"10/26/2020 12:00:00 AM";"09:00 - 09:59";"08050";"Alexanderplein";"4.91867098";"52.36341072";"11"
"10/26/2020 12:00:00 AM";"09:00 - 09:59";"08053";"Weesperplein";"4.90655690";"52.36088154";"13"
"10/26/2020 12:00:00 AM";"09:00 - 09:59";"08057";"Frederiksplein";"4.90024241";"52.35971430";"33"
"10/26/2020 12:00:00 AM";"09:00 - 09:59";"08058";"Veelaan";"4.93961588";"52.36830916";"10"
"10/26/2020 12:00:00 AM";"09:00 - 09:59";"08066";"Frederiksplein";"4.89751569";"52.35937050";"23"
"10/26/2020 12:00:00 AM";"09:00 - 09:59";"08072";"Vijzelgracht";"4.89159781";"52.35953462";"13"
"10/26/2020 12:00:00 AM";"09:00 - 09:59";"08073";"Vijzelgracht";"4.89227386";"52.35946554";"23"
"10/26/2020 12:00:00 AM";"09:00 - 09:59";"08080";"Spiegelgracht";"4.88691222";"52.36106979";"41"
"10/26/2020 12:00:00 AM";"09:00 - 09:59";"08094";"Wijttenbachstraat";"4.92547668";"52.35979743";"10"
"10/26/2020 12:00:00 AM";"09:00 - 09:59";"08095";"Alexanderplein";"4.91969863";"52.36341478";"24"
"10/26/2020 12:00:00 AM";"09:00 - 09:59";"08098";"1e v.Swindenstraat";"4.92386708";"52.36210997";"23"
"10/26/2020 12:00:00 AM";"09:00 - 09:59";"08113";"Javaplein";"4.93949828";"52.36395867";"14"
"10/26/2020 12:00:00 AM";"09:00 - 09:59";"08114";"Javaplein";"4.93955537";"52.36412066";"16"
"10/26/2020 12:00:00 AM";"09:00 - 09:59";"08120";"Insulindeweg";"4.94763926";"52.36469021";"17"
"10/26/2020 12:00:00 AM";"09:00 - 09:59";"08124";"Soembawastraat";"4.94346569";"52.36214910";"13"
"10/26/2020 12:00:00 AM";"09:00 - 09:59";"08129";"Molukkenstraat";"4.93861286";"52.36150167";"13"
"10/26/2020 12:00:00 AM";"09:00 - 09:59";"08179";"K. 's-Gravesandestr.";"4.91480799";"52.36220000";"17"
"10/26/2020 12:00:00 AM";"09:00 - 09:59";"08190";"Molukkenstraat";"4.93934614";"52.36157635";"13"
"10/26/2020 12:00:00 AM";"09:00 - 09:59";"08233";"C. van Eesterenlaan";"4.93812487";"52.37345346";"16"
"10/26/2020 12:00:00 AM";"09:00 - 09:59";"08235";"Muziekgeb. Bimhuis";"4.91290020";"52.37723779";"34"
"10/26/2020 12:00:00 AM";"09:00 - 09:59";"08237";"Kattenburgerstraat";"4.92126795";"52.37614755";"20"
"10/26/2020 12:00:00 AM";"09:00 - 09:59";"08238";"Rietlandpark";"4.93350159";"52.37322013";"14"
"10/26/2020 12:00:00 AM";"09:00 - 09:59";"08239";"Rietlandpark";"4.93413567";"52.37296191";"25"
"10/26/2020 12:00:00 AM";"09:00 - 09:59";"08241";"Zuiderzeeweg";"4.96185517";"52.37193228";"16"
"10/26/2020 12:00:00 AM";"09:00 - 09:59";"08245";"Steigereiland";"4.98012952";"52.36313467";"32"
"10/26/2020 12:00:00 AM";"09:00 - 09:59";"08247";"Vennepluimstraat";"4.99057242";"52.35769662";"17"
"10/26/2020 12:00:00 AM";"09:00 - 09:59";"08249";"Diemerparklaan";"4.99499716";"52.35532962";"16"
"10/26/2020 12:00:00 AM";"09:00 - 09:59";"08251";"Lumi?restraat";"4.99942127";"52.35298044";"14"
"10/26/2020 12:00:00 AM";"09:00 - 09:59";"08255";"Hoogte Kadijk";"4.92483038";"52.36687722";"15"
"10/26/2020 12:00:00 AM";"09:00 - 09:59";"08257";"1e Coehoornstraat";"4.92618328";"52.36808685";"11"
"10/26/2020 12:00:00 AM";"09:00 - 09:59";"08262";"IJburg";"5.00486802";"52.35112872";"57"
"10/26/2020 12:00:00 AM";"09:00 - 09:59";"08300";"P.Oosterhuisstraat";"5.00693059";"52.35193526";"17"
"10/26/2020 12:00:00 AM";"09:00 - 09:59";"09003";"Dintelstraat";"4.89289498";"52.34192405";"18"
"10/26/2020 12:00:00 AM";"09:00 - 09:59";"09013";"Amstelstation";"4.91790223";"52.34725673";"14"
"10/26/2020 12:00:00 AM";"09:00 - 09:59";"09027";"Wibautstraat";"4.90986831";"52.35738074";"10"
"10/26/2020 12:00:00 AM";"09:00 - 09:59";"09049";"Victorieplein";"4.90570139";"52.34637186";"26"
"10/26/2020 12:00:00 AM";"09:00 - 09:59";"09082";"Waalstraat";"4.89974094";"52.34656317";"18"
"10/26/2020 12:00:00 AM";"09:00 - 09:59";"09083";"Waalstraat";"4.90032528";"52.34680824";"29"
"10/26/2020 12:00:00 AM";"09:00 - 09:59";"09096";"Van Woustraat";"4.90163035";"52.35495650";"17"
"10/26/2020 12:00:00 AM";"09:00 - 09:59";"09097";"Van Woustraat";"4.90084070";"52.35468363";"17"
"10/26/2020 12:00:00 AM";"09:00 - 09:59";"09108";"2e v.d.Helststraat";"4.89423729";"52.35319131";"12"
"10/26/2020 12:00:00 AM";"09:00 - 09:59";"09109";"2e v.d.Helststraat";"4.89488170";"52.35331982";"11"
"10/26/2020 12:00:00 AM";"09:00 - 09:59";"09111";"De Pijp";"4.89073444";"52.35272728";"43"
"10/26/2020 12:00:00 AM";"09:00 - 09:59";"09114";"De Pijp";"4.88948829";"52.35259622";"25"
"10/26/2020 12:00:00 AM";"09:00 - 09:59";"09120";"Cornelis Troostplein";"4.89161100";"52.35046604";"26"
"10/26/2020 12:00:00 AM";"09:00 - 09:59";"09176";"James Wattstraat";"4.92329155";"52.35116068";"25"
"10/26/2020 12:00:00 AM";"09:00 - 09:59";"ASA";"Amstelstation";"4.91751426";"52.34647326";"286"
"10/26/2020 12:00:00 AM";"09:00 - 09:59";"ASW";"Amstelveenseweg";"4.85798324";"52.33836671";"275"
"10/26/2020 12:00:00 AM";"09:00 - 09:59";"BLW";"Bullewijk";"4.95233581";"52.30642205";"104"
"10/26/2020 12:00:00 AM";"09:00 - 09:59";"BMR";"Station Bijlmer ArenA";"4.94713474";"52.31193030";"324"
"10/26/2020 12:00:00 AM";"09:00 - 09:59";"CLL";"Station Lelylaan";"4.83426589";"52.35766291";"89"
"10/26/2020 12:00:00 AM";"09:00 - 09:59";"CS";"Centraal Station";"4.90078150";"52.37749421";"486"
"10/26/2020 12:00:00 AM";"09:00 - 09:59";"DMZ";"Station Diemen-Zuid";"4.95713273";"52.33042795";"37"
"10/26/2020 12:00:00 AM";"09:00 - 09:59";"DPP";"De Pijp";"4.89101069";"52.35296212";"318"
"10/26/2020 12:00:00 AM";"09:00 - 09:59";"DVD";"Station Duivendrecht";"4.93678429";"52.32325190";"70"
"10/26/2020 12:00:00 AM";"09:00 - 09:59";"EPP";"Europaplein";"4.89138430";"52.34185482";"162"
"10/26/2020 12:00:00 AM";"09:00 - 09:59";"GN";"Gein";"4.98952268";"52.29627089";"72"
"10/26/2020 12:00:00 AM";"09:00 - 09:59";"GPP";"Gaasperplas";"4.98468551";"52.31080575";"16"
"10/26/2020 12:00:00 AM";"09:00 - 09:59";"GZH";"Station Ganzenhoef";"4.97323379";"52.32331315";"60"
"10/26/2020 12:00:00 AM";"09:00 - 09:59";"HDS";"Heemstedestraat";"4.83421208";"52.35255760";"68"
"10/26/2020 12:00:00 AM";"09:00 - 09:59";"HLD";"Station Holendrecht";"4.96021904";"52.29780451";"248"
"10/26/2020 12:00:00 AM";"09:00 - 09:59";"HVW";"Henk Sneevlietweg";"4.83439318";"52.34626699";"144"
"10/26/2020 12:00:00 AM";"09:00 - 09:59";"ITW";"Isolatorweg";"4.85013475";"52.39523277";"153"
"10/26/2020 12:00:00 AM";"09:00 - 09:59";"JLS";"Jan v.Galenstraat";"4.83492461";"52.37196551";"270"
"10/26/2020 12:00:00 AM";"09:00 - 09:59";"KEN";"Kraaienneststation";"4.97963450";"52.31632492";"55"
"10/26/2020 12:00:00 AM";"09:00 - 09:59";"MDW";"Van der Madeweg";"4.93048657";"52.32945629";"64"
"10/26/2020 12:00:00 AM";"09:00 - 09:59";"ND";"Noord";"4.93123182";"52.40117202";"216"
"10/26/2020 12:00:00 AM";"09:00 - 09:59";"NDP";"Noorderpark";"4.91789115";"52.38855518";"165"
"10/26/2020 12:00:00 AM";"09:00 - 09:59";"NMT";"Nieuwmarkt";"4.90123885";"52.37194169";"109"
"10/26/2020 12:00:00 AM";"09:00 - 09:59";"OAS";"Overamstel";"4.91815361";"52.33179879";"42"
"10/26/2020 12:00:00 AM";"09:00 - 09:59";"PJW";"Postjesweg";"4.83385543";"52.36468044";"110"
"10/26/2020 12:00:00 AM";"09:00 - 09:59";"RAI";"Station RAI";"4.88982004";"52.33739931";"142"
"10/26/2020 12:00:00 AM";"09:00 - 09:59";"RGB";"Reigersbos";"4.97473728";"52.29566301";"135"
"10/26/2020 12:00:00 AM";"09:00 - 09:59";"RKN";"Rokin";"4.89229651";"52.36928023";"308"
"10/26/2020 12:00:00 AM";"09:00 - 09:59";"SLW";"Spaklerweg";"4.92085640";"52.33986250";"74"
