"Datum";"UurgroepOmschrijving (van aankomst)";"AankomstHalteCode";"AankomstHalteNaam";"AankomstLat";"AankomstLon";"AantalReizen"
"3/31/2021 12:00:00 AM";"16:00 - 16:59";"";"Overig";"";"";"1"
"6/21/2021 12:00:00 AM";"00:00 - 00:59";"";"Overig";"";"";"4"
"6/21/2021 12:00:00 AM";"01:00 - 01:59";"";"Overig";"";"";"36"
"6/21/2021 12:00:00 AM";"02:00 - 02:59";"";"Overig";"";"";"49"
"6/21/2021 12:00:00 AM";"03:00 - 03:59";"";"Overig";"";"";"33"
"6/21/2021 12:00:00 AM";"04:00 - 04:59";"";"Overig";"";"";"52"
"6/21/2021 12:00:00 AM";"04:00 - 04:59";"00562";"Station Bijlmer ArenA";"4.94736012";"52.31138289";"17"
"6/21/2021 12:00:00 AM";"05:00 - 05:59";"";"Overig";"";"";"223"
"6/21/2021 12:00:00 AM";"05:00 - 05:59";"[[ Onb";"[[ Onbekend ]]";"0.00000000";"0.00000000";"20"
"6/21/2021 12:00:00 AM";"05:00 - 05:59";"00434";"Bijlmerplein";"4.95032022";"52.31457553";"19"
"6/21/2021 12:00:00 AM";"05:00 - 05:59";"00562";"Station Bijlmer ArenA";"4.94736012";"52.31138289";"14"
"6/21/2021 12:00:00 AM";"05:00 - 05:59";"04267";"Schiphol Airport/Plaza";"4.76139455";"52.30887344";"56"
"6/21/2021 12:00:00 AM";"05:00 - 05:59";"04274";"Schiphol Airport/Plaza";"4.76104997";"52.30939292";"14"
"6/21/2021 12:00:00 AM";"05:00 - 05:59";"04300";"Knooppunt Schiphol Nrd";"4.79292928";"52.32250892";"12"
"6/21/2021 12:00:00 AM";"05:00 - 05:59";"04379";"Knooppunt Schiphol Nrd";"4.79320459";"52.32276196";"29"
"6/21/2021 12:00:00 AM";"05:00 - 05:59";"BMR";"Station Bijlmer ArenA";"4.94713474";"52.31193030";"30"
"6/21/2021 12:00:00 AM";"05:00 - 05:59";"CS";"Centraal Station";"4.90078150";"52.37749421";"47"
"6/21/2021 12:00:00 AM";"05:00 - 05:59";"RKN";"Rokin";"4.89229651";"52.36928023";"17"
"6/21/2021 12:00:00 AM";"05:00 - 05:59";"WTC";"Station Zuid";"4.87509853";"52.33908015";"21"
"6/21/2021 12:00:00 AM";"06:00 - 06:59";"";"Overig";"";"";"1588"
"6/21/2021 12:00:00 AM";"06:00 - 06:59";"[[ Onb";"[[ Onbekend ]]";"0.00000000";"0.00000000";"79"
"6/21/2021 12:00:00 AM";"06:00 - 06:59";"00023";"Beukenplein";"4.91809259";"52.35701816";"16"
"6/21/2021 12:00:00 AM";"06:00 - 06:59";"00197";"Annie Romeinplein";"4.97162041";"52.32173463";"11"
"6/21/2021 12:00:00 AM";"06:00 - 06:59";"00453";"Diemen Sniep";"4.96964866";"52.33644962";"36"
"6/21/2021 12:00:00 AM";"06:00 - 06:59";"00491";"Science Park Aer";"4.95218495";"52.35478458";"11"
"6/21/2021 12:00:00 AM";"06:00 - 06:59";"00560";"Station Bijlmer ArenA";"4.94747867";"52.31125750";"18"
"6/21/2021 12:00:00 AM";"06:00 - 06:59";"00561";"Station Bijlmer ArenA";"4.94741931";"52.31132918";"40"
"6/21/2021 12:00:00 AM";"06:00 - 06:59";"00562";"Station Bijlmer ArenA";"4.94736012";"52.31138289";"43"
"6/21/2021 12:00:00 AM";"06:00 - 06:59";"00902";"Stammerkamp";"4.98344083";"52.33320797";"15"
"6/21/2021 12:00:00 AM";"06:00 - 06:59";"01365";"Atat?rk";"4.89794256";"52.40319625";"17"
"6/21/2021 12:00:00 AM";"06:00 - 06:59";"02018";"Koivistokade";"4.87577082";"52.39789874";"15"
"6/21/2021 12:00:00 AM";"06:00 - 06:59";"02066";"La Guardiaweg";"4.84008244";"52.39190625";"10"
"6/21/2021 12:00:00 AM";"06:00 - 06:59";"02106";"Assendelftstraat";"4.87943840";"52.38941217";"10"
"6/21/2021 12:00:00 AM";"06:00 - 06:59";"02167";"Bos en Lommerweg";"4.85380049";"52.38118358";"11"
"6/21/2021 12:00:00 AM";"06:00 - 06:59";"02311";"Seineweg";"4.81857317";"52.38632242";"48"
"6/21/2021 12:00:00 AM";"06:00 - 06:59";"02361";"Station Sloterdijk";"4.83931858";"52.38833460";"10"
"6/21/2021 12:00:00 AM";"06:00 - 06:59";"02365";"Station Sloterdijk";"4.83873236";"52.38822404";"19"
"6/21/2021 12:00:00 AM";"06:00 - 06:59";"02366";"Station Sloterdijk";"4.83873347";"52.38813416";"12"
"6/21/2021 12:00:00 AM";"06:00 - 06:59";"02367";"Station Sloterdijk";"4.83876429";"52.38801747";"12"
"6/21/2021 12:00:00 AM";"06:00 - 06:59";"02368";"Station Sloterdijk";"4.83877999";"52.38793665";"19"
"6/21/2021 12:00:00 AM";"06:00 - 06:59";"02378";"Station Sloterdijk";"4.83809796";"52.38844579";"13"
"6/21/2021 12:00:00 AM";"06:00 - 06:59";"03129";"Plein '40 - '45";"4.82112672";"52.38075328";"15"
"6/21/2021 12:00:00 AM";"06:00 - 06:59";"04112";"Johan Huizingalaan";"4.82742878";"52.34923618";"19"
"6/21/2021 12:00:00 AM";"06:00 - 06:59";"04195";"Station Lelylaan";"4.83460082";"52.35788018";"21"
"6/21/2021 12:00:00 AM";"06:00 - 06:59";"04196";"Station Lelylaan";"4.83382251";"52.35790351";"23"
"6/21/2021 12:00:00 AM";"06:00 - 06:59";"04267";"Schiphol Airport/Plaza";"4.76139455";"52.30887344";"28"
"6/21/2021 12:00:00 AM";"06:00 - 06:59";"04379";"Knooppunt Schiphol Nrd";"4.79320459";"52.32276196";"28"
"6/21/2021 12:00:00 AM";"06:00 - 06:59";"05011";"Centraal Station";"4.89921803";"52.37810793";"87"
"6/21/2021 12:00:00 AM";"06:00 - 06:59";"05029";"Centraal Station";"4.90334975";"52.37900567";"67"
"6/21/2021 12:00:00 AM";"06:00 - 06:59";"05031";"Dam";"4.89348394";"52.37341055";"11"
"6/21/2021 12:00:00 AM";"06:00 - 06:59";"05065";"Dam";"4.89079364";"52.37367792";"14"
"6/21/2021 12:00:00 AM";"06:00 - 06:59";"05066";"Dam";"4.89027056";"52.37318140";"33"
"6/21/2021 12:00:00 AM";"06:00 - 06:59";"05069";"Nieuwezijds Kolk";"4.89373093";"52.37628765";"15"
"6/21/2021 12:00:00 AM";"06:00 - 06:59";"05074";"Westermarkt";"4.88354950";"52.37407874";"15"
"6/21/2021 12:00:00 AM";"06:00 - 06:59";"05097";"Centraal Station";"4.90087651";"52.37954379";"34"
"6/21/2021 12:00:00 AM";"06:00 - 06:59";"05101";"Centraal Station";"4.90105195";"52.37961641";"16"
"6/21/2021 12:00:00 AM";"06:00 - 06:59";"05103";"Centraal Station";"4.90127481";"52.37938365";"25"
"6/21/2021 12:00:00 AM";"06:00 - 06:59";"05104";"Centraal Station";"4.90164343";"52.37925034";"11"
"6/21/2021 12:00:00 AM";"06:00 - 06:59";"06021";"Bilderdijkstraat";"4.87176488";"52.36712545";"11"
"6/21/2021 12:00:00 AM";"06:00 - 06:59";"06028";"Elandsgracht";"4.87741694";"52.36974738";"13"
"6/21/2021 12:00:00 AM";"06:00 - 06:59";"06061";"Leidseplein";"4.88339576";"52.36305015";"12"
"6/21/2021 12:00:00 AM";"06:00 - 06:59";"06063";"Leidseplein";"4.88064547";"52.36476406";"20"
"6/21/2021 12:00:00 AM";"06:00 - 06:59";"06089";"Leidseplein";"4.88085541";"52.36309324";"21"
"6/21/2021 12:00:00 AM";"06:00 - 06:59";"07004";"De Boelelaan/VU";"4.86586883";"52.33534587";"13"
"6/21/2021 12:00:00 AM";"06:00 - 06:59";"07007";"Museumplein";"4.87950215";"52.35690388";"14"
"6/21/2021 12:00:00 AM";"06:00 - 06:59";"07049";"Hoofddorpplein";"4.84958188";"52.35117239";"10"
"6/21/2021 12:00:00 AM";"06:00 - 06:59";"07193";"Station Zuid";"4.87334616";"52.34088808";"10"
"6/21/2021 12:00:00 AM";"06:00 - 06:59";"07269";"Station Zuid";"4.87374306";"52.34082689";"14"
"6/21/2021 12:00:00 AM";"06:00 - 06:59";"07270";"Parnassusweg";"4.86874218";"52.33806382";"12"
"6/21/2021 12:00:00 AM";"06:00 - 06:59";"07294";"Station Zuid";"4.87327467";"52.34072599";"10"
"6/21/2021 12:00:00 AM";"06:00 - 06:59";"07303";"VU medisch centrum";"4.86097062";"52.33515342";"40"
"6/21/2021 12:00:00 AM";"06:00 - 06:59";"07453";"Ouderkerkerlaan";"4.86721192";"52.29582332";"15"
"6/21/2021 12:00:00 AM";"06:00 - 06:59";"08054";"Weesperplein";"4.90941338";"52.36145933";"17"
"6/21/2021 12:00:00 AM";"06:00 - 06:59";"08057";"Frederiksplein";"4.90024241";"52.35971430";"11"
"6/21/2021 12:00:00 AM";"06:00 - 06:59";"08072";"Vijzelgracht";"4.89159781";"52.35953462";"10"
"6/21/2021 12:00:00 AM";"06:00 - 06:59";"08080";"Spiegelgracht";"4.88691222";"52.36106979";"14"
"6/21/2021 12:00:00 AM";"06:00 - 06:59";"08238";"Rietlandpark";"4.93350159";"52.37322013";"13"
"6/21/2021 12:00:00 AM";"06:00 - 06:59";"08239";"Rietlandpark";"4.93413567";"52.37296191";"12"
"6/21/2021 12:00:00 AM";"06:00 - 06:59";"08241";"Zuiderzeeweg";"4.96185517";"52.37193228";"10"
"6/21/2021 12:00:00 AM";"06:00 - 06:59";"08259";"1e Leeghwaterstraat";"4.93004964";"52.37047459";"21"
"6/21/2021 12:00:00 AM";"06:00 - 06:59";"09016";"Amstelstation";"4.91953925";"52.34649925";"11"
"6/21/2021 12:00:00 AM";"06:00 - 06:59";"ASA";"Amstelstation";"4.91751426";"52.34647326";"111"
"6/21/2021 12:00:00 AM";"06:00 - 06:59";"ASW";"Amstelveenseweg";"4.85798324";"52.33836671";"119"
"6/21/2021 12:00:00 AM";"06:00 - 06:59";"BLW";"Bullewijk";"4.95233581";"52.30642205";"41"
"6/21/2021 12:00:00 AM";"06:00 - 06:59";"BMR";"Station Bijlmer ArenA";"4.94713474";"52.31193030";"157"
"6/21/2021 12:00:00 AM";"06:00 - 06:59";"CLL";"Station Lelylaan";"4.83426589";"52.35766291";"30"
"6/21/2021 12:00:00 AM";"06:00 - 06:59";"CS";"Centraal Station";"4.90078150";"52.37749421";"340"
"6/21/2021 12:00:00 AM";"06:00 - 06:59";"DMZ";"Station Diemen-Zuid";"4.95713273";"52.33042795";"17"
"6/21/2021 12:00:00 AM";"06:00 - 06:59";"DPP";"De Pijp";"4.89101069";"52.35296212";"42"
"6/21/2021 12:00:00 AM";"06:00 - 06:59";"DVD";"Station Duivendrecht";"4.93678429";"52.32325190";"45"
"6/21/2021 12:00:00 AM";"06:00 - 06:59";"EPP";"Europaplein";"4.89138430";"52.34185482";"33"
"6/21/2021 12:00:00 AM";"06:00 - 06:59";"GN";"Gein";"4.98952268";"52.29627089";"15"
"6/21/2021 12:00:00 AM";"06:00 - 06:59";"HDS";"Heemstedestraat";"4.83421208";"52.35255760";"30"
"6/21/2021 12:00:00 AM";"06:00 - 06:59";"HLD";"Station Holendrecht";"4.96021904";"52.29780451";"88"
"6/21/2021 12:00:00 AM";"06:00 - 06:59";"HVW";"Henk Sneevlietweg";"4.83439318";"52.34626699";"52"
"6/21/2021 12:00:00 AM";"06:00 - 06:59";"ITW";"Isolatorweg";"4.85013475";"52.39523277";"22"
"6/21/2021 12:00:00 AM";"06:00 - 06:59";"JLS";"Jan v.Galenstraat";"4.83492461";"52.37196551";"51"
"6/21/2021 12:00:00 AM";"06:00 - 06:59";"MDW";"Van der Madeweg";"4.93048657";"52.32945629";"37"
"6/21/2021 12:00:00 AM";"06:00 - 06:59";"ND";"Noord";"4.93123182";"52.40117202";"46"
"6/21/2021 12:00:00 AM";"06:00 - 06:59";"NDP";"Noorderpark";"4.91789115";"52.38855518";"36"
"6/21/2021 12:00:00 AM";"06:00 - 06:59";"NMT";"Nieuwmarkt";"4.90123885";"52.37194169";"32"
"6/21/2021 12:00:00 AM";"06:00 - 06:59";"OAS";"Overamstel";"4.91815361";"52.33179879";"34"
"6/21/2021 12:00:00 AM";"06:00 - 06:59";"PJW";"Postjesweg";"4.83385543";"52.36468044";"21"
"6/21/2021 12:00:00 AM";"06:00 - 06:59";"RAI";"Station RAI";"4.88982004";"52.33739931";"64"
"6/21/2021 12:00:00 AM";"06:00 - 06:59";"RGB";"Reigersbos";"4.97473728";"52.29566301";"13"
"6/21/2021 12:00:00 AM";"06:00 - 06:59";"RKN";"Rokin";"4.89229651";"52.36928023";"157"
"6/21/2021 12:00:00 AM";"06:00 - 06:59";"SLW";"Spaklerweg";"4.92085640";"52.33986250";"38"
"6/21/2021 12:00:00 AM";"06:00 - 06:59";"STD";"Station Sloterdijk";"4.83878389";"52.38880848";"174"
"6/21/2021 12:00:00 AM";"06:00 - 06:59";"SVT";"Strandvliet";"4.94152820";"52.31825469";"13"
"6/21/2021 12:00:00 AM";"06:00 - 06:59";"VLN";"Burg.de Vlugtlaan";"4.83809109";"52.37951196";"10"
"6/21/2021 12:00:00 AM";"06:00 - 06:59";"VSW";"Verrijn Stuartweg";"4.96693669";"52.32844093";"17"
"6/21/2021 12:00:00 AM";"06:00 - 06:59";"VZG";"Vijzelgracht";"4.89072870";"52.35980061";"44"
"6/21/2021 12:00:00 AM";"06:00 - 06:59";"WBS";"Wibautstraat";"4.91202993";"52.35428867";"57"
"6/21/2021 12:00:00 AM";"06:00 - 06:59";"WLP";"Waterlooplein";"4.90298171";"52.36697862";"95"
"6/21/2021 12:00:00 AM";"06:00 - 06:59";"WPP";"Weesperplein";"4.90787469";"52.36120146";"88"
"6/21/2021 12:00:00 AM";"06:00 - 06:59";"WTC";"Station Zuid";"4.87509853";"52.33908015";"288"
"6/21/2021 12:00:00 AM";"07:00 - 07:59";"";"Overig";"";"";"2392"
"6/21/2021 12:00:00 AM";"07:00 - 07:59";"[[ Onb";"[[ Onbekend ]]";"0.00000000";"0.00000000";"246"
"6/21/2021 12:00:00 AM";"07:00 - 07:59";"00005";"Muiderpoortstation";"4.93280219";"52.36121887";"27"
"6/21/2021 12:00:00 AM";"07:00 - 07:59";"00007";"Muiderpoortstation";"4.93356602";"52.36117686";"10"
"6/21/2021 12:00:00 AM";"07:00 - 07:59";"00008";"Dapperstraat";"4.92977913";"52.36110836";"18"
"6/21/2021 12:00:00 AM";"07:00 - 07:59";"00018";"Diemerknoop";"5.00286153";"52.33537576";"14"
"6/21/2021 12:00:00 AM";"07:00 - 07:59";"00020";"Beukenweg";"4.91674979";"52.35906203";"21"
"6/21/2021 12:00:00 AM";"07:00 - 07:59";"00021";"Beukenweg";"4.91721293";"52.35829991";"47"
"6/21/2021 12:00:00 AM";"07:00 - 07:59";"00023";"Beukenplein";"4.91809259";"52.35701816";"19"
"6/21/2021 12:00:00 AM";"07:00 - 07:59";"00024";"Beukenplein";"4.91807544";"52.35725177";"10"
"6/21/2021 12:00:00 AM";"07:00 - 07:59";"00029";"Oostpoort";"4.92719316";"52.35707185";"12"
"6/21/2021 12:00:00 AM";"07:00 - 07:59";"00046";"Fizeaustraat";"4.92463808";"52.34589015";"13"
"6/21/2021 12:00:00 AM";"07:00 - 07:59";"00238";"Anton de Komplein";"4.95413359";"52.31603659";"10"
"6/21/2021 12:00:00 AM";"07:00 - 07:59";"00434";"Bijlmerplein";"4.95032022";"52.31457553";"11"
"6/21/2021 12:00:00 AM";"07:00 - 07:59";"00441";"Muiderpoortstation";"4.93254137";"52.36088532";"10"
"6/21/2021 12:00:00 AM";"07:00 - 07:59";"00444";"Linnaeusstraat";"4.92490296";"52.35991203";"13"
"6/21/2021 12:00:00 AM";"07:00 - 07:59";"00451";"Paasheuvelweg";"4.95505879";"52.29630278";"14"
"6/21/2021 12:00:00 AM";"07:00 - 07:59";"00453";"Diemen Sniep";"4.96964866";"52.33644962";"29"
"6/21/2021 12:00:00 AM";"07:00 - 07:59";"00491";"Science Park Aer";"4.95218495";"52.35478458";"10"
"6/21/2021 12:00:00 AM";"07:00 - 07:59";"00560";"Station Bijlmer ArenA";"4.94747867";"52.31125750";"19"
"6/21/2021 12:00:00 AM";"07:00 - 07:59";"00561";"Station Bijlmer ArenA";"4.94741931";"52.31132918";"54"
"6/21/2021 12:00:00 AM";"07:00 - 07:59";"00562";"Station Bijlmer ArenA";"4.94736012";"52.31138289";"41"
"6/21/2021 12:00:00 AM";"07:00 - 07:59";"00568";"Station Bijlmer ArenA";"4.94762664";"52.31112323";"14"
"6/21/2021 12:00:00 AM";"07:00 - 07:59";"00665";"Station Weesp";"5.04383463";"52.31145059";"10"
"6/21/2021 12:00:00 AM";"07:00 - 07:59";"01076";"Waterlandplein";"4.95247364";"52.39274059";"10"
"6/21/2021 12:00:00 AM";"07:00 - 07:59";"01111";"Rode Kruisstraat";"4.92881363";"52.39488033";"11"
"6/21/2021 12:00:00 AM";"07:00 - 07:59";"01316";"Station Noord";"4.93336820";"52.40204304";"12"
"6/21/2021 12:00:00 AM";"07:00 - 07:59";"01352";"Oosterlengte";"4.92206974";"52.40611555";"18"
"6/21/2021 12:00:00 AM";"07:00 - 07:59";"01365";"Atat?rk";"4.89794256";"52.40319625";"32"
"6/21/2021 12:00:00 AM";"07:00 - 07:59";"01402";"Floraweg";"4.90614362";"52.39899665";"10"
"6/21/2021 12:00:00 AM";"07:00 - 07:59";"01443";"Volendammerweg";"4.95697086";"52.39255928";"12"
"6/21/2021 12:00:00 AM";"07:00 - 07:59";"02018";"Koivistokade";"4.87577082";"52.39789874";"21"
"6/21/2021 12:00:00 AM";"07:00 - 07:59";"02064";"Kabelweg";"4.84827817";"52.39205168";"11"
"6/21/2021 12:00:00 AM";"07:00 - 07:59";"02103";"Spaarndammerstraat";"4.87765867";"52.39216375";"25"
"6/21/2021 12:00:00 AM";"07:00 - 07:59";"02106";"Assendelftstraat";"4.87943840";"52.38941217";"10"
"6/21/2021 12:00:00 AM";"07:00 - 07:59";"02113";"Haarlemmerplein";"4.88371739";"52.38516129";"11"
"6/21/2021 12:00:00 AM";"07:00 - 07:59";"02114";"Haarlemmerplein";"4.88341252";"52.38484542";"34"
"6/21/2021 12:00:00 AM";"07:00 - 07:59";"02156";"Willem de Zwijgerlaan";"4.86425293";"52.37039101";"11"
"6/21/2021 12:00:00 AM";"07:00 - 07:59";"02158";"Adm. de Ruijterweg";"4.86096776";"52.37129320";"12"
"6/21/2021 12:00:00 AM";"07:00 - 07:59";"02160";"Haparandaweg";"4.87389760";"52.39471799";"14"
"6/21/2021 12:00:00 AM";"07:00 - 07:59";"02170";"Spaarndammerstraat";"4.87723089";"52.39231470";"11"
"6/21/2021 12:00:00 AM";"07:00 - 07:59";"02222";"Jan van Galenstraat";"4.85874763";"52.37399761";"11"
"6/21/2021 12:00:00 AM";"07:00 - 07:59";"02311";"Seineweg";"4.81857317";"52.38632242";"14"
"6/21/2021 12:00:00 AM";"07:00 - 07:59";"02333";"Herwijk";"4.78729047";"52.39572206";"10"
"6/21/2021 12:00:00 AM";"07:00 - 07:59";"02361";"Station Sloterdijk";"4.83931858";"52.38833460";"67"
"6/21/2021 12:00:00 AM";"07:00 - 07:59";"02365";"Station Sloterdijk";"4.83873236";"52.38822404";"21"
"6/21/2021 12:00:00 AM";"07:00 - 07:59";"02366";"Station Sloterdijk";"4.83873347";"52.38813416";"22"
"6/21/2021 12:00:00 AM";"07:00 - 07:59";"02367";"Station Sloterdijk";"4.83876429";"52.38801747";"20"
"6/21/2021 12:00:00 AM";"07:00 - 07:59";"02368";"Station Sloterdijk";"4.83877999";"52.38793665";"21"
"6/21/2021 12:00:00 AM";"07:00 - 07:59";"02378";"Station Sloterdijk";"4.83809796";"52.38844579";"70"
"6/21/2021 12:00:00 AM";"07:00 - 07:59";"03009";"Witte de Withstraat";"4.85851970";"52.36478416";"21"
"6/21/2021 12:00:00 AM";"07:00 - 07:59";"03055";"Burg. Fockstraat";"4.83108040";"52.37991964";"10"
"6/21/2021 12:00:00 AM";"07:00 - 07:59";"03057";"Anth. Moddermanstraat";"4.81474778";"52.38339197";"12"
"6/21/2021 12:00:00 AM";"07:00 - 07:59";"03060";"Bos en Lommerplein";"4.84718407";"52.37815169";"14"
"6/21/2021 12:00:00 AM";"07:00 - 07:59";"03061";"Bos en Lommerplein";"4.84523530";"52.37778328";"24"
"6/21/2021 12:00:00 AM";"07:00 - 07:59";"03076";"Jan Tooropstraat";"4.83810313";"52.37142305";"34"
"6/21/2021 12:00:00 AM";"07:00 - 07:59";"03077";"Jan Tooropstraat";"4.83817288";"52.37171997";"10"
"6/21/2021 12:00:00 AM";"07:00 - 07:59";"03129";"Plein '40 - '45";"4.82112672";"52.38075328";"23"
"6/21/2021 12:00:00 AM";"07:00 - 07:59";"03145";"J. Cabeliaustraat";"4.80409638";"52.38246819";"19"
"6/21/2021 12:00:00 AM";"07:00 - 07:59";"03150";"Mercatorplein";"4.85011339";"52.37031872";"12"
"6/21/2021 12:00:00 AM";"07:00 - 07:59";"03167";"Bos en Lommerplein";"4.84650668";"52.37709704";"17"
"6/21/2021 12:00:00 AM";"07:00 - 07:59";"04024";"Baden Powellweg";"4.78782801";"52.36248802";"12"
"6/21/2021 12:00:00 AM";"07:00 - 07:59";"04050";"Meer en Vaart";"4.80994403";"52.35636940";"15"
"6/21/2021 12:00:00 AM";"07:00 - 07:59";"04060";"Derkinderenstraat";"4.83972293";"52.35796689";"15"
"6/21/2021 12:00:00 AM";"07:00 - 07:59";"04061";"Derkinderenstraat";"4.84014895";"52.35794190";"14"
"6/21/2021 12:00:00 AM";"07:00 - 07:59";"04088";"Louwesweg";"4.82436420";"52.34669608";"16"
"6/21/2021 12:00:00 AM";"07:00 - 07:59";"04112";"Johan Huizingalaan";"4.82742878";"52.34923618";"42"
"6/21/2021 12:00:00 AM";"07:00 - 07:59";"04195";"Station Lelylaan";"4.83460082";"52.35788018";"48"
"6/21/2021 12:00:00 AM";"07:00 - 07:59";"04196";"Station Lelylaan";"4.83382251";"52.35790351";"56"
"6/21/2021 12:00:00 AM";"07:00 - 07:59";"04267";"Schiphol Airport/Plaza";"4.76139455";"52.30887344";"12"
"6/21/2021 12:00:00 AM";"07:00 - 07:59";"04274";"Schiphol Airport/Plaza";"4.76104997";"52.30939292";"23"
"6/21/2021 12:00:00 AM";"07:00 - 07:59";"04379";"Knooppunt Schiphol Nrd";"4.79320459";"52.32276196";"44"
"6/21/2021 12:00:00 AM";"07:00 - 07:59";"04402";"Matterhorn";"4.77477998";"52.35372103";"14"
"6/21/2021 12:00:00 AM";"07:00 - 07:59";"04411";"Hoekenes";"4.80183430";"52.35243785";"11"
"6/21/2021 12:00:00 AM";"07:00 - 07:59";"04413";"Louis Davidsstraat";"4.80850916";"52.35383682";"27"
"6/21/2021 12:00:00 AM";"07:00 - 07:59";"05011";"Centraal Station";"4.89921803";"52.37810793";"199"
"6/21/2021 12:00:00 AM";"07:00 - 07:59";"05029";"Centraal Station";"4.90334975";"52.37900567";"111"
"6/21/2021 12:00:00 AM";"07:00 - 07:59";"05031";"Dam";"4.89348394";"52.37341055";"13"
"6/21/2021 12:00:00 AM";"07:00 - 07:59";"05035";"Rokin";"4.89210433";"52.36939627";"10"
"6/21/2021 12:00:00 AM";"07:00 - 07:59";"05036";"Rokin";"4.89230478";"52.36985548";"19"
"6/21/2021 12:00:00 AM";"07:00 - 07:59";"05047";"Rembrandtplein";"4.89702882";"52.36623511";"11"
"6/21/2021 12:00:00 AM";"07:00 - 07:59";"05060";"Koningsplein";"4.88894752";"52.36807981";"13"
"6/21/2021 12:00:00 AM";"07:00 - 07:59";"05064";"Koningsplein";"4.88949610";"52.36760577";"22"
"6/21/2021 12:00:00 AM";"07:00 - 07:59";"05065";"Dam";"4.89079364";"52.37367792";"29"
"6/21/2021 12:00:00 AM";"07:00 - 07:59";"05066";"Dam";"4.89027056";"52.37318140";"45"
"6/21/2021 12:00:00 AM";"07:00 - 07:59";"05069";"Nieuwezijds Kolk";"4.89373093";"52.37628765";"30"
"6/21/2021 12:00:00 AM";"07:00 - 07:59";"05073";"Westermarkt";"4.88453426";"52.37400204";"14"
"6/21/2021 12:00:00 AM";"07:00 - 07:59";"05074";"Westermarkt";"4.88354950";"52.37407874";"22"
"6/21/2021 12:00:00 AM";"07:00 - 07:59";"05077";"Marnixstraat";"4.87615428";"52.37228546";"18"
"6/21/2021 12:00:00 AM";"07:00 - 07:59";"05080";"Buiten Oranjestraat";"4.88782167";"52.38330923";"16"
"6/21/2021 12:00:00 AM";"07:00 - 07:59";"05090";"Westerdoksdijk";"4.89331977";"52.38551629";"13"
"6/21/2021 12:00:00 AM";"07:00 - 07:59";"05097";"Centraal Station";"4.90087651";"52.37954379";"30"
"6/21/2021 12:00:00 AM";"07:00 - 07:59";"05101";"Centraal Station";"4.90105195";"52.37961641";"20"
"6/21/2021 12:00:00 AM";"07:00 - 07:59";"05103";"Centraal Station";"4.90127481";"52.37938365";"51"
"6/21/2021 12:00:00 AM";"07:00 - 07:59";"05104";"Centraal Station";"4.90164343";"52.37925034";"22"
"6/21/2021 12:00:00 AM";"07:00 - 07:59";"05106";"Centraal Station";"4.90229030";"52.37919008";"13"
"6/21/2021 12:00:00 AM";"07:00 - 07:59";"05107";"Centraal Station";"4.90195282";"52.37916174";"23"
"6/21/2021 12:00:00 AM";"07:00 - 07:59";"06001";"Surinameplein";"4.85252231";"52.35807034";"19"
"6/21/2021 12:00:00 AM";"07:00 - 07:59";"06002";"Surinameplein";"4.85090753";"52.35807202";"12"
"6/21/2021 12:00:00 AM";"07:00 - 07:59";"06015";"Postjesweg";"4.85316124";"52.36352879";"16"
"6/21/2021 12:00:00 AM";"07:00 - 07:59";"06016";"J.P. Heijestraat";"4.86239635";"52.36472951";"13"
"6/21/2021 12:00:00 AM";"07:00 - 07:59";"06017";"J.P. Heijestraat";"4.86292317";"52.36487565";"11"
"6/21/2021 12:00:00 AM";"07:00 - 07:59";"06019";"Ten Katestraat";"4.86737423";"52.36591988";"10"
"6/21/2021 12:00:00 AM";"07:00 - 07:59";"06020";"Ten Katestraat";"4.86773990";"52.36603832";"19"
"6/21/2021 12:00:00 AM";"07:00 - 07:59";"06021";"Bilderdijkstraat";"4.87176488";"52.36712545";"11"
"6/21/2021 12:00:00 AM";"07:00 - 07:59";"06027";"Elandsgracht";"4.87855189";"52.36808953";"14"
"6/21/2021 12:00:00 AM";"07:00 - 07:59";"06028";"Elandsgracht";"4.87741694";"52.36974738";"18"
"6/21/2021 12:00:00 AM";"07:00 - 07:59";"06029";"Elandsgracht";"4.87684368";"52.36852258";"32"
"6/21/2021 12:00:00 AM";"07:00 - 07:59";"06034";"Bilderdijkstraat";"4.87082347";"52.37105798";"21"
"6/21/2021 12:00:00 AM";"07:00 - 07:59";"06037";"Bilderdijkstraat";"4.86985701";"52.37082906";"25"
"6/21/2021 12:00:00 AM";"07:00 - 07:59";"06038";"De Clercqstraat";"4.87040279";"52.37061574";"11"
"6/21/2021 12:00:00 AM";"07:00 - 07:59";"06044";"Overtoom";"4.87483191";"52.36345380";"12"
"6/21/2021 12:00:00 AM";"07:00 - 07:59";"06045";"1e Con. Huygensstraat";"4.87399228";"52.36242556";"16"
"6/21/2021 12:00:00 AM";"07:00 - 07:59";"06046";"1e Con. Huygensstraat";"4.87487082";"52.36262709";"17"
"6/21/2021 12:00:00 AM";"07:00 - 07:59";"06048";"J.P. Heijestraat";"4.86585368";"52.36037674";"15"
"6/21/2021 12:00:00 AM";"07:00 - 07:59";"06049";"J.P. Heijestraat";"4.86671778";"52.36055131";"12"
"6/21/2021 12:00:00 AM";"07:00 - 07:59";"06061";"Leidseplein";"4.88339576";"52.36305015";"18"
"6/21/2021 12:00:00 AM";"07:00 - 07:59";"06063";"Leidseplein";"4.88064547";"52.36476406";"16"
"6/21/2021 12:00:00 AM";"07:00 - 07:59";"06072";"Prinsengracht";"4.88428435";"52.36495933";"10"
"6/21/2021 12:00:00 AM";"07:00 - 07:59";"06073";"Keizersgracht";"4.88666521";"52.36604795";"11"
"6/21/2021 12:00:00 AM";"07:00 - 07:59";"06081";"Rhijnvis Feithstraat";"4.86039355";"52.35905833";"17"
"6/21/2021 12:00:00 AM";"07:00 - 07:59";"06082";"Rhijnvis Feithstraat";"4.85967683";"52.35883943";"16"
"6/21/2021 12:00:00 AM";"07:00 - 07:59";"06089";"Leidseplein";"4.88085541";"52.36309324";"38"
"6/21/2021 12:00:00 AM";"07:00 - 07:59";"06114";"Hoofdweg";"4.85444451";"52.36425359";"11"
"6/21/2021 12:00:00 AM";"07:00 - 07:59";"07006";"Museumplein";"4.87980116";"52.35642881";"22"
"6/21/2021 12:00:00 AM";"07:00 - 07:59";"07007";"Museumplein";"4.87950215";"52.35690388";"42"
"6/21/2021 12:00:00 AM";"07:00 - 07:59";"07015";"Roelof Hartplein";"4.88206971";"52.35314900";"12"
"6/21/2021 12:00:00 AM";"07:00 - 07:59";"07016";"Roelof Hartplein";"4.88286688";"52.35274795";"21"
"6/21/2021 12:00:00 AM";"07:00 - 07:59";"07021";"Kastelenstraat";"4.87955984";"52.32619291";"15"
"6/21/2021 12:00:00 AM";"07:00 - 07:59";"07031";"Valeriusplein";"4.86374943";"52.35333004";"18"
"6/21/2021 12:00:00 AM";"07:00 - 07:59";"07033";"Amstelveenseweg";"4.85695925";"52.35161911";"13"
"6/21/2021 12:00:00 AM";"07:00 - 07:59";"07049";"Hoofddorpplein";"4.84958188";"52.35117239";"10"
"6/21/2021 12:00:00 AM";"07:00 - 07:59";"07050";"Haarlemmermeerstation";"4.85744749";"52.34883508";"26"
"6/21/2021 12:00:00 AM";"07:00 - 07:59";"07083";"Gerrit v.d. Veenstraat";"4.87735929";"52.34921014";"14"
"6/21/2021 12:00:00 AM";"07:00 - 07:59";"07084";"Gerrit v.d. Veenstraat";"4.87720177";"52.34886793";"19"
"6/21/2021 12:00:00 AM";"07:00 - 07:59";"07088";"Stadionweg";"4.87687497";"52.34665553";"12"
"6/21/2021 12:00:00 AM";"07:00 - 07:59";"07097";"Olympiaplein";"4.86582821";"52.34630180";"13"
"6/21/2021 12:00:00 AM";"07:00 - 07:59";"07116";"Haarlemmermeerstation";"4.85760410";"52.34924023";"13"
"6/21/2021 12:00:00 AM";"07:00 - 07:59";"07190";"Station Zuid";"4.87352214";"52.34089784";"15"
"6/21/2021 12:00:00 AM";"07:00 - 07:59";"07193";"Station Zuid";"4.87334616";"52.34088808";"44"
"6/21/2021 12:00:00 AM";"07:00 - 07:59";"07260";"Station RAI";"4.89077724";"52.33708876";"17"
"6/21/2021 12:00:00 AM";"07:00 - 07:59";"07268";"Station Zuid";"4.87428608";"52.34082026";"27"
"6/21/2021 12:00:00 AM";"07:00 - 07:59";"07269";"Station Zuid";"4.87374306";"52.34082689";"51"
"6/21/2021 12:00:00 AM";"07:00 - 07:59";"07270";"Parnassusweg";"4.86874218";"52.33806382";"37"
"6/21/2021 12:00:00 AM";"07:00 - 07:59";"07294";"Station Zuid";"4.87327467";"52.34072599";"24"
"6/21/2021 12:00:00 AM";"07:00 - 07:59";"07303";"VU medisch centrum";"4.86097062";"52.33515342";"69"
"6/21/2021 12:00:00 AM";"07:00 - 07:59";"07309";"Apollolaan";"4.88187688";"52.34816896";"10"
"6/21/2021 12:00:00 AM";"07:00 - 07:59";"07321";"Van Baerlestraat";"4.87895796";"52.35827667";"13"
"6/21/2021 12:00:00 AM";"07:00 - 07:59";"07322";"Van Baerlestraat";"4.87971942";"52.35844171";"16"
"6/21/2021 12:00:00 AM";"07:00 - 07:59";"07323";"Rijksmuseum";"4.88355043";"52.35977029";"13"
"6/21/2021 12:00:00 AM";"07:00 - 07:59";"07339";"Nieuw Herlaer";"4.88985946";"52.32602094";"30"
"6/21/2021 12:00:00 AM";"07:00 - 07:59";"07391";"Kronenburg";"4.87070592";"52.31556694";"11"
"6/21/2021 12:00:00 AM";"07:00 - 07:59";"07419";"Van Boshuizenstraat";"4.86896941";"52.32487971";"36"
"6/21/2021 12:00:00 AM";"07:00 - 07:59";"07423";"Uilenstede";"4.86910951";"52.32167168";"11"
"6/21/2021 12:00:00 AM";"07:00 - 07:59";"07439";"Oranjebaan";"4.87179001";"52.30302465";"30"
"6/21/2021 12:00:00 AM";"07:00 - 07:59";"07442";"Zonnestein";"4.87236664";"52.31146674";"10"
"6/21/2021 12:00:00 AM";"07:00 - 07:59";"07445";"Amstelveen Stadshart";"4.86751502";"52.30124433";"11"
"6/21/2021 12:00:00 AM";"07:00 - 07:59";"07448";"A.J. Ernststraat";"4.86887597";"52.33288743";"14"
"6/21/2021 12:00:00 AM";"07:00 - 07:59";"07449";"A.J. Ernststraat";"4.86879476";"52.33230287";"11"
"6/21/2021 12:00:00 AM";"07:00 - 07:59";"07453";"Ouderkerkerlaan";"4.86721192";"52.29582332";"22"
"6/21/2021 12:00:00 AM";"07:00 - 07:59";"07473";"Meent";"4.85693861";"52.28084883";"10"
"6/21/2021 12:00:00 AM";"07:00 - 07:59";"07482";"Sacharovlaan";"4.83228912";"52.28211984";"32"
"6/21/2021 12:00:00 AM";"07:00 - 07:59";"08007";"Bob Haarmslaan";"4.96921237";"52.36876786";"11"
"6/21/2021 12:00:00 AM";"07:00 - 07:59";"08038";"Kattenburgerstraat";"4.91921370";"52.37320047";"10"
"6/21/2021 12:00:00 AM";"07:00 - 07:59";"08052";"K. 's-Gravesandestr.";"4.91550720";"52.36271509";"15"
"6/21/2021 12:00:00 AM";"07:00 - 07:59";"08054";"Weesperplein";"4.90941338";"52.36145933";"22"
"6/21/2021 12:00:00 AM";"07:00 - 07:59";"08057";"Frederiksplein";"4.90024241";"52.35971430";"23"
"6/21/2021 12:00:00 AM";"07:00 - 07:59";"08072";"Vijzelgracht";"4.89159781";"52.35953462";"18"
"6/21/2021 12:00:00 AM";"07:00 - 07:59";"08073";"Vijzelgracht";"4.89227386";"52.35946554";"14"
"6/21/2021 12:00:00 AM";"07:00 - 07:59";"08120";"Insulindeweg";"4.94763926";"52.36469021";"20"
"6/21/2021 12:00:00 AM";"07:00 - 07:59";"08129";"Molukkenstraat";"4.93861286";"52.36150167";"12"
"6/21/2021 12:00:00 AM";"07:00 - 07:59";"08139";"Zuiderzeeweg";"4.96240105";"52.37166461";"14"
"6/21/2021 12:00:00 AM";"07:00 - 07:59";"08195";"Oostenburgergracht";"4.92452709";"52.36780177";"19"
"6/21/2021 12:00:00 AM";"07:00 - 07:59";"08235";"Muziekgeb. Bimhuis";"4.91290020";"52.37723779";"12"
"6/21/2021 12:00:00 AM";"07:00 - 07:59";"08237";"Kattenburgerstraat";"4.92126795";"52.37614755";"16"
"6/21/2021 12:00:00 AM";"07:00 - 07:59";"08238";"Rietlandpark";"4.93350159";"52.37322013";"16"
"6/21/2021 12:00:00 AM";"07:00 - 07:59";"08239";"Rietlandpark";"4.93413567";"52.37296191";"28"
"6/21/2021 12:00:00 AM";"07:00 - 07:59";"08241";"Zuiderzeeweg";"4.96185517";"52.37193228";"15"
"6/21/2021 12:00:00 AM";"07:00 - 07:59";"08245";"Steigereiland";"4.98012952";"52.36313467";"16"
"6/21/2021 12:00:00 AM";"07:00 - 07:59";"08249";"Diemerparklaan";"4.99499716";"52.35532962";"14"
"6/21/2021 12:00:00 AM";"07:00 - 07:59";"08257";"1e Coehoornstraat";"4.92618328";"52.36808685";"11"
"6/21/2021 12:00:00 AM";"07:00 - 07:59";"08259";"1e Leeghwaterstraat";"4.93004964";"52.37047459";"13"
"6/21/2021 12:00:00 AM";"07:00 - 07:59";"08262";"IJburg";"5.00486802";"52.35112872";"43"
"6/21/2021 12:00:00 AM";"07:00 - 07:59";"08300";"P.Oosterhuisstraat";"5.00693059";"52.35193526";"10"
"6/21/2021 12:00:00 AM";"07:00 - 07:59";"09004";"Europaplein";"4.89216887";"52.33992574";"11"
"6/21/2021 12:00:00 AM";"07:00 - 07:59";"09013";"Amstelstation";"4.91790223";"52.34725673";"20"
"6/21/2021 12:00:00 AM";"07:00 - 07:59";"09015";"Amstelstation";"4.91940405";"52.34679531";"15"
"6/21/2021 12:00:00 AM";"07:00 - 07:59";"09023";"Camperstraat";"4.91383551";"52.35840330";"12"
"6/21/2021 12:00:00 AM";"07:00 - 07:59";"09049";"Victorieplein";"4.90570139";"52.34637186";"13"
"6/21/2021 12:00:00 AM";"07:00 - 07:59";"09083";"Waalstraat";"4.90032528";"52.34680824";"11"
"6/21/2021 12:00:00 AM";"07:00 - 07:59";"09111";"De Pijp";"4.89073444";"52.35272728";"15"
"6/21/2021 12:00:00 AM";"07:00 - 07:59";"09120";"Cornelis Troostplein";"4.89161100";"52.35046604";"16"
"6/21/2021 12:00:00 AM";"07:00 - 07:59";"09176";"James Wattstraat";"4.92329155";"52.35116068";"19"
"6/21/2021 12:00:00 AM";"07:00 - 07:59";"ASA";"Amstelstation";"4.91751426";"52.34647326";"249"
"6/21/2021 12:00:00 AM";"07:00 - 07:59";"ASW";"Amstelveenseweg";"4.85798324";"52.33836671";"340"
"6/21/2021 12:00:00 AM";"07:00 - 07:59";"BLW";"Bullewijk";"4.95233581";"52.30642205";"86"
"6/21/2021 12:00:00 AM";"07:00 - 07:59";"BMR";"Station Bijlmer ArenA";"4.94713474";"52.31193030";"344"
"6/21/2021 12:00:00 AM";"07:00 - 07:59";"CLL";"Station Lelylaan";"4.83426589";"52.35766291";"94"
"6/21/2021 12:00:00 AM";"07:00 - 07:59";"CS";"Centraal Station";"4.90078150";"52.37749421";"567"
"6/21/2021 12:00:00 AM";"07:00 - 07:59";"DMZ";"Station Diemen-Zuid";"4.95713273";"52.33042795";"35"
"6/21/2021 12:00:00 AM";"07:00 - 07:59";"DPP";"De Pijp";"4.89101069";"52.35296212";"123"
"6/21/2021 12:00:00 AM";"07:00 - 07:59";"DVD";"Station Duivendrecht";"4.93678429";"52.32325190";"73"
"6/21/2021 12:00:00 AM";"07:00 - 07:59";"EPP";"Europaplein";"4.89138430";"52.34185482";"176"
"6/21/2021 12:00:00 AM";"07:00 - 07:59";"GN";"Gein";"4.98952268";"52.29627089";"30"
"6/21/2021 12:00:00 AM";"07:00 - 07:59";"GZH";"Station Ganzenhoef";"4.97323379";"52.32331315";"35"
"6/21/2021 12:00:00 AM";"07:00 - 07:59";"HDS";"Heemstedestraat";"4.83421208";"52.35255760";"62"
"6/21/2021 12:00:00 AM";"07:00 - 07:59";"HLD";"Station Holendrecht";"4.96021904";"52.29780451";"375"
"6/21/2021 12:00:00 AM";"07:00 - 07:59";"HVW";"Henk Sneevlietweg";"4.83439318";"52.34626699";"155"
"6/21/2021 12:00:00 AM";"07:00 - 07:59";"ITW";"Isolatorweg";"4.85013475";"52.39523277";"59"
"6/21/2021 12:00:00 AM";"07:00 - 07:59";"JLS";"Jan v.Galenstraat";"4.83492461";"52.37196551";"176"
"6/21/2021 12:00:00 AM";"07:00 - 07:59";"KEN";"Kraaienneststation";"4.97963450";"52.31632492";"29"
"6/21/2021 12:00:00 AM";"07:00 - 07:59";"MDW";"Van der Madeweg";"4.93048657";"52.32945629";"65"
"6/21/2021 12:00:00 AM";"07:00 - 07:59";"ND";"Noord";"4.93123182";"52.40117202";"143"
"6/21/2021 12:00:00 AM";"07:00 - 07:59";"NDP";"Noorderpark";"4.91789115";"52.38855518";"86"
"6/21/2021 12:00:00 AM";"07:00 - 07:59";"NMT";"Nieuwmarkt";"4.90123885";"52.37194169";"75"
"6/21/2021 12:00:00 AM";"07:00 - 07:59";"OAS";"Overamstel";"4.91815361";"52.33179879";"52"
"6/21/2021 12:00:00 AM";"07:00 - 07:59";"PJW";"Postjesweg";"4.83385543";"52.36468044";"44"
"6/21/2021 12:00:00 AM";"07:00 - 07:59";"RAI";"Station RAI";"4.88982004";"52.33739931";"154"
"6/21/2021 12:00:00 AM";"07:00 - 07:59";"RGB";"Reigersbos";"4.97473728";"52.29566301";"68"
"6/21/2021 12:00:00 AM";"07:00 - 07:59";"RKN";"Rokin";"4.89229651";"52.36928023";"179"
"6/21/2021 12:00:00 AM";"07:00 - 07:59";"SLW";"Spaklerweg";"4.92085640";"52.33986250";"86"
"6/21/2021 12:00:00 AM";"07:00 - 07:59";"STD";"Station Sloterdijk";"4.83878389";"52.38880848";"211"
"6/21/2021 12:00:00 AM";"07:00 - 07:59";"SVT";"Strandvliet";"4.94152820";"52.31825469";"57"
"6/21/2021 12:00:00 AM";"07:00 - 07:59";"VLN";"Burg.de Vlugtlaan";"4.83809109";"52.37951196";"27"
"6/21/2021 12:00:00 AM";"07:00 - 07:59";"VPD";"Venserpolder";"4.94665009";"52.32679428";"22"
"6/21/2021 12:00:00 AM";"07:00 - 07:59";"VSW";"Verrijn Stuartweg";"4.96693669";"52.32844093";"59"
"6/21/2021 12:00:00 AM";"07:00 - 07:59";"VZG";"Vijzelgracht";"4.89072870";"52.35980061";"93"
"6/21/2021 12:00:00 AM";"07:00 - 07:59";"WBS";"Wibautstraat";"4.91202993";"52.35428867";"208"
"6/21/2021 12:00:00 AM";"07:00 - 07:59";"WLP";"Waterlooplein";"4.90298171";"52.36697862";"135"
"6/21/2021 12:00:00 AM";"07:00 - 07:59";"WPP";"Weesperplein";"4.90787469";"52.36120146";"204"
"6/21/2021 12:00:00 AM";"07:00 - 07:59";"WTC";"Station Zuid";"4.87509853";"52.33908015";"685"
"6/21/2021 12:00:00 AM";"08:00 - 08:59";"";"Overig";"";"";"2745"
"6/21/2021 12:00:00 AM";"08:00 - 08:59";"[[ Onb";"[[ Onbekend ]]";"0.00000000";"0.00000000";"568"
"6/21/2021 12:00:00 AM";"08:00 - 08:59";"00005";"Muiderpoortstation";"4.93280219";"52.36121887";"57"
"6/21/2021 12:00:00 AM";"08:00 - 08:59";"00006";"Muiderpoortstation";"4.93368466";"52.36106048";"20"
"6/21/2021 12:00:00 AM";"08:00 - 08:59";"00007";"Muiderpoortstation";"4.93356602";"52.36117686";"23"
"6/21/2021 12:00:00 AM";"08:00 - 08:59";"00008";"Dapperstraat";"4.92977913";"52.36110836";"27"
"6/21/2021 12:00:00 AM";"08:00 - 08:59";"00010";"Dapperstraat";"4.92891486";"52.36092527";"11"
"6/21/2021 12:00:00 AM";"08:00 - 08:59";"00017";"Linnaeusstraat";"4.92573745";"52.36013099";"22"
"6/21/2021 12:00:00 AM";"08:00 - 08:59";"00020";"Beukenweg";"4.91674979";"52.35906203";"39"
"6/21/2021 12:00:00 AM";"08:00 - 08:59";"00021";"Beukenweg";"4.91721293";"52.35829991";"38"
"6/21/2021 12:00:00 AM";"08:00 - 08:59";"00023";"Beukenplein";"4.91809259";"52.35701816";"32"
"6/21/2021 12:00:00 AM";"08:00 - 08:59";"00029";"Oostpoort";"4.92719316";"52.35707185";"72"
"6/21/2021 12:00:00 AM";"08:00 - 08:59";"00030";"Oostpoort";"4.92694026";"52.35739442";"55"
"6/21/2021 12:00:00 AM";"08:00 - 08:59";"00039";"Hogeweg";"4.93084015";"52.35358075";"18"
"6/21/2021 12:00:00 AM";"08:00 - 08:59";"00040";"Hogeweg";"4.93135765";"52.35321425";"12"
"6/21/2021 12:00:00 AM";"08:00 - 08:59";"00053";"Kruislaan";"4.93967974";"52.34742196";"13"
"6/21/2021 12:00:00 AM";"08:00 - 08:59";"00059";"Radioweg";"4.93945830";"52.35337100";"43"
"6/21/2021 12:00:00 AM";"08:00 - 08:59";"00060";"Radioweg";"4.93979325";"52.35363291";"30"
"6/21/2021 12:00:00 AM";"08:00 - 08:59";"00065";"Hugo de Vrieslaan";"4.93487340";"52.35101676";"13"
"6/21/2021 12:00:00 AM";"08:00 - 08:59";"00066";"Hugo de Vrieslaan";"4.93540468";"52.35073118";"12"
"6/21/2021 12:00:00 AM";"08:00 - 08:59";"00070";"Kruislaan";"4.93993910";"52.34789929";"16"
"6/21/2021 12:00:00 AM";"08:00 - 08:59";"00114";"Dennenrode";"4.95213839";"52.32209601";"18"
"6/21/2021 12:00:00 AM";"08:00 - 08:59";"00116";"Station Ganzenhoef";"4.97272915";"52.32237665";"14"
"6/21/2021 12:00:00 AM";"08:00 - 08:59";"00141";"Kraaienneststation";"4.97868390";"52.31603403";"20"
"6/21/2021 12:00:00 AM";"08:00 - 08:59";"00144";"Kikkenstein";"4.97237050";"52.31680298";"12"
"6/21/2021 12:00:00 AM";"08:00 - 08:59";"00145";"Kikkenstein";"4.97271326";"52.31621998";"10"
"6/21/2021 12:00:00 AM";"08:00 - 08:59";"00150";"Tulastraat";"4.96535973";"52.31994189";"102"
"6/21/2021 12:00:00 AM";"08:00 - 08:59";"00151";"Tulastraat";"4.96584458";"52.31985374";"75"
"6/21/2021 12:00:00 AM";"08:00 - 08:59";"00152";"Florijn";"4.95859163";"52.31758973";"20"
"6/21/2021 12:00:00 AM";"08:00 - 08:59";"00153";"Florijn";"4.95971907";"52.31778255";"21"
"6/21/2021 12:00:00 AM";"08:00 - 08:59";"00157";"Dolingadreef";"4.94847023";"52.31925132";"15"
"6/21/2021 12:00:00 AM";"08:00 - 08:59";"00158";"Dolingadreef";"4.94901581";"52.31895674";"30"
"6/21/2021 12:00:00 AM";"08:00 - 08:59";"00167";"Hogevecht";"4.95956435";"52.30947729";"17"
"6/21/2021 12:00:00 AM";"08:00 - 08:59";"00179";"Kelbergen";"4.97179997";"52.31351146";"11"
"6/21/2021 12:00:00 AM";"08:00 - 08:59";"00180";"Kelbergen";"4.97143303";"52.31354612";"10"
"6/21/2021 12:00:00 AM";"08:00 - 08:59";"00199";"Station Ganzenhoef";"4.97329456";"52.32308866";"10"
"6/21/2021 12:00:00 AM";"08:00 - 08:59";"00205";"Station Holendrecht";"4.95865657";"52.29716971";"15"
"6/21/2021 12:00:00 AM";"08:00 - 08:59";"00238";"Anton de Komplein";"4.95413359";"52.31603659";"22"
"6/21/2021 12:00:00 AM";"08:00 - 08:59";"00239";"Anton de Komplein";"4.95597669";"52.31652866";"23"
"6/21/2021 12:00:00 AM";"08:00 - 08:59";"00306";"Leusdenhof";"4.97837367";"52.30990330";"12"
"6/21/2021 12:00:00 AM";"08:00 - 08:59";"00330";"Middenweg";"4.93455629";"52.35044932";"16"
"6/21/2021 12:00:00 AM";"08:00 - 08:59";"00331";"Station Reigersbos";"4.97350466";"52.29737537";"17"
"6/21/2021 12:00:00 AM";"08:00 - 08:59";"00341";"Woudrichemstraat";"4.98882309";"52.29418337";"13"
"6/21/2021 12:00:00 AM";"08:00 - 08:59";"00351";"Dostojevskisingel";"4.94525272";"52.32275356";"27"
"6/21/2021 12:00:00 AM";"08:00 - 08:59";"00352";"Dostojevskisingel";"4.94457408";"52.32314649";"12"
"6/21/2021 12:00:00 AM";"08:00 - 08:59";"00432";"Diemerbrug";"4.96142958";"52.33824484";"17"
"6/21/2021 12:00:00 AM";"08:00 - 08:59";"00441";"Muiderpoortstation";"4.93254137";"52.36088532";"15"
"6/21/2021 12:00:00 AM";"08:00 - 08:59";"00444";"Linnaeusstraat";"4.92490296";"52.35991203";"39"
"6/21/2021 12:00:00 AM";"08:00 - 08:59";"00451";"Paasheuvelweg";"4.95505879";"52.29630278";"11"
"6/21/2021 12:00:00 AM";"08:00 - 08:59";"00453";"Diemen Sniep";"4.96964866";"52.33644962";"17"
"6/21/2021 12:00:00 AM";"08:00 - 08:59";"00491";"Science Park Aer";"4.95218495";"52.35478458";"31"
"6/21/2021 12:00:00 AM";"08:00 - 08:59";"00505";"Arent Krijtsstraat";"4.95469645";"52.33956859";"12"
"6/21/2021 12:00:00 AM";"08:00 - 08:59";"00511";"Station Duivendrecht";"4.93682938";"52.32314422";"10"
"6/21/2021 12:00:00 AM";"08:00 - 08:59";"00518";"Foppingadreef";"4.94967889";"52.31268573";"18"
"6/21/2021 12:00:00 AM";"08:00 - 08:59";"00529";"Station Science Park";"4.94782063";"52.35230583";"14"
"6/21/2021 12:00:00 AM";"08:00 - 08:59";"00537";"Linnaeusparkweg";"4.94275809";"52.34924908";"12"
"6/21/2021 12:00:00 AM";"08:00 - 08:59";"00538";"Station Science Park";"4.94808393";"52.35239669";"37"
"6/21/2021 12:00:00 AM";"08:00 - 08:59";"00554";"Science Park";"4.95088162";"52.35447420";"10"
"6/21/2021 12:00:00 AM";"08:00 - 08:59";"00560";"Station Bijlmer ArenA";"4.94747867";"52.31125750";"34"
"6/21/2021 12:00:00 AM";"08:00 - 08:59";"00561";"Station Bijlmer ArenA";"4.94741931";"52.31132918";"55"
"6/21/2021 12:00:00 AM";"08:00 - 08:59";"00562";"Station Bijlmer ArenA";"4.94736012";"52.31138289";"15"
"6/21/2021 12:00:00 AM";"08:00 - 08:59";"00568";"Station Bijlmer ArenA";"4.94762664";"52.31112323";"24"
"6/21/2021 12:00:00 AM";"08:00 - 08:59";"00603";"V. Houten Ind.park";"5.03580865";"52.30648376";"11"
"6/21/2021 12:00:00 AM";"08:00 - 08:59";"00651";"Casparuslaan";"5.03531862";"52.30911571";"14"
"6/21/2021 12:00:00 AM";"08:00 - 08:59";"00665";"Station Weesp";"5.04383463";"52.31145059";"18"
"6/21/2021 12:00:00 AM";"08:00 - 08:59";"00985";"Winkelcentrum";"4.96422695";"52.34186794";"13"
"6/21/2021 12:00:00 AM";"08:00 - 08:59";"01007";"Purmerweg";"4.94871052";"52.38999448";"12"
"6/21/2021 12:00:00 AM";"08:00 - 08:59";"01076";"Waterlandplein";"4.95247364";"52.39274059";"22"
"6/21/2021 12:00:00 AM";"08:00 - 08:59";"01077";"Dijkmanshuizenstraat";"4.95440778";"52.39627083";"10"
"6/21/2021 12:00:00 AM";"08:00 - 08:59";"01078";"Dijkmanshuizenstraat";"4.95475323";"52.39549915";"22"
"6/21/2021 12:00:00 AM";"08:00 - 08:59";"01108";"J. Drijverweg";"4.94437079";"52.39943333";"11"
"6/21/2021 12:00:00 AM";"08:00 - 08:59";"01110";"Rode Kruisstraat";"4.92847908";"52.39455548";"47"
"6/21/2021 12:00:00 AM";"08:00 - 08:59";"01111";"Rode Kruisstraat";"4.92881363";"52.39488033";"121"
"6/21/2021 12:00:00 AM";"08:00 - 08:59";"01116";"Merelstraat";"4.92492850";"52.38986809";"21"
"6/21/2021 12:00:00 AM";"08:00 - 08:59";"01117";"Merelstraat";"4.92505977";"52.38995848";"31"
"6/21/2021 12:00:00 AM";"08:00 - 08:59";"01142";"Mosplein";"4.91298245";"52.39289464";"11"
"6/21/2021 12:00:00 AM";"08:00 - 08:59";"01166";"Barkpad";"4.91174689";"52.40262332";"12"
"6/21/2021 12:00:00 AM";"08:00 - 08:59";"01168";"Tjalkstraat";"4.91116991";"52.40572174";"11"
"6/21/2021 12:00:00 AM";"08:00 - 08:59";"01189";"Pinksterbloemstraat";"4.91221693";"52.39852684";"17"
"6/21/2021 12:00:00 AM";"08:00 - 08:59";"01191";"Pinksterbloemstraat";"4.91203754";"52.39881372";"17"
"6/21/2021 12:00:00 AM";"08:00 - 08:59";"01205";"Maanstraat";"4.88734967";"52.41214866";"10"
"6/21/2021 12:00:00 AM";"08:00 - 08:59";"01212";"Oostzanerdijk";"4.88149588";"52.42023965";"65"
"6/21/2021 12:00:00 AM";"08:00 - 08:59";"01237";"Beemsterstraat";"4.95210741";"52.39712521";"27"
"6/21/2021 12:00:00 AM";"08:00 - 08:59";"01305";"Station Noord";"4.93215715";"52.40264056";"28"
"6/21/2021 12:00:00 AM";"08:00 - 08:59";"01316";"Station Noord";"4.93336820";"52.40204304";"46"
"6/21/2021 12:00:00 AM";"08:00 - 08:59";"01347";"Nageljongenstraat";"4.89978361";"52.40815603";"13"
"6/21/2021 12:00:00 AM";"08:00 - 08:59";"01352";"Oosterlengte";"4.92206974";"52.40611555";"20"
"6/21/2021 12:00:00 AM";"08:00 - 08:59";"01359";"Molenwijk";"4.89361832";"52.41807082";"10"
"6/21/2021 12:00:00 AM";"08:00 - 08:59";"01363";"Buikslotermeerplein";"4.93968364";"52.39943369";"22"
"6/21/2021 12:00:00 AM";"08:00 - 08:59";"01364";"Buikslotermeerplein";"4.93887054";"52.39992493";"13"
"6/21/2021 12:00:00 AM";"08:00 - 08:59";"01365";"Atat?rk";"4.89794256";"52.40319625";"31"
"6/21/2021 12:00:00 AM";"08:00 - 08:59";"01366";"Atat?rk";"4.89776534";"52.40327640";"10"
"6/21/2021 12:00:00 AM";"08:00 - 08:59";"01369";"Pomonastraat";"4.89546974";"52.40886620";"17"
"6/21/2021 12:00:00 AM";"08:00 - 08:59";"01402";"Floraweg";"4.90614362";"52.39899665";"37"
"6/21/2021 12:00:00 AM";"08:00 - 08:59";"01407";"Floraweg";"4.90766473";"52.39828381";"12"
"6/21/2021 12:00:00 AM";"08:00 - 08:59";"01414";"Olof Palmeplein";"4.94012168";"52.39679298";"19"
"6/21/2021 12:00:00 AM";"08:00 - 08:59";"01422";"Noorderpark";"4.91956087";"52.38902016";"36"
"6/21/2021 12:00:00 AM";"08:00 - 08:59";"01443";"Volendammerweg";"4.95697086";"52.39255928";"18"
"6/21/2021 12:00:00 AM";"08:00 - 08:59";"02018";"Koivistokade";"4.87577082";"52.39789874";"102"
"6/21/2021 12:00:00 AM";"08:00 - 08:59";"02019";"Koivistokade";"4.87537403";"52.39790601";"18"
"6/21/2021 12:00:00 AM";"08:00 - 08:59";"02064";"Kabelweg";"4.84827817";"52.39205168";"26"
"6/21/2021 12:00:00 AM";"08:00 - 08:59";"02066";"La Guardiaweg";"4.84008244";"52.39190625";"15"
"6/21/2021 12:00:00 AM";"08:00 - 08:59";"02099";"Zaanstraat";"4.86990824";"52.39287613";"13"
"6/21/2021 12:00:00 AM";"08:00 - 08:59";"02103";"Spaarndammerstraat";"4.87765867";"52.39216375";"43"
"6/21/2021 12:00:00 AM";"08:00 - 08:59";"02106";"Assendelftstraat";"4.87943840";"52.38941217";"10"
"6/21/2021 12:00:00 AM";"08:00 - 08:59";"02112";"Nassauplein";"4.88149625";"52.38543943";"13"
"6/21/2021 12:00:00 AM";"08:00 - 08:59";"02113";"Haarlemmerplein";"4.88371739";"52.38516129";"26"
"6/21/2021 12:00:00 AM";"08:00 - 08:59";"02114";"Haarlemmerplein";"4.88341252";"52.38484542";"36"
"6/21/2021 12:00:00 AM";"08:00 - 08:59";"02128";"G. v.Ledenberchstraat";"4.87062828";"52.37520945";"10"
"6/21/2021 12:00:00 AM";"08:00 - 08:59";"02130";"Hugo de Grootplein";"4.87259092";"52.37439113";"17"
"6/21/2021 12:00:00 AM";"08:00 - 08:59";"02132";"Fred. Hendrikplants.";"4.87543499";"52.37862768";"25"
"6/21/2021 12:00:00 AM";"08:00 - 08:59";"02142";"V.d. Hoopstraat";"4.87031312";"52.38335094";"12"
"6/21/2021 12:00:00 AM";"08:00 - 08:59";"02149";"Van L.Stirumstraat";"4.87489798";"52.38443141";"13"
"6/21/2021 12:00:00 AM";"08:00 - 08:59";"02153";"Nassaukade";"4.87920791";"52.38132226";"10"
"6/21/2021 12:00:00 AM";"08:00 - 08:59";"02155";"Willem de Zwijgerlaan";"4.86360306";"52.37071170";"20"
"6/21/2021 12:00:00 AM";"08:00 - 08:59";"02156";"Willem de Zwijgerlaan";"4.86425293";"52.37039101";"24"
"6/21/2021 12:00:00 AM";"08:00 - 08:59";"02157";"Adm. de Ruijterweg";"4.86009910";"52.37148707";"37"
"6/21/2021 12:00:00 AM";"08:00 - 08:59";"02158";"Adm. de Ruijterweg";"4.86096776";"52.37129320";"30"
"6/21/2021 12:00:00 AM";"08:00 - 08:59";"02160";"Haparandaweg";"4.87389760";"52.39471799";"78"
"6/21/2021 12:00:00 AM";"08:00 - 08:59";"02167";"Bos en Lommerweg";"4.85380049";"52.38118358";"22"
"6/21/2021 12:00:00 AM";"08:00 - 08:59";"02170";"Spaarndammerstraat";"4.87723089";"52.39231470";"15"
"6/21/2021 12:00:00 AM";"08:00 - 08:59";"02171";"Wiltzanghlaan";"4.85060722";"52.38290378";"20"
"6/21/2021 12:00:00 AM";"08:00 - 08:59";"02172";"Molenwerf";"4.84552895";"52.38620612";"11"
"6/21/2021 12:00:00 AM";"08:00 - 08:59";"02183";"Markthallen";"4.86667150";"52.37575835";"10"
"6/21/2021 12:00:00 AM";"08:00 - 08:59";"02190";"Karel Doormanstraat";"4.85695623";"52.37889690";"12"
"6/21/2021 12:00:00 AM";"08:00 - 08:59";"02193";"Marnixplein";"4.87844490";"52.37741832";"13"
"6/21/2021 12:00:00 AM";"08:00 - 08:59";"02221";"Jan v.Galenstraat";"4.85842340";"52.37532634";"12"
"6/21/2021 12:00:00 AM";"08:00 - 08:59";"02222";"Jan van Galenstraat";"4.85874763";"52.37399761";"26"
"6/21/2021 12:00:00 AM";"08:00 - 08:59";"02259";"Contactweg";"4.85657970";"52.39195435";"40"
"6/21/2021 12:00:00 AM";"08:00 - 08:59";"02260";"Contactweg";"4.85432952";"52.39215995";"21"
"6/21/2021 12:00:00 AM";"08:00 - 08:59";"02301";"Fred. Hendrikplants.";"4.87521585";"52.37852787";"22"
"6/21/2021 12:00:00 AM";"08:00 - 08:59";"02309";"Plesostraat";"4.82645527";"52.38795084";"11"
"6/21/2021 12:00:00 AM";"08:00 - 08:59";"02310";"Plesostraat";"4.82849791";"52.38788859";"12"
"6/21/2021 12:00:00 AM";"08:00 - 08:59";"02318";"Solebaystraat";"4.85482536";"52.38512481";"13"
"6/21/2021 12:00:00 AM";"08:00 - 08:59";"02320";"Van Hallstraat";"4.86782303";"52.38527240";"14"
"6/21/2021 12:00:00 AM";"08:00 - 08:59";"02321";"Van Hallstraat";"4.86864429";"52.38538386";"15"
"6/21/2021 12:00:00 AM";"08:00 - 08:59";"02361";"Station Sloterdijk";"4.83931858";"52.38833460";"103"
"6/21/2021 12:00:00 AM";"08:00 - 08:59";"02365";"Station Sloterdijk";"4.83873236";"52.38822404";"28"
"6/21/2021 12:00:00 AM";"08:00 - 08:59";"02366";"Station Sloterdijk";"4.83873347";"52.38813416";"28"
"6/21/2021 12:00:00 AM";"08:00 - 08:59";"02367";"Station Sloterdijk";"4.83876429";"52.38801747";"30"
"6/21/2021 12:00:00 AM";"08:00 - 08:59";"02368";"Station Sloterdijk";"4.83877999";"52.38793665";"24"
"6/21/2021 12:00:00 AM";"08:00 - 08:59";"02378";"Station Sloterdijk";"4.83809796";"52.38844579";"89"
"6/21/2021 12:00:00 AM";"08:00 - 08:59";"03009";"Witte de Withstraat";"4.85851970";"52.36478416";"31"
"6/21/2021 12:00:00 AM";"08:00 - 08:59";"03010";"Witte de Withstraat";"4.85928290";"52.36480554";"25"
"6/21/2021 12:00:00 AM";"08:00 - 08:59";"03022";"Mercatorplein";"4.85070310";"52.37012367";"18"
"6/21/2021 12:00:00 AM";"08:00 - 08:59";"03023";"Marco Polostraat";"4.85520189";"52.37088096";"47"
"6/21/2021 12:00:00 AM";"08:00 - 08:59";"03024";"Marco Polostraat";"4.85546532";"52.37095405";"10"
"6/21/2021 12:00:00 AM";"08:00 - 08:59";"03025";"Jan v.Galenstraat";"4.84854861";"52.37342137";"14"
"6/21/2021 12:00:00 AM";"08:00 - 08:59";"03034";"Erasmusgracht";"4.84691117";"52.37644278";"12"
"6/21/2021 12:00:00 AM";"08:00 - 08:59";"03052";"Burg. Eliasstraat";"4.82565009";"52.38077481";"24"
"6/21/2021 12:00:00 AM";"08:00 - 08:59";"03055";"Burg. Fockstraat";"4.83108040";"52.37991964";"17"
"6/21/2021 12:00:00 AM";"08:00 - 08:59";"03060";"Bos en Lommerplein";"4.84718407";"52.37815169";"20"
"6/21/2021 12:00:00 AM";"08:00 - 08:59";"03061";"Bos en Lommerplein";"4.84523530";"52.37778328";"45"
"6/21/2021 12:00:00 AM";"08:00 - 08:59";"03076";"Jan Tooropstraat";"4.83810313";"52.37142305";"37"
"6/21/2021 12:00:00 AM";"08:00 - 08:59";"03077";"Jan Tooropstraat";"4.83817288";"52.37171997";"14"
"6/21/2021 12:00:00 AM";"08:00 - 08:59";"03087";"Plein '40 - '45";"4.82063128";"52.38159575";"14"
"6/21/2021 12:00:00 AM";"08:00 - 08:59";"03090";"Slotermeerlaan";"4.81728149";"52.37596234";"27"
"6/21/2021 12:00:00 AM";"08:00 - 08:59";"03097";"Burg. v. Leeuwenlaan";"4.81182601";"52.37651117";"16"
"6/21/2021 12:00:00 AM";"08:00 - 08:59";"03099";"Dr. H. Colijnstraat";"4.80672448";"52.37693566";"10"
"6/21/2021 12:00:00 AM";"08:00 - 08:59";"03101";"Lambertus Zijlplein";"4.80300456";"52.37726788";"20"
"6/21/2021 12:00:00 AM";"08:00 - 08:59";"03121";"Aalbersestraat";"4.79774249";"52.38202329";"15"
"6/21/2021 12:00:00 AM";"08:00 - 08:59";"03129";"Plein '40 - '45";"4.82112672";"52.38075328";"54"
"6/21/2021 12:00:00 AM";"08:00 - 08:59";"03130";"Plein '40 - '45";"4.82267774";"52.38121007";"26"
"6/21/2021 12:00:00 AM";"08:00 - 08:59";"03132";"Burg. R?ellstraat";"4.81950345";"52.37676393";"32"
"6/21/2021 12:00:00 AM";"08:00 - 08:59";"03135";"Ookmeerweg";"4.80431836";"52.36558127";"41"
"6/21/2021 12:00:00 AM";"08:00 - 08:59";"03136";"Ookmeerweg";"4.80419536";"52.36600309";"17"
"6/21/2021 12:00:00 AM";"08:00 - 08:59";"03145";"J. Cabeliaustraat";"4.80409638";"52.38246819";"13"
"6/21/2021 12:00:00 AM";"08:00 - 08:59";"03150";"Mercatorplein";"4.85011339";"52.37031872";"21"
"6/21/2021 12:00:00 AM";"08:00 - 08:59";"03157";"Lambertus Zijlplein";"4.80338637";"52.37726977";"13"
"6/21/2021 12:00:00 AM";"08:00 - 08:59";"03163";"Burg.de Vlugtlaan";"4.83793812";"52.37881920";"22"
"6/21/2021 12:00:00 AM";"08:00 - 08:59";"03167";"Bos en Lommerplein";"4.84650668";"52.37709704";"24"
"6/21/2021 12:00:00 AM";"08:00 - 08:59";"03168";"Mercatorplein";"4.85152392";"52.37024423";"15"
"6/21/2021 12:00:00 AM";"08:00 - 08:59";"03171";"Burg. Rendorpstraat";"4.82768433";"52.37436719";"37"
"6/21/2021 12:00:00 AM";"08:00 - 08:59";"03172";"Burg. Rendorpstraat";"4.82691962";"52.37445346";"37"
"6/21/2021 12:00:00 AM";"08:00 - 08:59";"03174";"Burg. R?ellstraat";"4.81863325";"52.37476448";"12"
"6/21/2021 12:00:00 AM";"08:00 - 08:59";"03178";"Mercatorplein";"4.84991664";"52.37080317";"15"
"6/21/2021 12:00:00 AM";"08:00 - 08:59";"03179";"Adm. Helfrichstraat";"4.84386882";"52.36944538";"11"
"6/21/2021 12:00:00 AM";"08:00 - 08:59";"03181";"Jan Voermanstraat";"4.83788946";"52.36970540";"30"
"6/21/2021 12:00:00 AM";"08:00 - 08:59";"03182";"Jan Voermanstraat";"4.83852226";"52.36959149";"15"
"6/21/2021 12:00:00 AM";"08:00 - 08:59";"03197";"W. Schoutenstraat";"4.85238084";"52.36737202";"11"
"6/21/2021 12:00:00 AM";"08:00 - 08:59";"03198";"W. Schoutenstraat";"4.85259061";"52.36702245";"15"
"6/21/2021 12:00:00 AM";"08:00 - 08:59";"04008";"Dijkgraafplein";"4.78646982";"52.35545267";"10"
"6/21/2021 12:00:00 AM";"08:00 - 08:59";"04009";"Dijkgraafplein";"4.78689401";"52.35556268";"13"
"6/21/2021 12:00:00 AM";"08:00 - 08:59";"04012";"Baden Powellweg";"4.79137362";"52.35646612";"34"
"6/21/2021 12:00:00 AM";"08:00 - 08:59";"04016";"Hoekenes";"4.79854723";"52.35791310";"10"
"6/21/2021 12:00:00 AM";"08:00 - 08:59";"04021";"Osdorpplein West";"4.80322869";"52.35913166";"19"
"6/21/2021 12:00:00 AM";"08:00 - 08:59";"04022";"Osdorpplein West";"4.80322218";"52.35962596";"12"
"6/21/2021 12:00:00 AM";"08:00 - 08:59";"04023";"Osdorpplein Noord";"4.80526797";"52.36034607";"10"
"6/21/2021 12:00:00 AM";"08:00 - 08:59";"04049";"Meer en Vaart";"4.81058859";"52.35647140";"14"
"6/21/2021 12:00:00 AM";"08:00 - 08:59";"04050";"Meer en Vaart";"4.80994403";"52.35636940";"22"
"6/21/2021 12:00:00 AM";"08:00 - 08:59";"04060";"Derkinderenstraat";"4.83972293";"52.35796689";"28"
"6/21/2021 12:00:00 AM";"08:00 - 08:59";"04061";"Derkinderenstraat";"4.84014895";"52.35794190";"33"
"6/21/2021 12:00:00 AM";"08:00 - 08:59";"04062";"Johan Huizingalaan";"4.82582327";"52.35781191";"23"
"6/21/2021 12:00:00 AM";"08:00 - 08:59";"04063";"Johan Huizingalaan";"4.82626398";"52.35778704";"38"
"6/21/2021 12:00:00 AM";"08:00 - 08:59";"04064";"Osdorpplein Oost";"4.80806527";"52.35860717";"15"
"6/21/2021 12:00:00 AM";"08:00 - 08:59";"04065";"Osdorpplein Oost";"4.80773259";"52.35935153";"25"
"6/21/2021 12:00:00 AM";"08:00 - 08:59";"04088";"Louwesweg";"4.82436420";"52.34669608";"30"
"6/21/2021 12:00:00 AM";"08:00 - 08:59";"04101";"Naaldwijkstraat";"4.84258985";"52.34684426";"11"
"6/21/2021 12:00:00 AM";"08:00 - 08:59";"04110";"Westlandgracht";"4.84581964";"52.35156868";"14"
"6/21/2021 12:00:00 AM";"08:00 - 08:59";"04111";"Delflandlaan";"4.84191575";"52.35154177";"12"
"6/21/2021 12:00:00 AM";"08:00 - 08:59";"04112";"Johan Huizingalaan";"4.82742878";"52.34923618";"54"
"6/21/2021 12:00:00 AM";"08:00 - 08:59";"04113";"Johan Huizingalaan";"4.82750420";"52.34907476";"10"
"6/21/2021 12:00:00 AM";"08:00 - 08:59";"04129";"Derkinderenstraat";"4.83926482";"52.36415734";"22"
"6/21/2021 12:00:00 AM";"08:00 - 08:59";"04132";"Jan Tooropstraat";"4.83537474";"52.36411231";"10"
"6/21/2021 12:00:00 AM";"08:00 - 08:59";"04133";"Robert Fruinlaan";"4.82910660";"52.36403799";"30"
"6/21/2021 12:00:00 AM";"08:00 - 08:59";"04136";"Justus Lipsiusstraat";"4.82704776";"52.36081963";"17"
"6/21/2021 12:00:00 AM";"08:00 - 08:59";"04140";"Sierplein";"4.82732630";"52.35503282";"17"
"6/21/2021 12:00:00 AM";"08:00 - 08:59";"04148";"Louis Davidsstraat";"4.80952552";"52.35356316";"60"
"6/21/2021 12:00:00 AM";"08:00 - 08:59";"04195";"Station Lelylaan";"4.83460082";"52.35788018";"116"
"6/21/2021 12:00:00 AM";"08:00 - 08:59";"04196";"Station Lelylaan";"4.83382251";"52.35790351";"126"
"6/21/2021 12:00:00 AM";"08:00 - 08:59";"04267";"Schiphol Airport/Plaza";"4.76139455";"52.30887344";"11"
"6/21/2021 12:00:00 AM";"08:00 - 08:59";"04274";"Schiphol Airport/Plaza";"4.76104997";"52.30939292";"11"
"6/21/2021 12:00:00 AM";"08:00 - 08:59";"04277";"Laan v.Vlaanderen";"4.81642720";"52.34648730";"18"
"6/21/2021 12:00:00 AM";"08:00 - 08:59";"04279";"Centrum Nieuw Sloten";"4.81104244";"52.34638930";"18"
"6/21/2021 12:00:00 AM";"08:00 - 08:59";"04379";"Knooppunt Schiphol Nrd";"4.79320459";"52.32276196";"29"
"6/21/2021 12:00:00 AM";"08:00 - 08:59";"04402";"Matterhorn";"4.77477998";"52.35372103";"26"
"6/21/2021 12:00:00 AM";"08:00 - 08:59";"04403";"Pilatus";"4.77696371";"52.35289644";"15"
"6/21/2021 12:00:00 AM";"08:00 - 08:59";"04407";"Ecuplein";"4.78817670";"52.34970912";"11"
"6/21/2021 12:00:00 AM";"08:00 - 08:59";"04409";"Baden Powellweg";"4.79441281";"52.35092691";"28"
"6/21/2021 12:00:00 AM";"08:00 - 08:59";"04411";"Hoekenes";"4.80183430";"52.35243785";"28"
"6/21/2021 12:00:00 AM";"08:00 - 08:59";"04413";"Louis Davidsstraat";"4.80850916";"52.35383682";"76"
"6/21/2021 12:00:00 AM";"08:00 - 08:59";"05011";"Centraal Station";"4.89921803";"52.37810793";"216"
"6/21/2021 12:00:00 AM";"08:00 - 08:59";"05029";"Centraal Station";"4.90334975";"52.37900567";"166"
"6/21/2021 12:00:00 AM";"08:00 - 08:59";"05031";"Dam";"4.89348394";"52.37341055";"23"
"6/21/2021 12:00:00 AM";"08:00 - 08:59";"05032";"Dam";"4.89549360";"52.37492885";"25"
"6/21/2021 12:00:00 AM";"08:00 - 08:59";"05035";"Rokin";"4.89210433";"52.36939627";"16"
"6/21/2021 12:00:00 AM";"08:00 - 08:59";"05036";"Rokin";"4.89230478";"52.36985548";"38"
"6/21/2021 12:00:00 AM";"08:00 - 08:59";"05046";"Rembrandtplein";"4.89627976";"52.36625897";"18"
"6/21/2021 12:00:00 AM";"08:00 - 08:59";"05047";"Rembrandtplein";"4.89702882";"52.36623511";"62"
"6/21/2021 12:00:00 AM";"08:00 - 08:59";"05053";"Waterlooplein";"4.90195418";"52.36695644";"26"
"6/21/2021 12:00:00 AM";"08:00 - 08:59";"05060";"Koningsplein";"4.88894752";"52.36807981";"38"
"6/21/2021 12:00:00 AM";"08:00 - 08:59";"05063";"Paleisstraat";"4.89064591";"52.37244599";"12"
"6/21/2021 12:00:00 AM";"08:00 - 08:59";"05064";"Koningsplein";"4.88949610";"52.36760577";"50"
"6/21/2021 12:00:00 AM";"08:00 - 08:59";"05065";"Dam";"4.89079364";"52.37367792";"59"
"6/21/2021 12:00:00 AM";"08:00 - 08:59";"05066";"Dam";"4.89027056";"52.37318140";"67"
"6/21/2021 12:00:00 AM";"08:00 - 08:59";"05069";"Nieuwezijds Kolk";"4.89373093";"52.37628765";"48"
"6/21/2021 12:00:00 AM";"08:00 - 08:59";"05070";"Nieuwezijds Kolk";"4.89284106";"52.37575366";"32"
"6/21/2021 12:00:00 AM";"08:00 - 08:59";"05073";"Westermarkt";"4.88453426";"52.37400204";"62"
"6/21/2021 12:00:00 AM";"08:00 - 08:59";"05074";"Westermarkt";"4.88354950";"52.37407874";"102"
"6/21/2021 12:00:00 AM";"08:00 - 08:59";"05077";"Marnixstraat";"4.87615428";"52.37228546";"39"
"6/21/2021 12:00:00 AM";"08:00 - 08:59";"05079";"Buiten Oranjestraat";"4.88805879";"52.38312149";"11"
"6/21/2021 12:00:00 AM";"08:00 - 08:59";"05080";"Buiten Oranjestraat";"4.88782167";"52.38330923";"37"
"6/21/2021 12:00:00 AM";"08:00 - 08:59";"05082";"Buiten Brouwersstraat";"4.89129168";"52.38167008";"38"
"6/21/2021 12:00:00 AM";"08:00 - 08:59";"05090";"Westerdoksdijk";"4.89331977";"52.38551629";"24"
"6/21/2021 12:00:00 AM";"08:00 - 08:59";"05092";"Barentszplein";"4.89160204";"52.38938281";"37"
"6/21/2021 12:00:00 AM";"08:00 - 08:59";"05097";"Centraal Station";"4.90087651";"52.37954379";"44"
"6/21/2021 12:00:00 AM";"08:00 - 08:59";"05101";"Centraal Station";"4.90105195";"52.37961641";"27"
"6/21/2021 12:00:00 AM";"08:00 - 08:59";"05103";"Centraal Station";"4.90127481";"52.37938365";"39"
"6/21/2021 12:00:00 AM";"08:00 - 08:59";"05104";"Centraal Station";"4.90164343";"52.37925034";"25"
"6/21/2021 12:00:00 AM";"08:00 - 08:59";"05106";"Centraal Station";"4.90229030";"52.37919008";"29"
"6/21/2021 12:00:00 AM";"08:00 - 08:59";"05107";"Centraal Station";"4.90195282";"52.37916174";"36"
"6/21/2021 12:00:00 AM";"08:00 - 08:59";"05154";"Marnixstraat";"4.87536375";"52.37207533";"22"
"6/21/2021 12:00:00 AM";"08:00 - 08:59";"06001";"Surinameplein";"4.85252231";"52.35807034";"51"
"6/21/2021 12:00:00 AM";"08:00 - 08:59";"06002";"Surinameplein";"4.85090753";"52.35807202";"25"
"6/21/2021 12:00:00 AM";"08:00 - 08:59";"06010";"Corantijnstraat";"4.85326125";"52.36131825";"13"
"6/21/2021 12:00:00 AM";"08:00 - 08:59";"06015";"Postjesweg";"4.85316124";"52.36352879";"11"
"6/21/2021 12:00:00 AM";"08:00 - 08:59";"06016";"J.P. Heijestraat";"4.86239635";"52.36472951";"32"
"6/21/2021 12:00:00 AM";"08:00 - 08:59";"06017";"J.P. Heijestraat";"4.86292317";"52.36487565";"27"
"6/21/2021 12:00:00 AM";"08:00 - 08:59";"06019";"Ten Katestraat";"4.86737423";"52.36591988";"41"
"6/21/2021 12:00:00 AM";"08:00 - 08:59";"06020";"Ten Katestraat";"4.86773990";"52.36603832";"39"
"6/21/2021 12:00:00 AM";"08:00 - 08:59";"06021";"Bilderdijkstraat";"4.87176488";"52.36712545";"86"
"6/21/2021 12:00:00 AM";"08:00 - 08:59";"06023";"Bilderdijkstraat";"4.87254032";"52.36736251";"28"
"6/21/2021 12:00:00 AM";"08:00 - 08:59";"06024";"Kinkerstraat";"4.87230885";"52.36706491";"20"
"6/21/2021 12:00:00 AM";"08:00 - 08:59";"06025";"Kinkerstraat";"4.87201094";"52.36743211";"13"
"6/21/2021 12:00:00 AM";"08:00 - 08:59";"06027";"Elandsgracht";"4.87855189";"52.36808953";"28"
"6/21/2021 12:00:00 AM";"08:00 - 08:59";"06028";"Elandsgracht";"4.87741694";"52.36974738";"60"
"6/21/2021 12:00:00 AM";"08:00 - 08:59";"06029";"Elandsgracht";"4.87684368";"52.36852258";"98"
"6/21/2021 12:00:00 AM";"08:00 - 08:59";"06030";"Rozengracht";"4.87590932";"52.37187996";"26"
"6/21/2021 12:00:00 AM";"08:00 - 08:59";"06034";"Bilderdijkstraat";"4.87082347";"52.37105798";"21"
"6/21/2021 12:00:00 AM";"08:00 - 08:59";"06037";"Bilderdijkstraat";"4.86985701";"52.37082906";"33"
"6/21/2021 12:00:00 AM";"08:00 - 08:59";"06038";"De Clercqstraat";"4.87040279";"52.37061574";"10"
"6/21/2021 12:00:00 AM";"08:00 - 08:59";"06043";"Overtoom";"4.87510145";"52.36299659";"20"
"6/21/2021 12:00:00 AM";"08:00 - 08:59";"06044";"Overtoom";"4.87483191";"52.36345380";"20"
"6/21/2021 12:00:00 AM";"08:00 - 08:59";"06045";"1e Con. Huygensstraat";"4.87399228";"52.36242556";"21"
"6/21/2021 12:00:00 AM";"08:00 - 08:59";"06046";"1e Con. Huygensstraat";"4.87487082";"52.36262709";"72"
"6/21/2021 12:00:00 AM";"08:00 - 08:59";"06048";"J.P. Heijestraat";"4.86585368";"52.36037674";"28"
"6/21/2021 12:00:00 AM";"08:00 - 08:59";"06049";"J.P. Heijestraat";"4.86671778";"52.36055131";"18"
"6/21/2021 12:00:00 AM";"08:00 - 08:59";"06059";"Spiegelgracht";"4.88762090";"52.36071327";"40"
"6/21/2021 12:00:00 AM";"08:00 - 08:59";"06061";"Leidseplein";"4.88339576";"52.36305015";"72"
"6/21/2021 12:00:00 AM";"08:00 - 08:59";"06063";"Leidseplein";"4.88064547";"52.36476406";"51"
"6/21/2021 12:00:00 AM";"08:00 - 08:59";"06067";"Leidseplein";"4.88301434";"52.36431580";"34"
"6/21/2021 12:00:00 AM";"08:00 - 08:59";"06072";"Prinsengracht";"4.88428435";"52.36495933";"34"
"6/21/2021 12:00:00 AM";"08:00 - 08:59";"06073";"Keizersgracht";"4.88666521";"52.36604795";"26"
"6/21/2021 12:00:00 AM";"08:00 - 08:59";"06074";"Keizersgracht";"4.88624128";"52.36588437";"32"
"6/21/2021 12:00:00 AM";"08:00 - 08:59";"06081";"Rhijnvis Feithstraat";"4.86039355";"52.35905833";"14"
"6/21/2021 12:00:00 AM";"08:00 - 08:59";"06082";"Rhijnvis Feithstraat";"4.85967683";"52.35883943";"19"
"6/21/2021 12:00:00 AM";"08:00 - 08:59";"06089";"Leidseplein";"4.88085541";"52.36309324";"86"
"6/21/2021 12:00:00 AM";"08:00 - 08:59";"06114";"Hoofdweg";"4.85444451";"52.36425359";"21"
"6/21/2021 12:00:00 AM";"08:00 - 08:59";"06115";"Postjesweg";"4.85319014";"52.36478720";"12"
"6/21/2021 12:00:00 AM";"08:00 - 08:59";"07002";"Van Baerlestraat";"4.87836936";"52.35839997";"29"
"6/21/2021 12:00:00 AM";"08:00 - 08:59";"07003";"Van Baerlestraat";"4.87808541";"52.35883915";"11"
"6/21/2021 12:00:00 AM";"08:00 - 08:59";"07004";"De Boelelaan/VU";"4.86586883";"52.33534587";"12"
"6/21/2021 12:00:00 AM";"08:00 - 08:59";"07005";"De Boelelaan/VU";"4.86720539";"52.33522592";"12"
"6/21/2021 12:00:00 AM";"08:00 - 08:59";"07006";"Museumplein";"4.87980116";"52.35642881";"60"
"6/21/2021 12:00:00 AM";"08:00 - 08:59";"07007";"Museumplein";"4.87950215";"52.35690388";"107"
"6/21/2021 12:00:00 AM";"08:00 - 08:59";"07014";"Kastelenstraat";"4.87944660";"52.32583291";"19"
"6/21/2021 12:00:00 AM";"08:00 - 08:59";"07015";"Roelof Hartplein";"4.88206971";"52.35314900";"42"
"6/21/2021 12:00:00 AM";"08:00 - 08:59";"07016";"Roelof Hartplein";"4.88286688";"52.35274795";"94"
"6/21/2021 12:00:00 AM";"08:00 - 08:59";"07017";"Roelof Hartplein";"4.88206086";"52.35263666";"10"
"6/21/2021 12:00:00 AM";"08:00 - 08:59";"07021";"Kastelenstraat";"4.87955984";"52.32619291";"14"
"6/21/2021 12:00:00 AM";"08:00 - 08:59";"07027";"Corn. Schuytstraat";"4.87051458";"52.35597520";"18"
"6/21/2021 12:00:00 AM";"08:00 - 08:59";"07028";"Corn. Schuytstraat";"4.87088070";"52.35604870";"14"
"6/21/2021 12:00:00 AM";"08:00 - 08:59";"07031";"Valeriusplein";"4.86374943";"52.35333004";"50"
"6/21/2021 12:00:00 AM";"08:00 - 08:59";"07032";"Valeriusplein";"4.86326678";"52.35318410";"33"
"6/21/2021 12:00:00 AM";"08:00 - 08:59";"07033";"Amstelveenseweg";"4.85695925";"52.35161911";"23"
"6/21/2021 12:00:00 AM";"08:00 - 08:59";"07034";"Amstelveenseweg";"4.85596467";"52.35132704";"18"
"6/21/2021 12:00:00 AM";"08:00 - 08:59";"07035";"Zeilstraat";"4.85672894";"52.35124059";"15"
"6/21/2021 12:00:00 AM";"08:00 - 08:59";"07048";"Hoofddorpplein";"4.85010578";"52.35154327";"31"
"6/21/2021 12:00:00 AM";"08:00 - 08:59";"07049";"Hoofddorpplein";"4.84958188";"52.35117239";"38"
"6/21/2021 12:00:00 AM";"08:00 - 08:59";"07050";"Haarlemmermeerstation";"4.85744749";"52.34883508";"24"
"6/21/2021 12:00:00 AM";"08:00 - 08:59";"07083";"Gerrit v.d. Veenstraat";"4.87735929";"52.34921014";"70"
"6/21/2021 12:00:00 AM";"08:00 - 08:59";"07084";"Gerrit v.d. Veenstraat";"4.87720177";"52.34886793";"47"
"6/21/2021 12:00:00 AM";"08:00 - 08:59";"07087";"Stadionweg";"4.87688397";"52.34714989";"15"
"6/21/2021 12:00:00 AM";"08:00 - 08:59";"07088";"Stadionweg";"4.87687497";"52.34665553";"20"
"6/21/2021 12:00:00 AM";"08:00 - 08:59";"07097";"Olympiaplein";"4.86582821";"52.34630180";"31"
"6/21/2021 12:00:00 AM";"08:00 - 08:59";"07098";"Olympiaplein";"4.86659057";"52.34636807";"17"
"6/21/2021 12:00:00 AM";"08:00 - 08:59";"07108";"Olympiaweg";"4.85873730";"52.34528169";"12"
"6/21/2021 12:00:00 AM";"08:00 - 08:59";"07116";"Haarlemmermeerstation";"4.85760410";"52.34924023";"27"
"6/21/2021 12:00:00 AM";"08:00 - 08:59";"07120";"Olympiaweg";"4.85834130";"52.34526195";"17"
"6/21/2021 12:00:00 AM";"08:00 - 08:59";"07130";"Pr. Irenestraat";"4.86819699";"52.34202504";"27"
"6/21/2021 12:00:00 AM";"08:00 - 08:59";"07131";"Pr. Irenestraat";"4.86833196";"52.34303226";"15"
"6/21/2021 12:00:00 AM";"08:00 - 08:59";"07133";"De Boelelaan";"4.86754589";"52.33496677";"13"
"6/21/2021 12:00:00 AM";"08:00 - 08:59";"07157";"Van Heenvlietlaan";"4.88302129";"52.32494043";"14"
"6/21/2021 12:00:00 AM";"08:00 - 08:59";"07186";"Pr. Irenestraat";"4.87677483";"52.34260161";"49"
"6/21/2021 12:00:00 AM";"08:00 - 08:59";"07187";"Pr. Irenestraat";"4.87678341";"52.34313193";"31"
"6/21/2021 12:00:00 AM";"08:00 - 08:59";"07190";"Station Zuid";"4.87352214";"52.34089784";"25"
"6/21/2021 12:00:00 AM";"08:00 - 08:59";"07193";"Station Zuid";"4.87334616";"52.34088808";"54"
"6/21/2021 12:00:00 AM";"08:00 - 08:59";"07207";"IJsbaanpad";"4.85756146";"52.34051291";"12"
"6/21/2021 12:00:00 AM";"08:00 - 08:59";"07260";"Station RAI";"4.89077724";"52.33708876";"12"
"6/21/2021 12:00:00 AM";"08:00 - 08:59";"07268";"Station Zuid";"4.87428608";"52.34082026";"40"
"6/21/2021 12:00:00 AM";"08:00 - 08:59";"07269";"Station Zuid";"4.87374306";"52.34082689";"108"
"6/21/2021 12:00:00 AM";"08:00 - 08:59";"07270";"Parnassusweg";"4.86874218";"52.33806382";"43"
"6/21/2021 12:00:00 AM";"08:00 - 08:59";"07271";"Parnassusweg";"4.86866745";"52.33818033";"21"
"6/21/2021 12:00:00 AM";"08:00 - 08:59";"07294";"Station Zuid";"4.87327467";"52.34072599";"14"
"6/21/2021 12:00:00 AM";"08:00 - 08:59";"07303";"VU medisch centrum";"4.86097062";"52.33515342";"51"
"6/21/2021 12:00:00 AM";"08:00 - 08:59";"07307";"Beethovenstraat";"4.87820649";"52.34700280";"14"
"6/21/2021 12:00:00 AM";"08:00 - 08:59";"07321";"Van Baerlestraat";"4.87895796";"52.35827667";"35"
"6/21/2021 12:00:00 AM";"08:00 - 08:59";"07322";"Van Baerlestraat";"4.87971942";"52.35844171";"61"
"6/21/2021 12:00:00 AM";"08:00 - 08:59";"07323";"Rijksmuseum";"4.88355043";"52.35977029";"48"
"6/21/2021 12:00:00 AM";"08:00 - 08:59";"07324";"Rijksmuseum";"4.88332565";"52.36017378";"35"
"6/21/2021 12:00:00 AM";"08:00 - 08:59";"07339";"Nieuw Herlaer";"4.88985946";"52.32602094";"12"
"6/21/2021 12:00:00 AM";"08:00 - 08:59";"07350";"VU medisch centrum";"4.86006046";"52.33519431";"11"
"6/21/2021 12:00:00 AM";"08:00 - 08:59";"07391";"Kronenburg";"4.87070592";"52.31556694";"36"
"6/21/2021 12:00:00 AM";"08:00 - 08:59";"07418";"Van Boshuizenstraat";"4.86902148";"52.32544617";"20"
"6/21/2021 12:00:00 AM";"08:00 - 08:59";"07419";"Van Boshuizenstraat";"4.86896941";"52.32487971";"180"
"6/21/2021 12:00:00 AM";"08:00 - 08:59";"07423";"Uilenstede";"4.86910951";"52.32167168";"34"
"6/21/2021 12:00:00 AM";"08:00 - 08:59";"07435";"Onderuit";"4.87243689";"52.30793483";"18"
"6/21/2021 12:00:00 AM";"08:00 - 08:59";"07438";"Oranjebaan";"4.87217918";"52.30360157";"14"
"6/21/2021 12:00:00 AM";"08:00 - 08:59";"07439";"Oranjebaan";"4.87179001";"52.30302465";"49"
"6/21/2021 12:00:00 AM";"08:00 - 08:59";"07442";"Zonnestein";"4.87236664";"52.31146674";"26"
"6/21/2021 12:00:00 AM";"08:00 - 08:59";"07445";"Amstelveen Stadshart";"4.86751502";"52.30124433";"36"
"6/21/2021 12:00:00 AM";"08:00 - 08:59";"07448";"A.J. Ernststraat";"4.86887597";"52.33288743";"32"
"6/21/2021 12:00:00 AM";"08:00 - 08:59";"07449";"A.J. Ernststraat";"4.86879476";"52.33230287";"57"
"6/21/2021 12:00:00 AM";"08:00 - 08:59";"07453";"Ouderkerkerlaan";"4.86721192";"52.29582332";"35"
"6/21/2021 12:00:00 AM";"08:00 - 08:59";"07457";"Sportlaan";"4.86336804";"52.28987436";"18"
"6/21/2021 12:00:00 AM";"08:00 - 08:59";"07473";"Meent";"4.85693861";"52.28084883";"20"
"6/21/2021 12:00:00 AM";"08:00 - 08:59";"07481";"Poortwachter";"4.84496524";"52.28332911";"10"
"6/21/2021 12:00:00 AM";"08:00 - 08:59";"07482";"Sacharovlaan";"4.83228912";"52.28211984";"27"
"6/21/2021 12:00:00 AM";"08:00 - 08:59";"08007";"Bob Haarmslaan";"4.96921237";"52.36876786";"80"
"6/21/2021 12:00:00 AM";"08:00 - 08:59";"08009";"Bob Haarmslaan";"4.96859205";"52.36915214";"61"
"6/21/2021 12:00:00 AM";"08:00 - 08:59";"08014";"Azartplein";"4.93735640";"52.37682991";"11"
"6/21/2021 12:00:00 AM";"08:00 - 08:59";"08016";"Wittenburgergracht";"4.91969400";"52.36942754";"16"
"6/21/2021 12:00:00 AM";"08:00 - 08:59";"08038";"Kattenburgerstraat";"4.91921370";"52.37320047";"16"
"6/21/2021 12:00:00 AM";"08:00 - 08:59";"08043";"Artis";"4.91141423";"52.36653646";"11"
"6/21/2021 12:00:00 AM";"08:00 - 08:59";"08049";"Alexanderplein";"4.91916567";"52.36383510";"15"
"6/21/2021 12:00:00 AM";"08:00 - 08:59";"08050";"Alexanderplein";"4.91867098";"52.36341072";"15"
"6/21/2021 12:00:00 AM";"08:00 - 08:59";"08051";"K. 's-Gravesandestr.";"4.91366120";"52.36235720";"25"
"6/21/2021 12:00:00 AM";"08:00 - 08:59";"08052";"K. 's-Gravesandestr.";"4.91550720";"52.36271509";"29"
"6/21/2021 12:00:00 AM";"08:00 - 08:59";"08053";"Weesperplein";"4.90655690";"52.36088154";"27"
"6/21/2021 12:00:00 AM";"08:00 - 08:59";"08054";"Weesperplein";"4.90941338";"52.36145933";"105"
"6/21/2021 12:00:00 AM";"08:00 - 08:59";"08057";"Frederiksplein";"4.90024241";"52.35971430";"78"
"6/21/2021 12:00:00 AM";"08:00 - 08:59";"08058";"Veelaan";"4.93961588";"52.36830916";"35"
"6/21/2021 12:00:00 AM";"08:00 - 08:59";"08059";"Veelaan";"4.93944523";"52.36776026";"27"
"6/21/2021 12:00:00 AM";"08:00 - 08:59";"08061";"Keizersgracht";"4.89828743";"52.36393946";"12"
"6/21/2021 12:00:00 AM";"08:00 - 08:59";"08066";"Frederiksplein";"4.89751569";"52.35937050";"30"
"6/21/2021 12:00:00 AM";"08:00 - 08:59";"08072";"Vijzelgracht";"4.89159781";"52.35953462";"40"
"6/21/2021 12:00:00 AM";"08:00 - 08:59";"08073";"Vijzelgracht";"4.89227386";"52.35946554";"44"
"6/21/2021 12:00:00 AM";"08:00 - 08:59";"08080";"Spiegelgracht";"4.88691222";"52.36106979";"65"
"6/21/2021 12:00:00 AM";"08:00 - 08:59";"08086";"Muntplein";"4.89308297";"52.36590414";"11"
"6/21/2021 12:00:00 AM";"08:00 - 08:59";"08094";"Wijttenbachstraat";"4.92547668";"52.35979743";"15"
"6/21/2021 12:00:00 AM";"08:00 - 08:59";"08095";"Alexanderplein";"4.91969863";"52.36341478";"21"
"6/21/2021 12:00:00 AM";"08:00 - 08:59";"08096";"Alexanderplein";"4.91931589";"52.36351213";"10"
"6/21/2021 12:00:00 AM";"08:00 - 08:59";"08113";"Javaplein";"4.93949828";"52.36395867";"12"
"6/21/2021 12:00:00 AM";"08:00 - 08:59";"08114";"Javaplein";"4.93955537";"52.36412066";"10"
"6/21/2021 12:00:00 AM";"08:00 - 08:59";"08120";"Insulindeweg";"4.94763926";"52.36469021";"26"
"6/21/2021 12:00:00 AM";"08:00 - 08:59";"08121";"Soembawastraat";"4.94391980";"52.36224967";"24"
"6/21/2021 12:00:00 AM";"08:00 - 08:59";"08124";"Soembawastraat";"4.94346569";"52.36214910";"43"
"6/21/2021 12:00:00 AM";"08:00 - 08:59";"08129";"Molukkenstraat";"4.93861286";"52.36150167";"36"
"6/21/2021 12:00:00 AM";"08:00 - 08:59";"08132";"Valentijnkade";"4.94079607";"52.35900236";"15"
"6/21/2021 12:00:00 AM";"08:00 - 08:59";"08138";"Zuiderzeeweg";"4.96218432";"52.37129534";"31"
"6/21/2021 12:00:00 AM";"08:00 - 08:59";"08139";"Zuiderzeeweg";"4.96240105";"52.37166461";"20"
"6/21/2021 12:00:00 AM";"08:00 - 08:59";"08179";"K. 's-Gravesandestr.";"4.91480799";"52.36220000";"18"
"6/21/2021 12:00:00 AM";"08:00 - 08:59";"08183";"Het Funen";"4.93160770";"52.36746073";"13"
"6/21/2021 12:00:00 AM";"08:00 - 08:59";"08190";"Molukkenstraat";"4.93934614";"52.36157635";"23"
"6/21/2021 12:00:00 AM";"08:00 - 08:59";"08195";"Oostenburgergracht";"4.92452709";"52.36780177";"10"
"6/21/2021 12:00:00 AM";"08:00 - 08:59";"08219";"Borneolaan";"4.93862058";"52.37090283";"12"
"6/21/2021 12:00:00 AM";"08:00 - 08:59";"08233";"C. van Eesterenlaan";"4.93812487";"52.37345346";"13"
"6/21/2021 12:00:00 AM";"08:00 - 08:59";"08235";"Muziekgeb. Bimhuis";"4.91290020";"52.37723779";"18"
"6/21/2021 12:00:00 AM";"08:00 - 08:59";"08237";"Kattenburgerstraat";"4.92126795";"52.37614755";"39"
"6/21/2021 12:00:00 AM";"08:00 - 08:59";"08238";"Rietlandpark";"4.93350159";"52.37322013";"31"
"6/21/2021 12:00:00 AM";"08:00 - 08:59";"08239";"Rietlandpark";"4.93413567";"52.37296191";"54"
"6/21/2021 12:00:00 AM";"08:00 - 08:59";"08241";"Zuiderzeeweg";"4.96185517";"52.37193228";"32"
"6/21/2021 12:00:00 AM";"08:00 - 08:59";"08244";"Steigereiland";"4.98083725";"52.36280456";"22"
"6/21/2021 12:00:00 AM";"08:00 - 08:59";"08245";"Steigereiland";"4.98012952";"52.36313467";"69"
"6/21/2021 12:00:00 AM";"08:00 - 08:59";"08246";"Vennepluimstraat";"4.99104399";"52.35749148";"10"
"6/21/2021 12:00:00 AM";"08:00 - 08:59";"08247";"Vennepluimstraat";"4.99057242";"52.35769662";"35"
"6/21/2021 12:00:00 AM";"08:00 - 08:59";"08249";"Diemerparklaan";"4.99499716";"52.35532962";"36"
"6/21/2021 12:00:00 AM";"08:00 - 08:59";"08251";"Lumi?restraat";"4.99942127";"52.35298044";"15"
"6/21/2021 12:00:00 AM";"08:00 - 08:59";"08255";"Hoogte Kadijk";"4.92483038";"52.36687722";"28"
"6/21/2021 12:00:00 AM";"08:00 - 08:59";"08257";"1e Coehoornstraat";"4.92618328";"52.36808685";"24"
"6/21/2021 12:00:00 AM";"08:00 - 08:59";"08259";"1e Leeghwaterstraat";"4.93004964";"52.37047459";"34"
"6/21/2021 12:00:00 AM";"08:00 - 08:59";"08261";"Rietlandpark";"4.93481067";"52.37300943";"30"
"6/21/2021 12:00:00 AM";"08:00 - 08:59";"08262";"IJburg";"5.00486802";"52.35112872";"175"
"6/21/2021 12:00:00 AM";"08:00 - 08:59";"08270";"Diemerparklaan";"4.99472994";"52.35567027";"13"
"6/21/2021 12:00:00 AM";"08:00 - 08:59";"08286";"Lumierestraat";"4.99915409";"52.35332109";"12"
"6/21/2021 12:00:00 AM";"08:00 - 08:59";"08300";"P.Oosterhuisstraat";"5.00693059";"52.35193526";"56"
"6/21/2021 12:00:00 AM";"08:00 - 08:59";"09003";"Dintelstraat";"4.89289498";"52.34192405";"35"
"6/21/2021 12:00:00 AM";"08:00 - 08:59";"09004";"Europaplein";"4.89216887";"52.33992574";"15"
"6/21/2021 12:00:00 AM";"08:00 - 08:59";"09013";"Amstelstation";"4.91790223";"52.34725673";"26"
"6/21/2021 12:00:00 AM";"08:00 - 08:59";"09015";"Amstelstation";"4.91940405";"52.34679531";"16"
"6/21/2021 12:00:00 AM";"08:00 - 08:59";"09016";"Amstelstation";"4.91953925";"52.34649925";"16"
"6/21/2021 12:00:00 AM";"08:00 - 08:59";"09026";"Amstelstation";"4.91874992";"52.34619953";"16"
"6/21/2021 12:00:00 AM";"08:00 - 08:59";"09028";"Amstelstation";"4.91867673";"52.34618127";"10"
"6/21/2021 12:00:00 AM";"08:00 - 08:59";"09049";"Victorieplein";"4.90570139";"52.34637186";"44"
"6/21/2021 12:00:00 AM";"08:00 - 08:59";"09050";"Victorieplein";"4.90499015";"52.34699811";"17"
"6/21/2021 12:00:00 AM";"08:00 - 08:59";"09051";"Victorieplein";"4.90653699";"52.34645615";"24"
"6/21/2021 12:00:00 AM";"08:00 - 08:59";"09060";"Waalstraat";"4.90103893";"52.34462715";"18"
"6/21/2021 12:00:00 AM";"08:00 - 08:59";"09061";"Waalstraat";"4.90060087";"52.34442762";"14"
"6/21/2021 12:00:00 AM";"08:00 - 08:59";"09064";"Pres. Kennedylaan";"4.90174037";"52.34087315";"10"
"6/21/2021 12:00:00 AM";"08:00 - 08:59";"09065";"Pres. Kennedylaan";"4.90190089";"52.34095470";"31"
"6/21/2021 12:00:00 AM";"08:00 - 08:59";"09075";"Scheldestraat";"4.89161737";"52.34726643";"10"
"6/21/2021 12:00:00 AM";"08:00 - 08:59";"09078";"Maasstraat";"4.89476308";"52.34681220";"10"
"6/21/2021 12:00:00 AM";"08:00 - 08:59";"09082";"Waalstraat";"4.89974094";"52.34656317";"64"
"6/21/2021 12:00:00 AM";"08:00 - 08:59";"09083";"Waalstraat";"4.90032528";"52.34680824";"68"
"6/21/2021 12:00:00 AM";"08:00 - 08:59";"09088";"Amstelkade";"4.90406932";"52.34934914";"15"
"6/21/2021 12:00:00 AM";"08:00 - 08:59";"09091";"Lutmastraat";"4.90313216";"52.35184391";"10"
"6/21/2021 12:00:00 AM";"08:00 - 08:59";"09095";"Ceintuurbaan";"4.90105673";"52.35506200";"15"
"6/21/2021 12:00:00 AM";"08:00 - 08:59";"09096";"Van Woustraat";"4.90163035";"52.35495650";"18"
"6/21/2021 12:00:00 AM";"08:00 - 08:59";"09097";"Van Woustraat";"4.90084070";"52.35468363";"41"
"6/21/2021 12:00:00 AM";"08:00 - 08:59";"09108";"2e v.d.Helststraat";"4.89423729";"52.35319131";"25"
"6/21/2021 12:00:00 AM";"08:00 - 08:59";"09109";"2e v.d.Helststraat";"4.89488170";"52.35331982";"19"
"6/21/2021 12:00:00 AM";"08:00 - 08:59";"09111";"De Pijp";"4.89073444";"52.35272728";"49"
"6/21/2021 12:00:00 AM";"08:00 - 08:59";"09114";"De Pijp";"4.88948829";"52.35259622";"40"
"6/21/2021 12:00:00 AM";"08:00 - 08:59";"09120";"Cornelis Troostplein";"4.89161100";"52.35046604";"29"
"6/21/2021 12:00:00 AM";"08:00 - 08:59";"09139";"Amsteldijk";"4.91124086";"52.34711329";"18"
"6/21/2021 12:00:00 AM";"08:00 - 08:59";"09140";"Amsteldijk";"4.91055179";"52.34704760";"10"
"6/21/2021 12:00:00 AM";"08:00 - 08:59";"09161";"Maasstraat";"4.89844315";"52.34047310";"10"
"6/21/2021 12:00:00 AM";"08:00 - 08:59";"09176";"James Wattstraat";"4.92329155";"52.35116068";"28"
"6/21/2021 12:00:00 AM";"08:00 - 08:59";"ASA";"Amstelstation";"4.91751426";"52.34647326";"505"
"6/21/2021 12:00:00 AM";"08:00 - 08:59";"ASW";"Amstelveenseweg";"4.85798324";"52.33836671";"503"
"6/21/2021 12:00:00 AM";"08:00 - 08:59";"BLW";"Bullewijk";"4.95233581";"52.30642205";"141"
"6/21/2021 12:00:00 AM";"08:00 - 08:59";"BMR";"Station Bijlmer ArenA";"4.94713474";"52.31193030";"687"
"6/21/2021 12:00:00 AM";"08:00 - 08:59";"CLL";"Station Lelylaan";"4.83426589";"52.35766291";"248"
"6/21/2021 12:00:00 AM";"08:00 - 08:59";"CS";"Centraal Station";"4.90078150";"52.37749421";"865"
"6/21/2021 12:00:00 AM";"08:00 - 08:59";"DMZ";"Station Diemen-Zuid";"4.95713273";"52.33042795";"77"
"6/21/2021 12:00:00 AM";"08:00 - 08:59";"DPP";"De Pijp";"4.89101069";"52.35296212";"494"
"6/21/2021 12:00:00 AM";"08:00 - 08:59";"DVD";"Station Duivendrecht";"4.93678429";"52.32325190";"102"
"6/21/2021 12:00:00 AM";"08:00 - 08:59";"EPP";"Europaplein";"4.89138430";"52.34185482";"464"
"6/21/2021 12:00:00 AM";"08:00 - 08:59";"GN";"Gein";"4.98952268";"52.29627089";"101"
"6/21/2021 12:00:00 AM";"08:00 - 08:59";"GPP";"Gaasperplas";"4.98468551";"52.31080575";"48"
"6/21/2021 12:00:00 AM";"08:00 - 08:59";"GZH";"Station Ganzenhoef";"4.97323379";"52.32331315";"115"
"6/21/2021 12:00:00 AM";"08:00 - 08:59";"HDS";"Heemstedestraat";"4.83421208";"52.35255760";"141"
"6/21/2021 12:00:00 AM";"08:00 - 08:59";"HLD";"Station Holendrecht";"4.96021904";"52.29780451";"586"
"6/21/2021 12:00:00 AM";"08:00 - 08:59";"HVW";"Henk Sneevlietweg";"4.83439318";"52.34626699";"572"
"6/21/2021 12:00:00 AM";"08:00 - 08:59";"ITW";"Isolatorweg";"4.85013475";"52.39523277";"263"
"6/21/2021 12:00:00 AM";"08:00 - 08:59";"JLS";"Jan v.Galenstraat";"4.83492461";"52.37196551";"359"
"6/21/2021 12:00:00 AM";"08:00 - 08:59";"KEN";"Kraaienneststation";"4.97963450";"52.31632492";"61"
"6/21/2021 12:00:00 AM";"08:00 - 08:59";"MDW";"Van der Madeweg";"4.93048657";"52.32945629";"162"
"6/21/2021 12:00:00 AM";"08:00 - 08:59";"ND";"Noord";"4.93123182";"52.40117202";"292"
"6/21/2021 12:00:00 AM";"08:00 - 08:59";"NDP";"Noorderpark";"4.91789115";"52.38855518";"249"
"6/21/2021 12:00:00 AM";"08:00 - 08:59";"NMT";"Nieuwmarkt";"4.90123885";"52.37194169";"166"
"6/21/2021 12:00:00 AM";"08:00 - 08:59";"OAS";"Overamstel";"4.91815361";"52.33179879";"168"
"6/21/2021 12:00:00 AM";"08:00 - 08:59";"PJW";"Postjesweg";"4.83385543";"52.36468044";"288"
"6/21/2021 12:00:00 AM";"08:00 - 08:59";"RAI";"Station RAI";"4.88982004";"52.33739931";"393"
"6/21/2021 12:00:00 AM";"08:00 - 08:59";"RGB";"Reigersbos";"4.97473728";"52.29566301";"227"
"6/21/2021 12:00:00 AM";"08:00 - 08:59";"RKN";"Rokin";"4.89229651";"52.36928023";"519"
"6/21/2021 12:00:00 AM";"08:00 - 08:59";"SLW";"Spaklerweg";"4.92085640";"52.33986250";"185"
"6/21/2021 12:00:00 AM";"08:00 - 08:59";"STD";"Station Sloterdijk";"4.83878389";"52.38880848";"382"
"6/21/2021 12:00:00 AM";"08:00 - 08:59";"SVT";"Strandvliet";"4.94152820";"52.31825469";"163"
"6/21/2021 12:00:00 AM";"08:00 - 08:59";"VLN";"Burg.de Vlugtlaan";"4.83809109";"52.37951196";"64"
"6/21/2021 12:00:00 AM";"08:00 - 08:59";"VPD";"Venserpolder";"4.94665009";"52.32679428";"99"
"6/21/2021 12:00:00 AM";"08:00 - 08:59";"VSW";"Verrijn Stuartweg";"4.96693669";"52.32844093";"49"
"6/21/2021 12:00:00 AM";"08:00 - 08:59";"VZG";"Vijzelgracht";"4.89072870";"52.35980061";"347"
"6/21/2021 12:00:00 AM";"08:00 - 08:59";"WBS";"Wibautstraat";"4.91202993";"52.35428867";"303"
"6/21/2021 12:00:00 AM";"08:00 - 08:59";"WLP";"Waterlooplein";"4.90298171";"52.36697862";"375"
"6/21/2021 12:00:00 AM";"08:00 - 08:59";"WPP";"Weesperplein";"4.90787469";"52.36120146";"487"
"6/21/2021 12:00:00 AM";"08:00 - 08:59";"WTC";"Station Zuid";"4.87509853";"52.33908015";"1335"
"6/21/2021 12:00:00 AM";"09:00 - 09:59";"";"Overig";"";"";"2704"
"6/21/2021 12:00:00 AM";"09:00 - 09:59";"[[ Onb";"[[ Onbekend ]]";"0.00000000";"0.00000000";"385"
"6/21/2021 12:00:00 AM";"09:00 - 09:59";"00005";"Muiderpoortstation";"4.93280219";"52.36121887";"25"
"6/21/2021 12:00:00 AM";"09:00 - 09:59";"00006";"Muiderpoortstation";"4.93368466";"52.36106048";"19"
"6/21/2021 12:00:00 AM";"09:00 - 09:59";"00007";"Muiderpoortstation";"4.93356602";"52.36117686";"16"
"6/21/2021 12:00:00 AM";"09:00 - 09:59";"00008";"Dapperstraat";"4.92977913";"52.36110836";"28"
"6/21/2021 12:00:00 AM";"09:00 - 09:59";"00017";"Linnaeusstraat";"4.92573745";"52.36013099";"17"
"6/21/2021 12:00:00 AM";"09:00 - 09:59";"00020";"Beukenweg";"4.91674979";"52.35906203";"25"
"6/21/2021 12:00:00 AM";"09:00 - 09:59";"00021";"Beukenweg";"4.91721293";"52.35829991";"28"
"6/21/2021 12:00:00 AM";"09:00 - 09:59";"00023";"Beukenplein";"4.91809259";"52.35701816";"17"
"6/21/2021 12:00:00 AM";"09:00 - 09:59";"00029";"Oostpoort";"4.92719316";"52.35707185";"36"
"6/21/2021 12:00:00 AM";"09:00 - 09:59";"00030";"Oostpoort";"4.92694026";"52.35739442";"28"
"6/21/2021 12:00:00 AM";"09:00 - 09:59";"00040";"Hogeweg";"4.93135765";"52.35321425";"24"
"6/21/2021 12:00:00 AM";"09:00 - 09:59";"00059";"Radioweg";"4.93945830";"52.35337100";"22"
"6/21/2021 12:00:00 AM";"09:00 - 09:59";"00070";"Kruislaan";"4.93993910";"52.34789929";"10"
"6/21/2021 12:00:00 AM";"09:00 - 09:59";"00141";"Kraaienneststation";"4.97868390";"52.31603403";"19"
"6/21/2021 12:00:00 AM";"09:00 - 09:59";"00150";"Tulastraat";"4.96535973";"52.31994189";"31"
"6/21/2021 12:00:00 AM";"09:00 - 09:59";"00151";"Tulastraat";"4.96584458";"52.31985374";"48"
"6/21/2021 12:00:00 AM";"09:00 - 09:59";"00197";"Annie Romeinplein";"4.97162041";"52.32173463";"10"
"6/21/2021 12:00:00 AM";"09:00 - 09:59";"00238";"Anton de Komplein";"4.95413359";"52.31603659";"25"
"6/21/2021 12:00:00 AM";"09:00 - 09:59";"00239";"Anton de Komplein";"4.95597669";"52.31652866";"22"
"6/21/2021 12:00:00 AM";"09:00 - 09:59";"00351";"Dostojevskisingel";"4.94525272";"52.32275356";"19"
"6/21/2021 12:00:00 AM";"09:00 - 09:59";"00432";"Diemerbrug";"4.96142958";"52.33824484";"10"
"6/21/2021 12:00:00 AM";"09:00 - 09:59";"00441";"Muiderpoortstation";"4.93254137";"52.36088532";"14"
"6/21/2021 12:00:00 AM";"09:00 - 09:59";"00444";"Linnaeusstraat";"4.92490296";"52.35991203";"37"
"6/21/2021 12:00:00 AM";"09:00 - 09:59";"00453";"Diemen Sniep";"4.96964866";"52.33644962";"13"
"6/21/2021 12:00:00 AM";"09:00 - 09:59";"00491";"Science Park Aer";"4.95218495";"52.35478458";"40"
"6/21/2021 12:00:00 AM";"09:00 - 09:59";"00494";"Science Park Aqua";"4.95416922";"52.35601419";"15"
"6/21/2021 12:00:00 AM";"09:00 - 09:59";"00507";"Science Park Terra";"4.95772497";"52.35413972";"13"
"6/21/2021 12:00:00 AM";"09:00 - 09:59";"00538";"Station Science Park";"4.94808393";"52.35239669";"23"
"6/21/2021 12:00:00 AM";"09:00 - 09:59";"00554";"Science Park";"4.95088162";"52.35447420";"15"
"6/21/2021 12:00:00 AM";"09:00 - 09:59";"00560";"Station Bijlmer ArenA";"4.94747867";"52.31125750";"23"
"6/21/2021 12:00:00 AM";"09:00 - 09:59";"00561";"Station Bijlmer ArenA";"4.94741931";"52.31132918";"29"
"6/21/2021 12:00:00 AM";"09:00 - 09:59";"00562";"Station Bijlmer ArenA";"4.94736012";"52.31138289";"14"
"6/21/2021 12:00:00 AM";"09:00 - 09:59";"00665";"Station Weesp";"5.04383463";"52.31145059";"10"
"6/21/2021 12:00:00 AM";"09:00 - 09:59";"00999";"Vinkenbrug";"4.97831599";"52.33370267";"10"
"6/21/2021 12:00:00 AM";"09:00 - 09:59";"01059";"Purmerplein";"4.94569441";"52.39045962";"12"
"6/21/2021 12:00:00 AM";"09:00 - 09:59";"01076";"Waterlandplein";"4.95247364";"52.39274059";"18"
"6/21/2021 12:00:00 AM";"09:00 - 09:59";"01110";"Rode Kruisstraat";"4.92847908";"52.39455548";"37"
"6/21/2021 12:00:00 AM";"09:00 - 09:59";"01111";"Rode Kruisstraat";"4.92881363";"52.39488033";"61"
"6/21/2021 12:00:00 AM";"09:00 - 09:59";"01116";"Merelstraat";"4.92492850";"52.38986809";"10"
"6/21/2021 12:00:00 AM";"09:00 - 09:59";"01117";"Merelstraat";"4.92505977";"52.38995848";"21"
"6/21/2021 12:00:00 AM";"09:00 - 09:59";"01278";"Statenjachtstraat";"4.91380643";"52.40790731";"10"
"6/21/2021 12:00:00 AM";"09:00 - 09:59";"01305";"Station Noord";"4.93215715";"52.40264056";"14"
"6/21/2021 12:00:00 AM";"09:00 - 09:59";"01316";"Station Noord";"4.93336820";"52.40204304";"15"
"6/21/2021 12:00:00 AM";"09:00 - 09:59";"01347";"Nageljongenstraat";"4.89978361";"52.40815603";"16"
"6/21/2021 12:00:00 AM";"09:00 - 09:59";"01352";"Oosterlengte";"4.92206974";"52.40611555";"12"
"6/21/2021 12:00:00 AM";"09:00 - 09:59";"01363";"Buikslotermeerplein";"4.93968364";"52.39943369";"29"
"6/21/2021 12:00:00 AM";"09:00 - 09:59";"01364";"Buikslotermeerplein";"4.93887054";"52.39992493";"10"
"6/21/2021 12:00:00 AM";"09:00 - 09:59";"01365";"Atat?rk";"4.89794256";"52.40319625";"18"
"6/21/2021 12:00:00 AM";"09:00 - 09:59";"01402";"Floraweg";"4.90614362";"52.39899665";"20"
"6/21/2021 12:00:00 AM";"09:00 - 09:59";"01414";"Olof Palmeplein";"4.94012168";"52.39679298";"14"
"6/21/2021 12:00:00 AM";"09:00 - 09:59";"01422";"Noorderpark";"4.91956087";"52.38902016";"29"
"6/21/2021 12:00:00 AM";"09:00 - 09:59";"02018";"Koivistokade";"4.87577082";"52.39789874";"89"
"6/21/2021 12:00:00 AM";"09:00 - 09:59";"02019";"Koivistokade";"4.87537403";"52.39790601";"22"
"6/21/2021 12:00:00 AM";"09:00 - 09:59";"02064";"Kabelweg";"4.84827817";"52.39205168";"11"
"6/21/2021 12:00:00 AM";"09:00 - 09:59";"02103";"Spaarndammerstraat";"4.87765867";"52.39216375";"32"
"6/21/2021 12:00:00 AM";"09:00 - 09:59";"02113";"Haarlemmerplein";"4.88371739";"52.38516129";"22"
"6/21/2021 12:00:00 AM";"09:00 - 09:59";"02114";"Haarlemmerplein";"4.88341252";"52.38484542";"50"
"6/21/2021 12:00:00 AM";"09:00 - 09:59";"02126";"Bloemgracht";"4.87658402";"52.37449829";"11"
"6/21/2021 12:00:00 AM";"09:00 - 09:59";"02130";"Hugo de Grootplein";"4.87259092";"52.37439113";"16"
"6/21/2021 12:00:00 AM";"09:00 - 09:59";"02132";"Fred. Hendrikplants.";"4.87543499";"52.37862768";"45"
"6/21/2021 12:00:00 AM";"09:00 - 09:59";"02133";"Fred. Hendrikplants.";"4.87521709";"52.37842002";"17"
"6/21/2021 12:00:00 AM";"09:00 - 09:59";"02142";"V.d. Hoopstraat";"4.87031312";"52.38335094";"14"
"6/21/2021 12:00:00 AM";"09:00 - 09:59";"02145";"Van Hallstraat";"4.86990682";"52.38418503";"14"
"6/21/2021 12:00:00 AM";"09:00 - 09:59";"02149";"Van L.Stirumstraat";"4.87489798";"52.38443141";"10"
"6/21/2021 12:00:00 AM";"09:00 - 09:59";"02153";"Nassaukade";"4.87920791";"52.38132226";"10"
"6/21/2021 12:00:00 AM";"09:00 - 09:59";"02155";"Willem de Zwijgerlaan";"4.86360306";"52.37071170";"21"
"6/21/2021 12:00:00 AM";"09:00 - 09:59";"02156";"Willem de Zwijgerlaan";"4.86425293";"52.37039101";"19"
"6/21/2021 12:00:00 AM";"09:00 - 09:59";"02157";"Adm. de Ruijterweg";"4.86009910";"52.37148707";"24"
"6/21/2021 12:00:00 AM";"09:00 - 09:59";"02158";"Adm. de Ruijterweg";"4.86096776";"52.37129320";"19"
"6/21/2021 12:00:00 AM";"09:00 - 09:59";"02160";"Haparandaweg";"4.87389760";"52.39471799";"42"
"6/21/2021 12:00:00 AM";"09:00 - 09:59";"02167";"Bos en Lommerweg";"4.85380049";"52.38118358";"28"
"6/21/2021 12:00:00 AM";"09:00 - 09:59";"02169";"Wiltzanghlaan";"4.85218893";"52.38206609";"17"
"6/21/2021 12:00:00 AM";"09:00 - 09:59";"02170";"Spaarndammerstraat";"4.87723089";"52.39231470";"13"
"6/21/2021 12:00:00 AM";"09:00 - 09:59";"02171";"Wiltzanghlaan";"4.85060722";"52.38290378";"12"
"6/21/2021 12:00:00 AM";"09:00 - 09:59";"02182";"Markthallen";"4.86695146";"52.37567869";"30"
"6/21/2021 12:00:00 AM";"09:00 - 09:59";"02193";"Marnixplein";"4.87844490";"52.37741832";"31"
"6/21/2021 12:00:00 AM";"09:00 - 09:59";"02199";"Eerste Marnixdwarsstraat";"4.88203787";"52.38302405";"17"
"6/21/2021 12:00:00 AM";"09:00 - 09:59";"02222";"Jan van Galenstraat";"4.85874763";"52.37399761";"11"
"6/21/2021 12:00:00 AM";"09:00 - 09:59";"02259";"Contactweg";"4.85657970";"52.39195435";"39"
"6/21/2021 12:00:00 AM";"09:00 - 09:59";"02260";"Contactweg";"4.85432952";"52.39215995";"24"
"6/21/2021 12:00:00 AM";"09:00 - 09:59";"02301";"Fred. Hendrikplants.";"4.87521585";"52.37852787";"30"
"6/21/2021 12:00:00 AM";"09:00 - 09:59";"02302";"Fred. Hendrikplants.";"4.87549415";"52.37859198";"81"
"6/21/2021 12:00:00 AM";"09:00 - 09:59";"02309";"Plesostraat";"4.82645527";"52.38795084";"23"
"6/21/2021 12:00:00 AM";"09:00 - 09:59";"02310";"Plesostraat";"4.82849791";"52.38788859";"14"
"6/21/2021 12:00:00 AM";"09:00 - 09:59";"02320";"Van Hallstraat";"4.86782303";"52.38527240";"15"
"6/21/2021 12:00:00 AM";"09:00 - 09:59";"02321";"Van Hallstraat";"4.86864429";"52.38538386";"27"
"6/21/2021 12:00:00 AM";"09:00 - 09:59";"02361";"Station Sloterdijk";"4.83931858";"52.38833460";"49"
"6/21/2021 12:00:00 AM";"09:00 - 09:59";"02365";"Station Sloterdijk";"4.83873236";"52.38822404";"26"
"6/21/2021 12:00:00 AM";"09:00 - 09:59";"02366";"Station Sloterdijk";"4.83873347";"52.38813416";"19"
"6/21/2021 12:00:00 AM";"09:00 - 09:59";"02367";"Station Sloterdijk";"4.83876429";"52.38801747";"21"
"6/21/2021 12:00:00 AM";"09:00 - 09:59";"02368";"Station Sloterdijk";"4.83877999";"52.38793665";"21"
"6/21/2021 12:00:00 AM";"09:00 - 09:59";"02378";"Station Sloterdijk";"4.83809796";"52.38844579";"30"
"6/21/2021 12:00:00 AM";"09:00 - 09:59";"03009";"Witte de Withstraat";"4.85851970";"52.36478416";"53"
"6/21/2021 12:00:00 AM";"09:00 - 09:59";"03010";"Witte de Withstraat";"4.85928290";"52.36480554";"23"
"6/21/2021 12:00:00 AM";"09:00 - 09:59";"03022";"Mercatorplein";"4.85070310";"52.37012367";"21"
"6/21/2021 12:00:00 AM";"09:00 - 09:59";"03023";"Marco Polostraat";"4.85520189";"52.37088096";"17"
"6/21/2021 12:00:00 AM";"09:00 - 09:59";"03024";"Marco Polostraat";"4.85546532";"52.37095405";"13"
"6/21/2021 12:00:00 AM";"09:00 - 09:59";"03025";"Jan v.Galenstraat";"4.84854861";"52.37342137";"13"
"6/21/2021 12:00:00 AM";"09:00 - 09:59";"03028";"Jan van Galenstraat";"4.84921138";"52.37204926";"11"
"6/21/2021 12:00:00 AM";"09:00 - 09:59";"03034";"Erasmusgracht";"4.84691117";"52.37644278";"16"
"6/21/2021 12:00:00 AM";"09:00 - 09:59";"03052";"Burg. Eliasstraat";"4.82565009";"52.38077481";"16"
"6/21/2021 12:00:00 AM";"09:00 - 09:59";"03055";"Burg. Fockstraat";"4.83108040";"52.37991964";"16"
"6/21/2021 12:00:00 AM";"09:00 - 09:59";"03057";"Anth. Moddermanstraat";"4.81474778";"52.38339197";"12"
"6/21/2021 12:00:00 AM";"09:00 - 09:59";"03060";"Bos en Lommerplein";"4.84718407";"52.37815169";"15"
"6/21/2021 12:00:00 AM";"09:00 - 09:59";"03061";"Bos en Lommerplein";"4.84523530";"52.37778328";"47"
"6/21/2021 12:00:00 AM";"09:00 - 09:59";"03076";"Jan Tooropstraat";"4.83810313";"52.37142305";"30"
"6/21/2021 12:00:00 AM";"09:00 - 09:59";"03077";"Jan Tooropstraat";"4.83817288";"52.37171997";"20"
"6/21/2021 12:00:00 AM";"09:00 - 09:59";"03087";"Plein '40 - '45";"4.82063128";"52.38159575";"16"
"6/21/2021 12:00:00 AM";"09:00 - 09:59";"03090";"Slotermeerlaan";"4.81728149";"52.37596234";"12"
"6/21/2021 12:00:00 AM";"09:00 - 09:59";"03097";"Burg. v. Leeuwenlaan";"4.81182601";"52.37651117";"11"
"6/21/2021 12:00:00 AM";"09:00 - 09:59";"03101";"Lambertus Zijlplein";"4.80300456";"52.37726788";"32"
"6/21/2021 12:00:00 AM";"09:00 - 09:59";"03108";"Herman Bonpad";"4.80080718";"52.36796367";"11"
"6/21/2021 12:00:00 AM";"09:00 - 09:59";"03117";"Sam van Houtenstraat";"4.79790430";"52.37868964";"19"
"6/21/2021 12:00:00 AM";"09:00 - 09:59";"03121";"Aalbersestraat";"4.79774249";"52.38202329";"28"
"6/21/2021 12:00:00 AM";"09:00 - 09:59";"03129";"Plein '40 - '45";"4.82112672";"52.38075328";"46"
"6/21/2021 12:00:00 AM";"09:00 - 09:59";"03132";"Burg. R?ellstraat";"4.81950345";"52.37676393";"13"
"6/21/2021 12:00:00 AM";"09:00 - 09:59";"03135";"Ookmeerweg";"4.80431836";"52.36558127";"59"
"6/21/2021 12:00:00 AM";"09:00 - 09:59";"03136";"Ookmeerweg";"4.80419536";"52.36600309";"11"
"6/21/2021 12:00:00 AM";"09:00 - 09:59";"03150";"Mercatorplein";"4.85011339";"52.37031872";"10"
"6/21/2021 12:00:00 AM";"09:00 - 09:59";"03157";"Lambertus Zijlplein";"4.80338637";"52.37726977";"12"
"6/21/2021 12:00:00 AM";"09:00 - 09:59";"03167";"Bos en Lommerplein";"4.84650668";"52.37709704";"22"
"6/21/2021 12:00:00 AM";"09:00 - 09:59";"03168";"Mercatorplein";"4.85152392";"52.37024423";"25"
"6/21/2021 12:00:00 AM";"09:00 - 09:59";"03171";"Burg. Rendorpstraat";"4.82768433";"52.37436719";"16"
"6/21/2021 12:00:00 AM";"09:00 - 09:59";"03172";"Burg. Rendorpstraat";"4.82691962";"52.37445346";"16"
"6/21/2021 12:00:00 AM";"09:00 - 09:59";"03174";"Burg. R?ellstraat";"4.81863325";"52.37476448";"15"
"6/21/2021 12:00:00 AM";"09:00 - 09:59";"03178";"Mercatorplein";"4.84991664";"52.37080317";"18"
"6/21/2021 12:00:00 AM";"09:00 - 09:59";"03179";"Adm. Helfrichstraat";"4.84386882";"52.36944538";"16"
"6/21/2021 12:00:00 AM";"09:00 - 09:59";"03181";"Jan Voermanstraat";"4.83788946";"52.36970540";"19"
"6/21/2021 12:00:00 AM";"09:00 - 09:59";"03197";"W. Schoutenstraat";"4.85238084";"52.36737202";"10"
"6/21/2021 12:00:00 AM";"09:00 - 09:59";"04008";"Dijkgraafplein";"4.78646982";"52.35545267";"17"
"6/21/2021 12:00:00 AM";"09:00 - 09:59";"04012";"Baden Powellweg";"4.79137362";"52.35646612";"26"
"6/21/2021 12:00:00 AM";"09:00 - 09:59";"04021";"Osdorpplein West";"4.80322869";"52.35913166";"35"
"6/21/2021 12:00:00 AM";"09:00 - 09:59";"04050";"Meer en Vaart";"4.80994403";"52.35636940";"24"
"6/21/2021 12:00:00 AM";"09:00 - 09:59";"04060";"Derkinderenstraat";"4.83972293";"52.35796689";"19"
"6/21/2021 12:00:00 AM";"09:00 - 09:59";"04061";"Derkinderenstraat";"4.84014895";"52.35794190";"14"
"6/21/2021 12:00:00 AM";"09:00 - 09:59";"04062";"Johan Huizingalaan";"4.82582327";"52.35781191";"10"
"6/21/2021 12:00:00 AM";"09:00 - 09:59";"04063";"Johan Huizingalaan";"4.82626398";"52.35778704";"14"
"6/21/2021 12:00:00 AM";"09:00 - 09:59";"04064";"Osdorpplein Oost";"4.80806527";"52.35860717";"28"
"6/21/2021 12:00:00 AM";"09:00 - 09:59";"04065";"Osdorpplein Oost";"4.80773259";"52.35935153";"41"
"6/21/2021 12:00:00 AM";"09:00 - 09:59";"04088";"Louwesweg";"4.82436420";"52.34669608";"16"
"6/21/2021 12:00:00 AM";"09:00 - 09:59";"04110";"Westlandgracht";"4.84581964";"52.35156868";"13"
"6/21/2021 12:00:00 AM";"09:00 - 09:59";"04112";"Johan Huizingalaan";"4.82742878";"52.34923618";"28"
"6/21/2021 12:00:00 AM";"09:00 - 09:59";"04148";"Louis Davidsstraat";"4.80952552";"52.35356316";"10"
"6/21/2021 12:00:00 AM";"09:00 - 09:59";"04195";"Station Lelylaan";"4.83460082";"52.35788018";"40"
"6/21/2021 12:00:00 AM";"09:00 - 09:59";"04196";"Station Lelylaan";"4.83382251";"52.35790351";"40"
"6/21/2021 12:00:00 AM";"09:00 - 09:59";"04274";"Schiphol Airport/Plaza";"4.76104997";"52.30939292";"12"
"6/21/2021 12:00:00 AM";"09:00 - 09:59";"04277";"Laan v.Vlaanderen";"4.81642720";"52.34648730";"11"
"6/21/2021 12:00:00 AM";"09:00 - 09:59";"04279";"Centrum Nieuw Sloten";"4.81104244";"52.34638930";"12"
"6/21/2021 12:00:00 AM";"09:00 - 09:59";"04379";"Knooppunt Schiphol Nrd";"4.79320459";"52.32276196";"26"
"6/21/2021 12:00:00 AM";"09:00 - 09:59";"04409";"Baden Powellweg";"4.79441281";"52.35092691";"22"
"6/21/2021 12:00:00 AM";"09:00 - 09:59";"04411";"Hoekenes";"4.80183430";"52.35243785";"15"
"6/21/2021 12:00:00 AM";"09:00 - 09:59";"04413";"Louis Davidsstraat";"4.80850916";"52.35383682";"41"
"6/21/2021 12:00:00 AM";"09:00 - 09:59";"05011";"Centraal Station";"4.89921803";"52.37810793";"213"
"6/21/2021 12:00:00 AM";"09:00 - 09:59";"05029";"Centraal Station";"4.90334975";"52.37900567";"122"
"6/21/2021 12:00:00 AM";"09:00 - 09:59";"05031";"Dam";"4.89348394";"52.37341055";"23"
"6/21/2021 12:00:00 AM";"09:00 - 09:59";"05032";"Dam";"4.89549360";"52.37492885";"31"
"6/21/2021 12:00:00 AM";"09:00 - 09:59";"05035";"Rokin";"4.89210433";"52.36939627";"19"
"6/21/2021 12:00:00 AM";"09:00 - 09:59";"05036";"Rokin";"4.89230478";"52.36985548";"40"
"6/21/2021 12:00:00 AM";"09:00 - 09:59";"05046";"Rembrandtplein";"4.89627976";"52.36625897";"23"
"6/21/2021 12:00:00 AM";"09:00 - 09:59";"05047";"Rembrandtplein";"4.89702882";"52.36623511";"38"
"6/21/2021 12:00:00 AM";"09:00 - 09:59";"05060";"Koningsplein";"4.88894752";"52.36807981";"25"
"6/21/2021 12:00:00 AM";"09:00 - 09:59";"05063";"Paleisstraat";"4.89064591";"52.37244599";"18"
"6/21/2021 12:00:00 AM";"09:00 - 09:59";"05064";"Koningsplein";"4.88949610";"52.36760577";"46"
"6/21/2021 12:00:00 AM";"09:00 - 09:59";"05065";"Dam";"4.89079364";"52.37367792";"63"
"6/21/2021 12:00:00 AM";"09:00 - 09:59";"05066";"Dam";"4.89027056";"52.37318140";"83"
"6/21/2021 12:00:00 AM";"09:00 - 09:59";"05069";"Nieuwezijds Kolk";"4.89373093";"52.37628765";"76"
"6/21/2021 12:00:00 AM";"09:00 - 09:59";"05070";"Nieuwezijds Kolk";"4.89284106";"52.37575366";"22"
"6/21/2021 12:00:00 AM";"09:00 - 09:59";"05073";"Westermarkt";"4.88453426";"52.37400204";"56"
"6/21/2021 12:00:00 AM";"09:00 - 09:59";"05074";"Westermarkt";"4.88354950";"52.37407874";"113"
"6/21/2021 12:00:00 AM";"09:00 - 09:59";"05077";"Marnixstraat";"4.87615428";"52.37228546";"23"
"6/21/2021 12:00:00 AM";"09:00 - 09:59";"05079";"Buiten Oranjestraat";"4.88805879";"52.38312149";"18"
"6/21/2021 12:00:00 AM";"09:00 - 09:59";"05080";"Buiten Oranjestraat";"4.88782167";"52.38330923";"33"
"6/21/2021 12:00:00 AM";"09:00 - 09:59";"05081";"Buiten Brouwersstraat";"4.89157253";"52.38150947";"14"
"6/21/2021 12:00:00 AM";"09:00 - 09:59";"05082";"Buiten Brouwersstraat";"4.89129168";"52.38167008";"31"
"6/21/2021 12:00:00 AM";"09:00 - 09:59";"05090";"Westerdoksdijk";"4.89331977";"52.38551629";"14"
"6/21/2021 12:00:00 AM";"09:00 - 09:59";"05092";"Barentszplein";"4.89160204";"52.38938281";"28"
"6/21/2021 12:00:00 AM";"09:00 - 09:59";"05097";"Centraal Station";"4.90087651";"52.37954379";"70"
"6/21/2021 12:00:00 AM";"09:00 - 09:59";"05101";"Centraal Station";"4.90105195";"52.37961641";"16"
"6/21/2021 12:00:00 AM";"09:00 - 09:59";"05103";"Centraal Station";"4.90127481";"52.37938365";"28"
"6/21/2021 12:00:00 AM";"09:00 - 09:59";"05104";"Centraal Station";"4.90164343";"52.37925034";"28"
"6/21/2021 12:00:00 AM";"09:00 - 09:59";"05106";"Centraal Station";"4.90229030";"52.37919008";"21"
"6/21/2021 12:00:00 AM";"09:00 - 09:59";"05107";"Centraal Station";"4.90195282";"52.37916174";"22"
"6/21/2021 12:00:00 AM";"09:00 - 09:59";"05154";"Marnixstraat";"4.87536375";"52.37207533";"18"
"6/21/2021 12:00:00 AM";"09:00 - 09:59";"06001";"Surinameplein";"4.85252231";"52.35807034";"37"
"6/21/2021 12:00:00 AM";"09:00 - 09:59";"06002";"Surinameplein";"4.85090753";"52.35807202";"21"
"6/21/2021 12:00:00 AM";"09:00 - 09:59";"06010";"Corantijnstraat";"4.85326125";"52.36131825";"11"
"6/21/2021 12:00:00 AM";"09:00 - 09:59";"06013";"Corantijnstraat";"4.85329945";"52.36180376";"11"
"6/21/2021 12:00:00 AM";"09:00 - 09:59";"06015";"Postjesweg";"4.85316124";"52.36352879";"13"
"6/21/2021 12:00:00 AM";"09:00 - 09:59";"06016";"J.P. Heijestraat";"4.86239635";"52.36472951";"22"
"6/21/2021 12:00:00 AM";"09:00 - 09:59";"06017";"J.P. Heijestraat";"4.86292317";"52.36487565";"32"
"6/21/2021 12:00:00 AM";"09:00 - 09:59";"06019";"Ten Katestraat";"4.86737423";"52.36591988";"18"
"6/21/2021 12:00:00 AM";"09:00 - 09:59";"06020";"Ten Katestraat";"4.86773990";"52.36603832";"62"
"6/21/2021 12:00:00 AM";"09:00 - 09:59";"06021";"Bilderdijkstraat";"4.87176488";"52.36712545";"27"
"6/21/2021 12:00:00 AM";"09:00 - 09:59";"06023";"Bilderdijkstraat";"4.87254032";"52.36736251";"33"
"6/21/2021 12:00:00 AM";"09:00 - 09:59";"06024";"Kinkerstraat";"4.87230885";"52.36706491";"16"
"6/21/2021 12:00:00 AM";"09:00 - 09:59";"06025";"Kinkerstraat";"4.87201094";"52.36743211";"11"
"6/21/2021 12:00:00 AM";"09:00 - 09:59";"06027";"Elandsgracht";"4.87855189";"52.36808953";"27"
